Latitude,Longitude,Time,Date,Number of Sats,GPS Speed (Kn),GPS True Heading,GPS Magnetic Variation,HDOP,C Magnetic Heading,C True Heading,Pitch Angle,Roll Angle,C Inside Temp (c),DFS Depth (m),DTB Height (m),Total Water Column (m),Batt Percent,Power Watts,Watt-Hours,Batt Volts,Batt Ampers,Batt State,Time to Empty,Current Step,Dist To Next (m),Next Speed (kn),Vehicle Speed (kn),Motor Speed CMD,Next Heading,Next Long,Next Lat,Next Depth (m),Depth Goal (m),Vehicle State,Error State,Distance to Track (m),Fin Pitch R,Fin Pitch L,Pitch Goal,Fin Yaw T,Fin Yaw B,Yaw Goal,Fin Roll,DVL-Depth (m),DVL -Altitude (m),DVL -Water Column (m),DVL-FixType,DVL-FixQuality,DVL-Temperature,Conductivity (mmhos/cm),Temperature (c),Salinity (ppt),Sound Speed (m/s),Date m/d/y   ,Time hh:mm:ss,Temp C,SpCond mS/cm,Sal ppt,Depth feet,pH,pH mV,Turbid+ NTU,Chl ug/L,BGA-PC cells/mL,ODOsat %,ODO mg/L,Battery volts,ROSEM Command Type
25.84588467,-80.176332,00:48.8,10/3/20,9,0.48,193.43,-6.992765471,1.23,67.6,63.21,6.15,-6.37,25.5,2.07,2.39,4.47,95,25,507.4,16.3,-1.5,D,1347.5,0,9025446,0,0,128,94.32,0,0,0,0,0,N,0,90,90,0,158,158,0,0,9999.99,2.45,2.577,2,9,27.6,0,27.60000038,2.97,1506.83691,10/3/20,16:40:50,27.63,5.531,2.97,0.977,7.88,-52.6,-0.8,1.4,-3405,28.6,2.22,12.6,
25.845882,-80.176331,00:49.8,10/3/20,9,0.483,193.43,-6.992764951,1.23,68.8,64.37,5.68,-4.08,25.5,2.04,2.5,4.54,95,25,507.4,16.3,-1.5,D,1347.5,0,9025446,0,0,128,94.32,0,0,0,0,0,N,0,90,90,0,158,158,0,0,9999.99,2.55,2.677,2,9,27.6,0,27.60000038,3,1506.8671,10/3/20,16:40:51,27.63,5.579,3,0.955,7.85,-50.4,-1.9,4.1,-1432,28.6,2.22,12.4,
25.8458795,-80.17633033,00:50.8,10/3/20,9,0.592,193.43,-6.992765178,1.23,68.2,63.79,4.38,-5.31,25.5,2.04,2.56,4.6,95,20,507.4,16.3,-1.2,D,1682.2,0,9025446,0,0,128,94.32,0,0,0,0,0,N,0,90,90,0,158,158,0,0,9999.99,2.6,2.727,2,9,27.6,0,27.60000038,3.01,1506.8765,10/3/20,16:40:52,27.63,5.592,3.01,0.976,7.87,-51.9,1.9,3.7,-855,28.6,2.22,12.4,
25.84587767,-80.17632933,00:51.8,10/3/20,9,0.585,193.43,-6.992765229,1.23,70.9,66.41,4.26,-6.08,25.6,2.03,2.57,4.61,95,20,507.4,16.3,-1.2,D,1705.3,0,9025445,0,0,128,94.32,0,0,0,0,0,N,0,90,90,0,158,158,0,0,9999.99,2.61,2.737,2,9,27.6,0,27.60000038,3.01,1506.87311,10/3/20,16:40:53,27.63,5.59,3.01,0.934,7.86,-51.2,-0.4,1.7,-2469,28.6,2.22,12.7,
25.84587383,-80.17632783,00:52.8,10/3/20,9,0.719,193.43,-6.992765573,1.02,72.3,67.77,3.73,-4.13,25.6,2.05,2.57,4.63,95,20,507.4,16.3,-1.2,D,1705.3,0,9025445,0,0,128,94.32,0,0,0,0,0,N,0,90,90,0,158,158,0,0,9999.99,2.61,2.737,2,9,27.6,0,27.60000038,3,1506.86216,10/3/20,16:40:54,27.63,5.574,3,0.97,7.86,-51,3.4,-1.9,487,28.6,2.22,12.4,
25.84587217,-80.17632617,00:53.8,10/3/20,9,0.522,193.43,-6.992765937,1.02,73,68.44,4.46,-5.37,25.6,2.02,2.62,4.64,95,20,507.4,16.3,-1.2,D,1705.3,0,9025445,0,0,128,94.32,0,0,0,0,0,N,0,90,90,0,158,158,0,0,9999.99,2.66,2.787,2,9,27.6,0,27.60000038,2.98,1506.83764,10/3/20,16:40:55,27.63,5.54,2.98,0.926,7.86,-51.2,-1.8,1.7,-611,28.6,2.22,12.5,
25.84586917,-80.17632483,00:54.8,10/3/20,9,0.534,193.43,-6.992766705,1.02,75.8,71.14,4.65,-6.86,25.6,2.04,2.62,4.66,95,20,507.4,16.3,-1.2,D,1705.3,0,9025445,0,0,128,94.32,0,0,0,0,0,N,0,90,90,0,146,146,0,0,9999.99,2.66,2.787,2,9,27.6,0,27.60000038,3.02,1506.88687,10/3/20,16:40:57,27.62,5.608,3.02,0.946,7.86,-51,-1.2,-1.2,-3339,28.6,2.22,12.5,
25.845866,-80.17632317,00:55.8,10/3/20,9,0.617,193.43,-6.992767086,1.02,80,75.17,4.22,-2.77,25.7,2.01,2.69,4.7,95,20,507.4,16.3,-1.2,D,1664.9,0,9025445,0,0,128,94.32,0,0,0,0,0,N,0,90,90,0,94,94,0,0,9999.99,2.73,2.857,2,9,27.6,0,27.60000038,3.05,1506.91362,10/3/20,16:40:58,27.62,5.667,3.05,0.947,7.89,-53.2,-1.3,2,-1360,28.6,2.21,12.6,
25.845864,-80.17632133,00:56.9,10/3/20,9,0.405,193.43,-6.992767644,1.02,80.2,75.36,4.4,-4.94,25.7,2.02,2.74,4.76,95,20,507.4,16.3,-1.2,D,1664.9,0,9025445,0,0,128,94.32,0,0,0,0,0,N,0,90,90,0,79,79,0,0,9999.99,2.78,2.907,2,9,27.6,0,27.60000038,2.99,1506.85186,10/3/20,16:40:59,27.62,5.556,2.99,0.958,7.86,-51,-1.4,-2.4,162,28.5,2.21,12.4,
25.84586267,-80.17631933,00:57.9,10/3/20,9,0.504,193.43,-6.992768465,1.02,85.7,80.59,4.11,-9.1,25.7,2.01,2.74,4.75,95,20,507.3,16.3,-1.2,D,1668.8,0,9025444,0,0,128,94.32,0,0,0,0,0,N,0,90,90,0,79,79,0,0,9999.99,2.78,2.907,2,9,27.6,0,27.60000038,2.95,1506.81226,10/3/20,16:41:00,27.62,5.481,2.95,0.951,7.85,-50.5,-1.4,-0.4,-3226,28.5,2.21,12.6,
25.84586083,-80.17631783,00:58.9,10/3/20,9,0.496,193.43,-6.99276948,1.02,88.1,82.86,3.85,-1.44,25.7,2.01,2.72,4.73,95,20,507.3,16.3,-1.2,D,1668.8,0,9025444,0,0,128,94.32,0,0,0,0,0,N,0,90,90,0,79,79,0,0,9999.99,2.76,2.887,2,9,27.6,0,27.60000038,2.95,1506.81226,10/3/20,16:41:00,27.62,5.481,2.95,0.951,7.85,-50.5,-1.4,-0.4,-3226,28.5,2.21,12.6,
25.84585917,-80.17631583,01:00.2,10/3/20,9,0.501,193.43,-6.992770125,1.02,91,85.6,4.45,-3.4,25.7,2.03,2.72,4.75,95,20,507.3,16.3,-1.2,D,1668.8,0,9025444,0,0,171,94.32,0,0,0,0,0,N,0,90,90,0,79,79,0,0,9999.99,2.76,2.887,2,9,27.6,0,27.60000038,2.91,1506.77263,10/3/20,16:41:02,27.61,5.425,2.91,0.975,7.85,-50.5,-1.4,-2.8,-2383,28.5,2.21,12.4,
25.8458555,-80.17630967,01:01.8,10/3/20,9,0.955,193.43,-6.992771991,1.02,93.3,87.76,4.69,-2.45,25.7,2.04,2.74,4.77,95,20,507.3,16.3,-1.2,D,1682,0,9025444,0,0,166,94.32,0,0,0,0,0,N,0,90,90,0,79,79,0,0,9999.99,2.78,2.907,2,9,27.6,0,27.60000038,2.9,1506.76068,10/3/20,16:41:04,27.59,5.396,2.9,0.971,7.85,-50.6,0.8,1.1,-1835,28.5,2.21,12.5,
25.845853,-80.17630333,01:02.8,10/3/20,9,1.424,193.43,-6.992774285,1.02,96.3,90.57,1.82,-2.86,25.7,1.99,2.74,4.73,95,32,507.3,16.3,-1.9,D,1062.1,0,9025443,0,0,140,94.32,0,0,0,0,0,N,0,90,90,0,79,79,0,0,9999.99,2.78,2.907,2,9,27.6,0,27.60000038,2.97,1506.82909,10/3/20,16:41:05,27.6,5.524,2.97,0.946,7.84,-49.9,-0.8,-2,-2079,28.4,2.2,12.5,
25.84584983,-80.17629683,01:04.4,10/3/20,9,1.419,193.43,-6.992777741,1.02,95,89.35,2.75,-3.08,25.7,2,2.58,4.57,95,22,507.3,16.3,-1.3,D,1548.7,0,9025443,0,0,140,94.32,0,0,0,0,0,N,0,90,90,0,79,79,0,0,9999.99,2.6,2.727,2,9,27.6,0,27.60000038,2.87,1506.7204,10/3/20,16:41:07,27.6,5.354,2.87,0.946,7.82,-48.9,-0.5,-2.6,-1343,28.4,2.2,12.5,
25.845847,-80.1762825,01:05.6,10/3/20,10,1.28,193.43,-6.992785423,0.85,92.1,86.63,4.22,-3.57,25.7,2.03,2.58,4.61,95,22,507.3,16.3,-1.3,D,1548.7,0,9025443,0,0,140,94.32,0,0,0,0,0,N,0,90,90,0,79,79,0,0,9999.99,2.62,2.747,2,9,27.6,0,27.60000038,2.88,1506.73513,10/3/20,16:41:08,27.59,5.37,2.88,0.93,7.86,-51,-1.3,2.9,-969,28.3,2.2,12.6,
25.8458445,-80.17627683,01:07.4,10/3/20,10,1.205,193.43,-6.992789419,0.85,92.2,86.72,1.55,-11,25.6,1.98,2.7,4.68,95,21,507.3,16.3,-1.2,D,1627.4,0,9025443,0,0,60,94.32,0,0,0,0,0,N,0,90,90,0,79,79,0,0,9999.99,2.74,2.867,2,9,27.6,0,27.60000038,2.91,1506.75885,10/3/20,16:41:10,27.59,5.42,2.91,0.929,7.85,-50.8,-1.2,1.3,-5607,28.3,2.2,12.6,
25.84584283,-80.17627117,01:08.4,10/3/20,10,0.996,193.43,-6.992792474,0.85,90.4,85.03,1.9,-8.4,25.6,2.03,2.7,4.73,95,31,507.3,16.3,-1.9,D,1107.7,0,9025439,0,0,60,94.32,0,0,0,0,0,N,0,90,90,0,79,79,0,0,9999.99,2.74,2.867,2,9,27.6,0,27.60000038,2.91,1506.75885,10/3/20,16:41:10,27.59,5.42,2.91,0.929,7.85,-50.8,-1.2,1.3,-5607,28.3,2.2,12.6,
25.84583567,-80.176273,01:10.1,10/3/20,10,0.436,193.43,-6.992794762,0.85,90.2,84.84,6.58,-7.84,25.7,2.08,2.72,4.81,95,31,507.3,16.3,-1.9,D,1107.7,0,9025439,0,0,60,94.32,0,0,0,0,0,N,0,90,90,0,79,79,0,0,9999.99,2.74,2.867,2,9,27.6,0,27.60000038,2.95,1506.81259,10/3/20,16:41:12,27.6,5.485,2.95,0.995,7.85,-50.3,-0.7,-0.8,-593,28.3,2.19,12.7,
25.8458335,-80.17627533,01:11.1,10/3/20,10,0.6,193.43,-6.99279354,0.85,95.2,89.54,4.68,-7.16,25.8,2.11,2.78,4.88,95,31,507.3,16.3,-1.9,D,1107.7,0,9025440,0,0,60,94.32,0,0,0,0,0,N,0,90,90,0,79,79,0,0,9999.99,2.82,2.947,2,9,27.6,0,27.60000038,2.87,1506.73382,10/3/20,16:41:13,27.61,5.345,2.87,0.943,7.82,-48.6,-0.6,-0.5,840,28.3,2.19,12.5,
25.845831,-80.176277,01:12.1,10/3/20,10,0.763,193.43,-6.992791834,0.85,99.6,93.65,6.6,-6.62,25.8,2.11,2.7,4.81,95,57,507.3,16.2,-3.5,D,600.7,0,9025440,0,0,60,94.32,0,0,0,0,0,N,0,90,90,0,79,79,0,0,9999.99,2.74,2.867,2,9,27.6,0,27.60000038,2.95,1506.82086,10/3/20,16:41:14,27.61,5.491,2.95,1.228,7.84,-50.2,-1.5,1,-3446,28.2,2.19,12.5,
25.845828,-80.17628283,01:13.1,10/3/20,10,1.446,193.43,-6.992790482,0.85,108,101.46,8,-4.77,25.8,2.11,2.69,4.8,95,57,507.3,16.2,-3.5,D,600.7,0,9025440,0,0,60,94.32,0,0,0,0,0,N,0,90,90,0,79,79,0,0,9999.99,2.75,2.877,2,9,27.6,0,27.60000038,3.02,1506.89691,10/3/20,16:41:15,27.61,5.612,3.02,1.188,7.82,-48.6,-0.4,1.1,-1640,28.2,2.19,12.4,
25.84583283,-80.17628817,01:14.1,10/3/20,8,1.347,193.43,-6.992786557,0.96,117,109.79,12.7,-5.5,25.8,2.16,2.7,4.86,95,57,507.3,16.2,-3.5,D,600.7,0,9025441,0,0,60,94.32,0,0,0,0,0,N,0,90,90,0,79,79,0,0,9999.99,2.79,2.917,2,9,27.6,0,27.60000038,3.03,1506.90674,10/3/20,16:41:16,27.62,5.624,3.03,1.164,7.84,-49.9,-1.2,0.7,-1469,28.2,2.18,12.6,
25.84583433,-80.176296,01:15.1,10/3/20,6,1.506,193.43,-6.992784029,1.13,127.2,119.23,12.9,-4.52,25.8,2.24,2.64,4.88,95,54,507.3,16.2,-3.3,D,629.3,0,9025442,0,0,60,94.32,0,0,0,0,0,N,0,90,90,0,79,79,0,0,9999.99,2.76,2.884059,2,9,27.6,0,27.60000038,3.03,1506.91808,10/3/20,16:41:17,27.63,5.636,3.03,1.071,7.82,-48.6,1.1,-1.8,-1586,28.1,2.18,12.6,
25.84582617,-80.176309,01:16.1,10/3/20,5,2.597,193.43,-6.992779532,1.31,138.8,130.03,13.3,-6.22,25.8,2.32,2.53,4.85,95,54,507.3,16.2,-3.3,D,629.3,0,9025443,0,0,60,94.32,0,0,0,0,0,N,0,90,90,0,79,79,0,0,9999.99,2.64,2.769024,2,9,27.6,0,27.60000038,3.05,1506.9461,10/3/20,16:41:18,27.63,5.659,3.05,1.327,7.84,-49.7,-0.8,0.9,-208,28.1,2.18,12.6,
25.84582617,-80.176309,01:17.1,10/3/20,0,2.597,193.43,-6.992779532,99.99,149.1,139.73,15.6,-5.76,25.8,2.43,2.47,4.9,95,55,507.2,16.2,-3.3,D,624.6,0,9025443,0,0,60,94.32,0,0,0,0,0,N,0,90,90,0,79,79,0,0,0.57,2.59,3.288455,2,9,27.6,0,27.60000038,3.05,1506.95946,10/3/20,16:41:19,27.63,5.673,3.05,1.603,7.82,-48.6,0.4,-2.7,-2822,28.1,2.17,12.5,
25.84582617,-80.176309,01:18.2,10/3/20,0,2.597,193.43,-6.992779532,99.99,161.1,151.22,18,-2.11,25.8,2.52,2.36,4.88,95,55,507.2,16.2,-3.3,D,624.6,0,9025443,0,0,60,94.32,0,0,0,0,0,N,0,90,90,0,79,79,0,0,0.32,2.5,2.946542,2,9,27.6,0,27.60000038,3.1,1507.03398,10/3/20,16:41:20,27.64,5.753,3.1,1.855,7.85,-50.5,-0.7,-0.1,-2294,28,2.17,12.5,
25.84582617,-80.176309,01:19.2,10/3/20,0,2.597,193.43,-6.992779532,99.99,170.5,160.39,18,-4.58,25.8,2.62,2.36,4.97,95,32,507.2,16.3,-2,D,1053.8,0,9025443,0,0,60,94.32,0,0,0,0,0,N,0,90,90,0,79,79,0,0,0.42,2.5,3.046542,2,9,27.6,0,27.60000038,3.13,1507.07407,10/3/20,16:41:21,27.64,5.8,3.13,2.168,7.82,-48.6,0.4,-2.1,-1484,28,2.17,12.7,
25.84582617,-80.176309,01:20.2,10/3/20,0,2.597,193.43,-6.992779532,99.99,177.4,167.23,16.2,-7.59,25.8,2.62,2.18,4.8,95,32,507.2,16.3,-2,D,1053.8,0,9025443,0,0,128,94.32,0,0,0,0,0,N,0,90,90,0,79,79,0,0,9999.99,2.33,2.454786,2,9,27.6,0,27.60000038,3.15,1507.1092,10/3/20,16:41:22,27.65,5.843,3.15,2.375,7.86,-51,-1.2,1,-2337,27.9,2.16,12.6,
25.84582617,-80.176309,01:21.2,10/3/20,0,2.597,193.43,-6.992779532,99.99,183.5,173.35,17.8,-2.03,25.8,2.64,2.15,4.79,95,23,507.2,16.3,-1.4,D,1453.4,0,9025443,0,0,128,94.32,0,0,0,0,0,N,0,90,90,0,79,79,0,0,9999.99,2.3,2.427021,0,0,27.6,0,27.60000038,3.16,1507.12108,10/3/20,16:41:23,27.65,5.863,3.16,2.498,7.82,-48.7,0.2,-0.7,-2862,27.9,2.16,12.5,
25.84582617,-80.176309,01:22.2,10/3/20,0,2.597,193.43,-6.992779532,99.99,187.6,177.49,19.1,-5.84,25.8,2.64,2.15,4.79,95,23,507.2,16.3,-1.4,D,1453.4,0,9025443,0,0,128,94.32,0,0,0,0,0,N,0,90,90,0,79,79,0,0,0.53,2.3,2.957021,2,9,27.6,0,27.60000038,3.2,1507.16433,10/3/20,16:41:24,27.65,5.925,3.2,2.58,7.86,-51,1,0.8,-1417,27.9,2.16,12.6,
25.84582617,-80.176309,01:23.2,10/3/20,0,2.597,193.43,-6.992779532,99.99,191.6,181.57,20.2,-4.8,25.8,2.58,1.77,4.35,95,23,507.2,16.3,-1.4,D,1453.4,0,9025443,0,0,128,94.32,0,0,0,0,0,N,0,90,90,0,79,79,0,0,9999.99,1.94,2.067,2,9,27.6,0,27.60000038,3.19,1507.15529,10/3/20,16:41:25,27.65,5.908,3.19,2.498,7.83,-49.1,0.4,0.8,-102,27.8,2.15,12.5,
25.84582617,-80.176309,01:24.2,10/3/20,5,2.597,193.43,-6.992779532,8.89,194.4,184.43,20.6,-4.48,25.8,2.54,2.09,4.63,95,19,507.2,16.3,-1.2,D,1729.4,0,9025443,0,0,128,94.32,0,0,0,0,0,N,0,90,90,0,79,79,0,0,9999.99,2.27,2.397,2,9,27.6,0,27.60000038,3.19,1507.145,10/3/20,16:41:26,27.65,5.914,3.19,2.338,7.85,-50.8,-0.8,-4,-1170,27.7,2.15,12.4,
25.84582617,-80.176309,01:25.2,10/3/20,5,2.597,193.43,-6.992779532,8.89,194.9,184.95,20.1,-4.33,25.8,2.43,2.12,4.55,95,19,507.2,16.3,-1.2,D,1729.4,0,9025443,0,0,128,94.32,0,0,0,0,0,N,0,90,90,0,79,79,0,0,9999.99,2.3,2.427,2,9,27.6,0,27.60000038,3.19,1507.13445,10/3/20,16:41:27,27.65,5.909,3.19,2.136,7.83,-49.1,-0.8,0.7,958,27.7,2.14,12.5,
25.84582617,-80.176309,01:26.2,10/3/20,5,2.597,193.43,-6.992779532,3.95,194.1,184.12,18.2,-4.07,25.8,2.38,2.18,4.56,95,19,507.2,16.3,-1.2,D,1729.4,0,9025443,0,0,128,94.32,0,0,0,0,0,N,0,90,90,0,79,79,0,0,0.78,2.35,3.257,2,9,27.6,0,27.60000038,3.18,1507.11161,10/3/20,16:41:28,27.65,5.885,3.18,1.918,7.85,-50.5,-1.3,2.6,-5094,27.7,2.14,12.6,
25.84582617,-80.176309,01:27.2,10/3/20,5,2.597,193.43,-6.992779532,3.95,191.9,181.87,15.4,-4.28,25.9,2.3,2.28,4.58,95,19,507.2,16.3,-1.2,D,1729.4,0,9025443,0,0,128,94.32,0,0,0,0,0,N,0,90,90,0,79,79,0,0,0.59,2.43,3.147,2,9,27.6,0,27.60000038,3.16,1507.08259,10/3/20,16:41:29,27.65,5.857,3.16,1.676,7.83,-49.3,1.2,-2.2,-41,27.6,2.14,12.6,
25.84582617,-80.176309,01:28.2,10/3/20,5,2.597,193.43,-6.992779532,3.95,190.7,180.65,11.9,-4.46,25.9,2.17,2.38,4.56,95,19,507.2,16.3,-1.2,D,1753.9,0,9025443,0,0,128,94.32,0,0,0,0,0,N,0,90,90,0,79,79,0,0,0.43,2.51,3.067,2,9,27.6,0,27.60000038,3.16,1507.05575,10/3/20,16:41:30,27.65,5.854,3.16,1.438,7.85,-50.6,0.7,-1.4,-2415,27.6,2.13,12.6,
25.84582617,-80.176309,01:29.2,10/3/20,4,2.597,193.43,-6.992779532,2.65,187.2,177.09,7.95,-3.97,25.9,2.08,2.53,4.61,95,19,507.2,16.3,-1.2,D,1753.9,0,9025443,0,0,128,94.32,0,0,0,0,0,N,0,90,90,0,79,79,0,0,9999.99,2.62,2.750991,2,9,27.6,0,27.60000038,3.16,1507.05055,10/3/20,16:41:31,27.65,5.86,3.16,1.202,7.83,-49.5,2.3,0.9,-1564,27.6,2.13,12.4,
25.84582617,-80.176309,01:30.2,10/3/20,10,2.597,193.43,-6.992779532,2.17,186.9,176.78,2.24,-4.19,25.9,2.01,2.67,4.68,95,19,507.2,16.3,-1.2,D,1753.9,0,9025443,0,0,128,94.32,0,0,0,0,0,N,0,90,90,0,79,79,0,0,9999.99,2.72,2.847,2,9,27.6,0,27.60000038,3.14,1507.00352,10/3/20,16:41:32,27.65,5.82,3.14,0.963,7.85,-50.4,0,-0.6,-4501,27.5,2.13,12.6,
25.84582617,-80.176309,01:31.2,10/3/20,9,2.597,193.43,-6.992779532,1.06,187.2,177.09,0.01,-6.25,25.9,2.01,2.7,4.71,95,20,507.1,16.3,-1.2,D,1723.7,0,9025443,0,0,128,94.32,0,0,0,0,0,N,0,90,90,0,79,79,0,0,9999.99,2.71,2.837,2,9,27.6,0,27.60000038,3.13,1506.99384,10/3/20,16:41:33,27.65,5.797,3.13,0.935,7.83,-49.6,0.3,-0.4,-1309,27.5,2.13,12.5,
25.84582617,-80.176309,01:32.2,10/3/20,9,2.597,193.43,-6.992779532,1.02,186.8,176.68,3.12,-5.48,25.9,2.02,2.68,4.7,95,20,507.1,16.3,-1.2,D,1723.7,0,9025443,0,0,128,94.32,0,0,0,0,0,N,0,90,90,0,79,79,0,0,9999.99,2.68,2.807,2,9,27.6,0,27.60000038,3.14,1507.00418,10/3/20,16:41:34,27.65,5.826,3.14,1.017,7.85,-50.4,-0.4,-2.7,-2334,27.4,2.12,12.7,
25.84582617,-80.176309,01:33.3,10/3/20,10,2.597,193.43,-6.992779532,0.85,186.9,176.78,4.59,-2.29,25.9,2.04,2.66,4.7,95,20,507.1,16.3,-1.2,D,1723.7,0,9025443,0,0,128,94.32,0,0,0,0,0,N,0,90,90,0,79,79,0,0,9999.99,2.7,2.827,2,9,27.6,0,27.60000038,3.1,1506.96564,10/3/20,16:41:35,27.65,5.75,3.1,0.987,7.83,-49.5,-0.7,-0.4,-2001,27.4,2.12,12.4,
25.84582617,-80.176309,01:34.3,10/3/20,10,2.597,193.43,-6.992779532,0.85,185.6,175.47,4.59,-7.38,25.9,2.03,2.66,4.69,95,20,507.1,16.3,-1.2,D,1723.7,0,9025443,0,0,128,94.32,0,0,0,0,0,N,0,90,90,0,79,79,0,0,9999.99,2.7,2.827,2,9,27.6,0,27.60000038,3.14,1507.01069,10/3/20,16:41:36,27.65,5.817,3.14,0.948,7.85,-50.3,-1.4,3,-1690,27.4,2.12,12.6,
25.84582617,-80.176309,01:35.3,10/3/20,10,2.597,193.43,-6.992779532,0.85,184.5,174.36,4.69,-2.17,25.9,2,2.66,4.66,95,19,507.1,16.3,-1.2,D,1755.1,0,9025443,0,0,128,94.32,0,0,0,0,0,N,0,90,90,0,79,79,0,0,9999.99,2.7,2.827,2,9,27.6,0,27.60000038,3.14,1507.00687,10/3/20,16:41:37,27.65,5.815,3.14,0.963,7.84,-49.7,-0.2,-3,-1465,27.4,2.12,12.6,
25.84582617,-80.176309,01:36.2,10/3/20,10,2.597,193.43,-6.992779532,0.85,184.3,174.15,3.8,-5.13,26,2.02,2.68,4.7,95,19,507.1,16.3,-1.2,D,1755.1,0,9025443,0,0,128,94.32,0,0,0,0,0,N,0,90,90,0,79,79,0,0,9999.99,2.72,2.847,2,9,27.6,0,27.60000038,3.12,1506.98135,10/3/20,16:41:38,27.65,5.779,3.12,0.936,7.85,-50.3,-1.2,2.5,-1442,27.4,2.12,12.6,
25.8458565,-80.1762415,01:37.3,10/3/20,10,0.602,193.43,-6.992770575,0.85,182.8,172.64,3.96,-7.15,26,2.07,2.67,4.74,95,19,507.1,16.3,-1.2,D,1758,0,9025437,0,0,128,94.32,0,0,0,0,0,N,0,90,90,0,79,79,0,0,9999.99,2.7,2.827,2,9,27.6,0,27.60000038,3.11,1506.97424,10/3/20,16:41:39,27.65,5.775,3.11,0.958,7.84,-49.7,-0.2,-1.8,-2906,27.4,2.12,12.5,
25.84585417,-80.17624017,01:38.3,10/3/20,10,0.73,193.43,-6.992815389,0.85,182.7,172.54,3.81,-0.57,26,2.01,2.67,4.67,95,19,507.1,16.3,-1.2,D,1758,0,9025436,0,0,128,94.32,0,0,0,0,0,N,0,90,90,0,79,79,0,0,9999.99,2.7,2.827,2,9,27.6,0,27.60000038,3.11,1506.97235,10/3/20,16:41:40,27.64,5.777,3.11,0.933,7.84,-50.2,-0.4,-1.5,-2430,27.4,2.12,12.6,
25.84585317,-80.1762355,01:39.3,10/3/20,10,0.604,193.43,-6.992815863,0.85,179.2,169.03,4.28,-8.1,26,2.01,2.65,4.67,95,19,507.1,16.3,-1.2,D,1758,0,9025436,0,0,128,94.32,0,0,0,0,0,N,0,90,90,0,79,79,0,0,9999.99,2.69,2.817,2,9,27.6,0,27.60000038,3.12,1506.98229,10/3/20,16:41:41,27.64,5.785,3.12,0.965,7.84,-49.9,-1.6,-1.1,-2661,27.3,2.12,12.7,
25.84585233,-80.17623233,01:40.2,10/3/20,10,0.691,193.43,-6.992818527,0.85,180.4,170.23,4.57,-2.62,26,2.02,2.65,4.68,95,19,507.1,16.3,-1.1,D,1766.8,0,9025436,0,0,128,94.32,0,0,0,0,0,N,0,90,90,0,79,79,0,0,9999.99,2.69,2.817,2,9,27.6,0,27.60000038,3.13,1506.99419,10/3/20,16:41:42,27.65,5.8,3.13,0.943,7.84,-50.2,-0.1,1.1,-4416,27.3,2.12,12.6,
25.84584933,-80.17622933,01:41.3,10/3/20,10,0.729,193.43,-6.992820314,0.85,176.9,166.73,4.13,-5.78,26,2.03,2.63,4.66,95,19,507.1,16.3,-1.1,D,1766.8,0,9025435,0,0,128,94.32,0,0,0,0,0,N,0,90,90,0,79,79,0,0,9999.99,2.67,2.797,2,9,27.6,0,27.60000038,3.13,1506.99547,10/3/20,16:41:43,27.65,5.809,3.13,0.959,7.84,-49.8,-0.1,2.9,-1452,27.3,2.12,12.4,
25.84584617,-80.1762265,01:42.3,10/3/20,10,0.634,193.43,-6.992821696,0.85,176.9,166.73,4.34,-5.12,26,2.01,2.63,4.63,95,19,507.1,16.3,-1.1,D,1766.8,0,9025435,0,0,128,94.32,0,0,0,0,0,N,0,90,90,0,79,79,0,0,9999.99,2.67,2.797,2,9,27.6,0,27.60000038,3.14,1507.00478,10/3/20,16:41:44,27.65,5.818,3.14,0.952,7.84,-50.2,0.1,3.3,-2594,27.3,2.11,12.6,
25.84584533,-80.17622333,01:43.3,10/3/20,10,0.622,193.43,-6.992822955,0.85,176.2,166.04,3.5,-4.39,26,2.02,2.46,4.48,95,19,507.1,16.3,-1.1,D,1766.8,0,9025435,0,0,128,94.32,0,0,0,0,0,N,0,90,90,0,79,79,0,0,9999.99,2.5,2.627,2,9,27.6,0,27.60000038,3.14,1507.00326,10/3/20,16:41:45,27.65,5.824,3.14,0.944,7.87,-51.9,0.1,0.1,-1932,27.3,2.11,12.6,
25.8458455,-80.17622017,01:44.3,10/3/20,10,0.715,193.43,-6.992824741,0.85,173.6,163.45,3.88,-5.57,26,2.05,2.58,4.62,95,19,507.1,16.3,-1.2,D,1755.1,0,9025434,0,0,128,94.32,0,0,0,0,0,N,0,90,90,0,79,79,0,0,9999.99,2.61,2.737,2,9,27.6,0,27.60000038,3.13,1506.99428,10/3/20,16:41:46,27.65,5.808,3.13,0.962,7.84,-50.1,-0.4,3.9,-3931,27.3,2.11,12.6,
25.84584533,-80.17621633,01:45.3,10/3/20,10,0.791,193.43,-6.992826668,0.85,173.3,163.16,4.05,-1.92,26,2,2.58,4.58,95,19,507.1,16.3,-1.2,D,1755.1,0,9025434,0,0,128,94.32,0,0,0,0,0,N,0,90,90,0,79,79,0,0,9999.99,2.61,2.737,2,9,27.6,0,27.60000038,3.13,1506.999,10/3/20,16:41:47,27.65,5.797,3.13,0.926,7.83,-49.4,-1.3,-1.4,-1331,27.3,2.11,12.4,
25.8458445,-80.17621333,01:46.3,10/3/20,10,0.549,193.43,-6.992828948,0.85,170.3,160.2,4.04,-7.69,26,2.04,2.58,4.62,95,19,507.1,16.3,-1.2,D,1755.1,0,9025434,0,0,128,94.32,0,0,0,0,0,N,0,90,90,0,79,79,0,0,9999.99,2.62,2.747,2,9,27.6,0,27.60000038,3.12,1506.98112,10/3/20,16:41:48,27.64,5.784,3.12,0.951,7.84,-50.2,1.2,4,-1524,27.3,2.11,12.6,
25.845843,-80.1762105,01:47.3,10/3/20,10,0.644,193.43,-6.992830634,0.85,169.5,159.41,4.23,0.07,26.1,2.02,2.57,4.59,95,20,507,16.3,-1.2,D,1706.7,0,9025433,0,0,128,94.32,0,0,0,0,0,N,0,90,90,0,79,79,0,0,9999.99,2.61,2.737,2,9,27.6,0,27.60000038,3.11,1506.97689,10/3/20,16:41:49,27.64,5.775,3.11,0.933,7.83,-49.6,-0.5,-1.2,-4034,27.3,2.11,12.6,
25.845842,-80.17620767,01:48.3,10/3/20,10,0.621,193.43,-6.992832126,0.85,168.1,158.04,3.58,-5.69,26.1,2.04,2.56,4.59,95,20,507,16.3,-1.2,D,1706.7,0,9025433,0,0,128,94.32,0,0,0,0,0,N,0,90,90,0,79,79,0,0,9999.99,2.59,2.717,2,9,27.6,0,27.60000038,3.12,1506.99159,10/3/20,16:41:50,27.64,5.787,3.12,0.93,7.83,-49.5,-1.7,1.2,-3394,27.2,2.11,12.6,
25.8458405,-80.176206,01:49.3,10/3/20,10,0.618,193.43,-6.992833689,0.85,166.2,156.18,3.6,-6.73,26.1,2.06,2.56,4.62,95,19,507,16.3,-1.2,D,1733.3,0,9025433,0,0,128,94.32,0,0,0,0,0,N,0,90,90,0,79,79,0,0,9999.99,2.59,2.717,2,9,27.6,0,27.60000038,3.09,1506.96033,10/3/20,16:41:52,27.64,5.735,3.09,0.931,7.8,-47.5,-1.6,0.4,-3786,27.2,2.11,12.6,
25.8458385,-80.17619983,01:50.5,10/3/20,10,0.605,193.43,-6.99283612,0.85,164.6,154.62,3.98,-1.98,26.1,2.03,2.56,4.6,95,19,507,16.3,-1.2,D,1733.3,0,9025432,0,0,128,94.32,0,0,0,0,0,N,0,90,90,0,143,143,0,0,9999.99,2.6,2.727,2,9,27.6,0,27.60000038,3.09,1506.96033,10/3/20,16:41:52,27.64,5.735,3.09,0.931,7.8,-47.5,-1.6,0.4,-3786,27.2,2.11,12.6,
25.84583717,-80.176197,01:51.5,10/3/20,10,0.596,193.43,-6.992837906,0.85,162.1,152.19,4.06,-5.76,26.2,2.03,2.56,4.6,95,20,507,16.3,-1.2,D,1672.8,0,9025432,0,0,128,94.32,0,0,0,0,0,N,0,90,90,0,171,171,0,0,9999.99,2.6,2.727,2,9,27.6,0,27.60000038,3.07,1506.9365,10/3/20,16:41:54,27.64,5.7,3.07,0.946,7.8,-47.5,-0.9,3.1,-1954,27.2,2.11,12.4,
25.84583483,-80.17619417,01:52.9,10/3/20,10,0.794,193.43,-6.992839422,0.85,160.8,150.93,4.31,-4.73,26.2,2.06,2.39,4.45,95,20,507,16.3,-1.2,D,1654.5,0,9025432,0,0,128,94.32,0,0,0,0,0,N,0,90,90,0,219,219,0,0,9999.99,2.43,2.557,2,9,27.6,0,27.60000038,3.07,1506.9365,10/3/20,16:41:54,27.64,5.7,3.07,0.946,7.8,-47.5,-0.9,3.1,-1954,27.2,2.11,12.4,
25.84583333,-80.17619083,01:54.0,10/3/20,10,0.768,193.43,-6.992840797,0.85,161.4,151.51,4,-5.05,26.1,2.02,2.54,4.57,95,20,507,16.3,-1.2,D,1654.5,0,9025431,0,0,128,94.32,0,0,0,0,0,N,0,90,90,0,219,219,0,0,9999.99,2.58,2.707,2,9,27.6,0,27.60000038,3.06,1506.92421,10/3/20,16:41:56,27.63,5.673,3.06,0.932,7.81,-47.9,0.2,-1.4,-3242,27.2,2.1,12.6,
25.84583167,-80.176188,01:55.0,10/3/20,10,0.604,193.43,-6.99284259,0.85,158.3,148.52,4.11,-4,26.1,2.02,2.54,4.56,95,20,507,16.3,-1.2,D,1651.9,0,9025431,0,0,175,94.32,0,0,0,0,0,N,0,90,90,0,219,219,0,0,9999.99,2.58,2.707,2,9,27.6,0,27.60000038,3.06,1506.92421,10/3/20,16:41:56,27.63,5.673,3.06,0.932,7.81,-47.9,0.2,-1.4,-3242,27.2,2.1,12.6,
25.84582983,-80.17618533,01:56.0,10/3/20,10,0.732,193.43,-6.992844059,0.85,159.8,149.96,5.63,5.22,26.1,2.01,2.5,4.51,95,20,507,16.3,-1.2,D,1651.9,0,9025431,0,0,181,94.32,0,0,0,0,0,N,0,90,90,0,219,219,0,0,9999.99,2.55,2.677,2,9,27.6,0,27.60000038,3.02,1506.87909,10/3/20,16:41:58,27.63,5.62,3.02,0.944,7.81,-48.3,1,2.4,-2492,27.2,2.1,12.6,
25.84582617,-80.176181,01:57.0,10/3/20,10,1.44,193.43,-6.992845405,0.85,163.3,153.35,2.2,-0.72,26.1,2.03,2.51,4.54,95,20,507,16.3,-1.2,D,1651.9,0,9025430,0,0,180,94.32,0,0,0,0,0,N,0,90,90,0,219,219,0,0,9999.99,2.54,2.667,2,9,27.6,0,27.60000038,3.11,1506.97581,10/3/20,16:41:59,27.63,5.771,3.11,0.959,7.85,-50.6,0.8,-1.1,-208,27.2,2.1,12.5,
25.84582,-80.1761755,01:58.0,10/3/20,10,1.755,348.21,-6.992847495,0.85,167.9,157.84,1.82,4.49,26.1,2.01,2.55,4.55,95,46,507,16.3,-2.8,D,745.3,0,9025430,0,0,180,94.32,0,0,0,0,0,N,0,90,90,0,219,219,0,0,9999.99,2.56,2.687,2,9,27.6,0,27.60000038,2.92,1506.77759,10/3/20,16:42:00,27.63,5.441,2.92,1.017,7.83,-49.2,-1,-0.1,-3178,27.2,2.11,12.5,
25.84581233,-80.17616917,01:59.1,10/3/20,10,2.27,105.02,-6.992849936,0.85,176.3,166.13,1.42,3.37,26.1,1.99,2.57,4.57,95,46,507,16.3,-2.8,D,745.3,0,9025429,0,0,179,94.32,0,0,0,0,0,N,0,90,90,0,219,219,0,0,9999.99,2.59,2.717,2,9,27.6,0,27.60000038,2.93,1506.7797,10/3/20,16:42:01,27.62,5.452,2.93,1.005,7.87,-51.9,-1.4,2.7,-1054,27.2,2.11,12.6,
25.8458035,-80.17616433,02:00.1,10/3/20,10,2.078,132.76,-6.992852668,0.85,184.1,173.95,1.74,0.88,26.1,2.02,2.63,4.65,95,41,507,16.3,-2.5,D,834.3,0,9025428,0,0,179,94.32,0,0,0,0,0,N,0,90,90,0,219,219,0,0,9999.99,2.64,2.767,2,9,27.6,0,27.60000038,3.05,1506.90759,10/3/20,16:42:02,27.61,5.664,3.05,1.023,7.82,-48.9,-0.6,2,-1675,27.2,2.1,12.6,
25.8457945,-80.17616067,02:01.1,10/3/20,10,2.014,145.33,-6.992854335,0.85,190.1,180.04,2.2,1.41,26.2,2.03,2.68,4.71,95,41,507,16.3,-2.5,D,834.3,0,9025428,0,0,179,94.32,0,0,0,0,0,N,0,90,90,0,219,219,0,0,9999.99,2.7,2.827,2,9,27.6,0,27.60000038,2.99,1506.84969,10/3/20,16:42:03,27.62,5.553,2.99,1.023,7.86,-51.2,-0.8,-0.8,-3147,27.2,2.11,12.4,
25.8457855,-80.176157,02:02.1,10/3/20,10,1.931,148.1,-6.992855277,0.85,195.6,185.66,2.89,7.19,26.2,2,2.71,4.72,95,41,507,16.3,-2.5,D,839.6,0,9025427,0,0,180,94.32,0,0,0,0,0,N,0,90,90,0,219,219,0,0,9999.99,2.73,2.857,2,9,27.6,0,27.60000038,2.99,1506.8502,10/3/20,16:42:04,27.61,5.557,2.99,0.956,7.82,-49,-0.3,-4.6,-478,27.2,2.11,12.6,
25.84577567,-80.1761545,02:03.2,10/3/20,10,2.105,158.34,-6.992856219,0.85,205.2,195.59,2.95,1.1,26.1,2,2.76,4.76,95,43,506.9,16.3,-2.6,D,797.4,0,9025427,0,0,180,94.32,0,0,0,0,0,N,0,90,90,0,231,231,0,0,9999.99,2.79,2.917,2,9,27.6,0,27.60000038,3.12,1506.98222,10/3/20,16:42:05,27.62,5.786,3.12,0.991,7.85,-50.5,-1.2,0.6,-2742,27.2,2.1,12.5,
25.8457665,-80.1761535,02:04.2,10/3/20,10,2.165,172.78,-6.992856344,0.85,213.7,204.46,3.13,4.97,26.2,2.02,2.76,4.78,95,43,506.9,16.3,-2.6,D,797.4,0,9025427,0,0,180,94.32,0,0,0,0,0,N,0,90,90,0,250,250,0,0,9999.99,2.79,2.917,2,9,27.6,0,27.60000038,3,1506.85641,10/3/20,16:42:06,27.63,5.584,3,0.991,7.83,-49.3,-0.9,1.6,-3213,27.2,2.1,12.6,
25.84575667,-80.176153,02:05.2,10/3/20,10,2.161,176.07,-6.99285566,0.85,226,217.39,4.38,4.46,26.2,2.02,2.72,4.74,95,43,506.9,16.3,-2.6,D,797.4,0,9025427,0,0,180,94.32,0,0,0,0,0,N,0,90,90,0,250,250,0,0,9999.99,2.75,2.877,2,9,27.6,0,27.60000038,2.99,1506.84884,10/3/20,16:42:07,27.62,5.554,2.99,0.956,7.86,-51,-1.4,1,-3029,27.2,2.11,12.5,
25.8457475,-80.17615383,02:06.2,10/3/20,10,1.758,180.42,-6.992854583,0.85,238.4,230.45,4.31,2.08,26.1,2.01,2.73,4.74,95,43,506.9,16.3,-2.6,D,797.4,0,9025427,0,0,180,94.32,0,0,0,0,0,N,0,90,90,0,250,250,0,0,9999.99,2.77,2.897,2,9,27.6,0,27.60000038,2.99,1506.84927,10/3/20,16:42:08,27.61,5.552,2.99,0.96,7.83,-49.6,2.8,2.4,-685,27.2,2.11,12.6,
25.84573333,-80.17615933,02:07.7,10/3/20,10,1.537,198.11,-6.992850197,0.85,257.9,250.9,4.3,5.35,26.2,2.04,2.69,4.73,95,44,506.9,16.3,-2.7,D,781.4,0,9025427,0,0,180,94.32,0,0,0,0,0,N,0,90,90,0,250,250,0,0,9999.99,2.73,2.857,2,9,27.6,0,27.60000038,2.99,1506.84977,10/3/20,16:42:10,27.6,5.554,2.99,0.942,7.83,-49.5,-0.6,-1,-4861,27.2,2.11,12.4,
25.845728,-80.17616267,02:08.7,10/3/20,10,1.437,210.41,-6.992847507,0.85,267.6,260.98,3.63,1.36,26.2,2.04,2.7,4.74,95,44,506.9,16.3,-2.7,D,779,0,9025428,0,0,180,94.32,0,0,0,0,0,N,0,90,90,0,250,250,0,0,9999.99,2.74,2.867,2,9,27.6,0,27.60000038,3.01,1506.87212,10/3/20,16:42:11,27.6,5.586,3.01,0.955,7.85,-50.7,-2,-1,-307,27.2,2.11,12.5,
25.84572533,-80.176165,02:09.8,10/3/20,10,0.668,210.41,-6.992844757,0.85,279.3,273.03,4.44,-3.68,26.2,2.04,2.69,4.73,95,44,506.9,16.3,-2.7,D,779,0,9025428,0,0,180,94.32,0,0,0,0,0,N,0,90,90,0,250,250,0,0,9999.99,2.73,2.857,2,9,27.6,0,27.60000038,2.97,1506.8324,10/3/20,16:42:12,27.6,5.532,2.97,0.951,7.83,-49.6,0,0.8,-1019,27.2,2.11,12.5,
25.84572317,-80.1761675,02:10.8,10/3/20,10,0.579,210.41,-6.992842981,0.85,289.5,283.45,5.39,-2.27,26.2,2.03,2.68,4.71,95,24,506.9,16.3,-1.4,D,1432.7,0,9025428,0,0,180,94.32,0,0,0,0,0,N,0,90,90,0,250,250,0,0,9999.99,2.73,2.857,2,9,27.6,0,27.60000038,2.97,1506.8324,10/3/20,16:42:12,27.6,5.532,2.97,0.951,7.83,-49.6,0,0.8,-1019,27.2,2.11,12.5,
25.84572267,-80.17616933,02:12.1,10/3/20,10,0.465,210.41,-6.992841175,0.85,299.1,293.21,4.96,3.55,26.3,2.01,2.68,4.69,95,39,506.9,16.3,-2.4,D,873.8,0,9025428,0,0,180,94.32,0,0,0,0,0,N,0,90,90,0,250,250,0,0,9999.99,2.72,2.847,2,9,27.6,0,27.60000038,2.98,1506.84182,10/3/20,16:42:14,27.6,5.539,2.98,0.941,7.83,-49.6,-0.5,3.4,-2968,27.2,2.11,12.7,
25.84572333,-80.17617233,02:13.3,10/3/20,10,0.929,210.41,-6.992840003,0.85,311.2,305.46,3.77,4.08,26.3,2.01,2.66,4.67,95,39,506.9,16.3,-2.4,D,873.8,0,9025428,0,0,180,94.32,0,0,0,0,0,N,0,90,90,0,210,210,0,0,9999.99,2.7,2.827,2,9,27.6,0,27.60000038,2.98,1506.83721,10/3/20,16:42:16,27.6,5.542,2.98,0.96,7.84,-49.7,-0.5,-2.5,-1964,27.3,2.11,12.6,
25.84572633,-80.176178,02:14.5,10/3/20,10,0.548,210.41,-6.992836778,0.85,320.6,314.96,4.74,-6.33,26.3,2.04,2.66,4.7,95,44,506.9,16.3,-2.7,D,777.5,0,9025428,0,0,180,94.32,0,0,0,0,0,N,0,90,90,0,121,121,0,0,9999.99,2.7,2.827,2,9,27.6,0,27.60000038,2.99,1506.84981,10/3/20,16:42:17,27.61,5.56,2.99,0.949,7.84,-50.2,-0.7,-0.7,-2126,27.3,2.12,12.6,
25.8457285,-80.17617917,02:16.0,10/3/20,10,0.446,210.41,-6.992835309,0.85,324.6,319,4.12,-4.84,26.2,2.02,2.67,4.69,95,21,506.9,16.3,-1.2,D,1635.9,0,9025428,0,0,180,94.32,0,0,0,0,0,N,0,90,90,0,123,123,0,0,9999.99,2.71,2.837,2,9,27.6,0,27.60000038,2.98,1506.83855,10/3/20,16:42:18,27.61,5.548,2.98,0.961,7.83,-49.5,-1.4,1.3,-281,27.3,2.12,12.6,
25.84573317,-80.17617833,02:18.3,10/3/20,10,0.229,210.41,-6.992835562,0.85,328,322.45,3.61,-4.26,26.3,2.01,2.68,4.68,95,19,506.9,16.3,-1.2,D,1744,0,9025428,0,0,180,94.32,0,0,0,0,0,N,0,90,90,0,123,123,0,0,9999.99,2.71,2.837,2,9,27.6,0,27.60000038,2.95,1506.80834,10/3/20,16:42:21,27.61,5.495,2.95,0.938,7.84,-50.2,-0.8,1.2,-195,27.3,2.12,12.5,
25.8457385,-80.176176,02:19.8,10/3/20,10,0.46,210.41,-6.992837681,0.85,329.1,323.56,4.97,-1.82,26.3,2.02,2.69,4.71,95,20,506.8,16.3,-1.2,D,1723.9,0,9025428,0,0,218,94.32,0,0,0,0,0,N,0,90,90,0,123,123,0,0,9999.99,2.73,2.857,2,9,27.6,0,27.60000038,2.94,1506.79627,10/3/20,16:42:22,27.61,5.475,2.94,0.94,7.84,-49.8,-0.9,2.7,-1429,27.3,2.12,12.5,
25.84574283,-80.176176,02:20.8,10/3/20,10,1.111,210.41,-6.992838215,0.85,331.1,325.59,6,12.1,26.3,1.99,2.64,4.63,95,20,506.8,16.3,-1.2,D,1723.9,0,9025429,0,0,217,94.32,0,0,0,0,0,N,0,90,90,0,123,123,0,0,9999.99,2.72,2.847,2,9,27.6,0,27.60000038,2.93,1506.78548,10/3/20,16:42:23,27.61,5.447,2.93,0.955,7.85,-50.5,-1.7,-1,-4477,27.3,2.11,12.5,
25.84575817,-80.17618667,02:22.9,10/3/20,10,1.984,210.41,-6.99283784,0.85,333.6,328.12,0.01,-3.95,26.3,2.02,2.71,4.74,95,89,506.8,16.2,-5.5,D,380.7,0,9025429,0,0,151,94.32,0,0,0,0,0,N,0,90,90,0,123,123,0,0,9999.99,2.7,2.827,2,9,27.6,0,27.60000038,2.84,1506.69295,10/3/20,16:42:25,27.61,5.298,2.84,1.164,7.83,-49.3,-0.3,1.8,-916,27.2,2.11,12.6,
25.84577383,-80.176192,02:24.8,10/3/20,10,1.488,299.93,-6.992833656,0.85,336.3,330.86,3.58,6.39,26.3,2.01,2.74,4.75,95,27,506.8,16.3,-1.6,D,1265.6,0,9025429,0,0,194,94.32,0,0,0,0,0,N,0,90,90,0,123,123,0,0,9999.99,2.78,2.907,2,9,27.6,0,27.60000038,2.72,1506.57254,10/3/20,16:42:27,27.6,5.094,2.72,0.961,7.85,-50.8,-1.3,0.4,-2720,27.2,2.11,12.5,
25.84578217,-80.176194,02:25.9,10/3/20,10,1.725,319.15,-6.992833552,0.85,335.3,329.84,-1.32,4.3,26.3,2.02,2.74,4.75,95,27,506.8,16.3,-1.6,D,1265.6,0,9025431,0,0,194,94.32,0,0,0,0,0,N,0,90,90,0,123,123,0,0,9999.99,2.74,2.867,2,9,27.6,0,27.60000038,2.71,1506.55589,10/3/20,16:42:28,27.6,5.061,2.71,1.088,7.84,-49.7,-1,-3.7,-2564,27.1,2.11,12.6,
25.8457905,-80.17619733,02:27.1,10/3/20,10,1.87,325.36,-6.992833517,0.85,343.3,337.97,-0.64,2.21,26.3,2.04,2.72,4.76,95,64,506.8,16.2,-3.9,D,532.2,0,9025431,0,0,194,94.32,0,0,0,0,0,N,0,90,90,0,126,126,0,0,9999.99,2.71,2.837,2,9,27.6,0,27.60000038,2.86,1506.7184,10/3/20,16:42:29,27.6,5.331,2.86,1.205,7.83,-49.6,-1.7,3.4,831,27.1,2.1,12.6,
25.84579817,-80.17620033,02:28.1,10/3/20,10,1.926,340.15,-6.992832682,0.85,340.3,334.92,1.88,7.85,26.3,2.04,2.73,4.77,95,61,506.8,16.2,-3.7,D,555.3,0,9025432,0,0,194,94.32,0,0,0,0,0,N,0,90,90,0,194,194,0,0,9999.99,2.74,2.867,2,9,27.6,0,27.60000038,2.98,1506.8414,10/3/20,16:42:30,27.61,5.55,2.98,1.24,7.81,-48.4,0.4,2.5,728,27.1,2.1,12.5,
25.84580767,-80.1762035,02:29.1,10/3/20,10,2.138,343.07,-6.992831954,0.85,349,343.78,3.01,12.4,26.3,1.99,2.69,4.68,95,61,506.8,16.2,-3.7,D,555.3,0,9025432,0,0,194,94.32,0,0,0,0,0,N,0,90,90,0,208,208,0,0,9999.99,2.72,2.844306,2,9,27.6,0,27.60000038,2.94,1506.79545,10/3/20,16:42:31,27.62,5.48,2.94,1.187,7.83,-49.1,0.4,2,-1478,27.1,2.1,12.5,
25.8458275,-80.1762065,02:30.6,10/3/20,10,2.049,353.5,-6.992831127,0.85,5.5,0.64,4.56,11.1,26.4,2.02,2.64,4.66,95,62,506.8,16.2,-3.8,D,548.2,0,9025432,0,0,194,94.32,0,0,0,0,0,N,0,90,90,0,211,211,0,0,9999.99,2.68,2.807231,2,9,27.6,0,27.60000038,2.7,1506.54933,10/3/20,16:42:33,27.61,5.058,2.7,1.078,7.84,-50.1,-1.6,-0.1,631,27,2.1,12.6,
25.84583933,-80.17620233,02:31.6,10/3/20,10,2.245,3.09,-6.992832358,0.85,20.3,15.78,4.53,8.7,26.4,2.01,2.72,4.73,95,64,506.7,16.2,-3.9,D,535.6,0,9025432,0,0,194,94.32,0,0,0,0,0,N,0,90,90,0,231,231,0,0,9999.99,2.76,2.887,2,9,27.6,0,27.60000038,2.63,1506.46922,10/3/20,16:42:34,27.6,4.927,2.63,0.963,7.82,-49,-0.9,2.7,-2141,26.9,2.09,12.7,
25.84584983,-80.176196,02:32.6,10/3/20,10,2.344,21.27,-6.99283652,0.85,32.1,27.81,3.86,14.1,26.4,2.01,2.72,4.73,95,64,506.7,16.2,-3.9,D,535.6,0,9025432,0,0,194,94.32,0,0,0,0,0,N,0,90,90,0,231,231,0,0,9999.99,2.76,2.887,2,9,27.6,0,27.60000038,2.61,1506.45412,10/3/20,16:42:35,27.59,4.895,2.61,0.938,7.86,-51.1,-1.4,-3.7,-1523,26.9,2.09,12.4,
25.84585783,-80.17618833,02:33.6,10/3/20,10,2.382,33.59,-6.992841797,0.85,47.5,43.35,4.39,10.3,26.4,2.01,2.2,4.21,95,65,506.7,16.2,-4,D,527,0,9025432,0,0,194,94.32,0,0,0,0,0,N,0,90,90,0,244,244,0,0,9999.99,2.24,2.367,2,9,27.6,0,27.60000038,2.86,1506.71067,10/3/20,16:42:36,27.58,5.337,2.86,0.984,7.81,-48.1,-0.8,1.9,-2788,26.9,2.09,12.6,
25.8458645,-80.17617867,02:34.6,10/3/20,10,2.417,43.16,-6.992847526,0.85,57.4,53.2,3.35,11.7,26.4,2.03,2.01,4.04,95,65,506.7,16.2,-4,D,527,0,9025430,0,0,194,94.32,0,0,0,0,0,N,0,90,90,0,250,250,0,0,9999.99,2.04,2.167175,2,9,27.6,0,27.60000038,3.06,1506.91803,10/3/20,16:42:37,27.59,5.678,3.06,0.978,7.84,-49.7,0.9,0.9,-1897,26.9,2.08,12.6,
25.84587267,-80.17615717,02:36.6,10/3/20,10,1.847,55.04,-6.992861897,0.85,80.2,75.36,3.01,-8.8,26.4,2.03,1.84,3.87,95,66,506.7,16.2,-4,D,514.9,0,9025430,0,0,194,94.32,0,0,0,0,0,N,0,90,90,0,250,250,0,0,9999.99,1.85,1.977,2,9,27.6,0,27.60000038,3.08,1506.94447,10/3/20,16:42:39,27.62,5.714,3.08,1.027,7.83,-49.5,-0.4,1,-2977,26.9,2.08,12.4,
25.84587317,-80.1761485,02:38.1,10/3/20,10,1.503,66.89,-6.992868333,0.85,90.4,85.03,4.59,-4.03,26.4,2.04,1.73,3.77,95,20,506.7,16.3,-1.2,D,1671.2,0,9025430,0,0,194,94.32,0,0,0,0,0,N,0,90,90,0,250,250,0,0,9999.99,1.77,1.897,2,9,27.6,0,27.60000038,3.02,1506.88068,10/3/20,16:42:40,27.63,5.61,3.02,0.918,7.82,-48.6,-1.2,4.9,1164,26.9,2.08,12.6,
25.8458725,-80.176142,02:39.1,10/3/20,10,1.364,77.46,-6.992873612,0.85,96.1,90.38,5.2,-3.77,26.4,2.01,1.68,3.69,95,19,506.7,16.3,-1.2,D,1734.4,0,9025430,0,0,194,94.32,0,0,0,0,0,N,0,90,90,0,250,250,0,0,9999.99,1.72,1.847,2,9,27.6,0,27.60000038,3.04,1506.90404,10/3/20,16:42:41,27.63,5.65,3.04,0.968,7.83,-49.1,-2.2,-0.2,-2515,26.8,2.08,12.7,
25.84587167,-80.17613533,02:40.1,10/3/20,10,1.403,83.74,-6.992877424,0.85,99.7,93.75,3.6,-3.03,26.4,2,1.65,3.65,95,19,506.7,16.3,-1.2,D,1734.4,0,9025426,0,0,128,94.32,0,0,0,0,0,N,0,90,90,0,250,250,0,0,9999.99,1.69,1.817,2,9,27.6,0,27.60000038,3.05,1506.91083,10/3/20,16:42:42,27.63,5.668,3.05,0.94,7.82,-48.9,-1.8,-1.2,86,26.8,2.08,12.6,
25.84587067,-80.17612833,02:41.1,10/3/20,10,1.343,87.38,-6.992881314,0.85,102,95.89,3.74,-6.04,26.4,2.04,1.65,3.69,95,21,506.7,16.3,-1.2,D,1628.6,0,9025425,0,0,128,94.32,0,0,0,0,0,N,0,90,90,0,250,250,0,0,9999.99,1.68,1.807,2,9,27.6,0,27.60000038,3.04,1506.89767,10/3/20,16:42:43,27.63,5.646,3.04,0.986,7.83,-49.3,-1.5,-0.4,-2394,26.8,2.08,12.5,
25.845864,-80.17611783,02:42.6,10/3/20,10,0.98,87.38,-6.992888195,0.85,108.3,101.74,3.9,-4.87,26.4,2.01,1.61,3.62,95,20,506.7,16.3,-1.2,D,1698.1,0,9025425,0,0,128,94.32,0,0,0,0,0,N,0,90,90,0,250,250,0,0,9999.99,1.64,1.767,2,9,27.6,0,27.60000038,3.05,1506.91361,10/3/20,16:42:45,27.63,5.669,3.05,0.955,7.82,-49,1.9,2.3,-1702,26.8,2.08,12.6,
25.84586083,-80.17611383,02:43.6,10/3/20,10,0.917,87.38,-6.992890756,0.85,112.2,105.35,4.53,-4.31,26.4,2.06,1.6,3.66,95,20,506.7,16.3,-1.2,D,1698.1,0,9025425,0,0,128,94.32,0,0,0,0,0,N,0,90,90,0,250,250,0,0,9999.99,1.64,1.767,2,9,27.6,0,27.60000038,3.05,1506.91583,10/3/20,16:42:46,27.63,5.66,3.05,0.927,7.82,-49,-2.8,-3.8,-1826,26.8,2.08,12.6,
25.84585883,-80.1761095,02:44.6,10/3/20,10,1.041,87.38,-6.992892716,0.85,115.9,108.77,4.39,-3.99,26.4,2.04,1.62,3.66,95,20,506.6,16.3,-1.2,D,1693.9,0,9025423,0,0,128,94.32,0,0,0,0,0,N,0,90,90,0,250,250,0,0,9999.99,1.66,1.787,2,9,27.6,0,27.60000038,3.03,1506.89323,10/3/20,16:42:47,27.63,5.638,3.03,0.932,7.78,-46.6,-1.6,0.8,-1224,26.8,2.08,12.5,
25.845857,-80.17610433,02:45.6,10/3/20,10,0.923,87.38,-6.99289504,0.85,117.1,109.88,4.34,-5.98,26.4,2.04,1.73,3.77,95,20,506.6,16.3,-1.2,D,1693.9,0,9025423,0,0,128,94.32,0,0,0,0,0,N,0,90,90,0,250,250,0,0,9999.99,1.77,1.897,2,9,27.6,0,27.60000038,3.02,1506.88163,10/3/20,16:42:48,27.62,5.616,3.02,0.939,7.83,-49.2,-2.1,-4.9,-1620,26.9,2.08,12.6,
25.84585433,-80.17610033,02:46.6,10/3/20,9,0.92,87.38,-6.992897887,0.89,120.5,113.03,4.18,-3.86,26.4,2.04,1.77,3.81,95,20,506.6,16.3,-1.2,D,1689.8,0,9025422,0,0,128,94.32,0,0,0,0,0,N,0,90,90,0,250,250,0,0,9999.99,1.81,1.937,2,9,27.6,0,27.60000038,3.02,1506.88163,10/3/20,16:42:48,27.62,5.616,3.02,0.939,7.83,-49.2,-2.1,-4.9,-1620,26.9,2.08,12.6,
25.84585233,-80.176097,02:47.7,10/3/20,10,0.635,87.38,-6.992899918,0.85,125.3,117.47,4.52,-5.46,26.5,2.03,1.67,3.7,95,20,506.6,16.3,-1.2,D,1689.8,0,9025422,0,0,128,94.32,0,0,0,0,0,N,0,90,90,0,214,214,0,0,9999.99,1.71,1.837,2,9,27.6,0,27.60000038,3.02,1506.88342,10/3/20,16:42:49,27.62,5.609,3.02,0.946,7.8,-47.8,-2.1,0.2,-2152,26.9,2.08,12.6,
25.84584967,-80.17609317,02:48.7,10/3/20,10,1.083,87.38,-6.99290164,0.98,130.7,122.48,3.78,-4.78,26.4,2.04,1.63,3.67,95,20,506.6,16.3,-1.2,D,1689.8,0,9025422,0,0,128,94.32,0,0,0,0,0,N,0,90,90,0,175,175,0,0,9999.99,1.66,1.787,2,9,27.6,0,27.60000038,3.02,1506.8874,10/3/20,16:42:50,27.62,5.612,3.02,0.937,7.85,-50.3,-0.6,-4.5,-1281,26.9,2.08,12.6,
25.845847,-80.17608967,02:49.7,10/3/20,10,0.869,87.38,-6.99290357,0.85,130.6,122.38,4.44,-5.36,26.4,2.02,1.63,3.65,95,20,506.6,16.3,-1.2,D,1656.5,0,9025421,0,0,128,94.32,0,0,0,0,0,N,0,90,90,0,205,205,0,0,9999.99,1.67,1.797,2,9,27.6,0,27.60000038,3.02,1506.8846,10/3/20,16:42:51,27.61,5.603,3.02,0.978,7.82,-48.8,-1.2,0.1,-2213,26.9,2.09,12.5,
25.84584433,-80.17608567,02:50.7,10/3/20,10,0.735,87.38,-6.9929053,0.85,127.6,119.6,3.93,-4.9,26.4,2.04,1.62,3.67,95,20,506.6,16.3,-1.2,D,1656.5,0,9025421,0,0,128,94.32,0,0,0,0,0,N,0,90,90,0,220,220,0,0,9999.99,1.66,1.787,2,9,27.6,0,27.60000038,3.05,1506.91461,10/3/20,16:42:53,27.62,5.664,3.05,0.925,7.82,-48.9,-1.2,-0.1,-2016,27,2.09,12.6,
25.845843,-80.17608183,02:51.7,10/3/20,10,0.648,87.38,-6.99290733,0.85,127.6,119.6,4.09,-5.33,26.4,2.03,1.64,3.67,95,20,506.6,16.3,-1.2,D,1656.5,0,9025420,0,0,128,94.32,0,0,0,0,0,N,0,90,90,0,220,220,0,0,9999.99,1.67,1.797,2,9,27.6,0,27.60000038,3.05,1506.91461,10/3/20,16:42:53,27.62,5.664,3.05,0.925,7.82,-48.9,-1.2,-0.1,-2016,27,2.09,12.6,
25.8458425,-80.176079,02:52.7,10/3/20,10,0.53,87.38,-6.992909447,0.85,124.2,116.45,5.29,-7.78,26.5,2.04,1.65,3.69,95,20,506.6,16.3,-1.2,D,1656.5,0,9025420,0,0,128,94.32,0,0,0,0,0,N,0,90,90,0,220,220,0,0,9999.99,1.69,1.817,2,9,27.6,0,27.60000038,3.06,1506.92427,10/3/20,16:42:55,27.62,5.684,3.06,0.903,7.83,-49.1,-1.2,3.7,-3224,27,2.1,12.5,
25.8458385,-80.17608067,02:53.7,10/3/20,10,0.112,87.38,-6.992911079,0.85,118.1,110.81,5.2,-4.54,26.5,2.05,1.63,3.68,95,20,506.6,16.3,-1.2,D,1688.4,0,9025420,0,0,128,94.32,0,0,0,0,0,N,0,90,90,0,250,250,0,0,9999.99,1.68,1.807,2,9,27.6,0,27.60000038,3.06,1506.92427,10/3/20,16:42:55,27.62,5.684,3.06,0.903,7.83,-49.1,-1.2,3.7,-3224,27,2.1,12.5,
25.84583683,-80.1760795,02:54.7,10/3/20,10,0.267,87.38,-6.992909517,0.85,110.2,103.5,5.15,-4.02,26.5,2.07,1.61,3.67,95,20,506.6,16.3,-1.2,D,1688.4,0,9025420,0,0,128,94.32,0,0,0,0,0,N,0,90,90,0,250,250,0,0,9999.99,1.65,1.777,2,9,27.6,0,27.60000038,3.07,1506.94221,10/3/20,16:42:57,27.63,5.691,3.07,1.026,7.86,-50.9,-0.6,-1.9,-2370,27.1,2.1,12.6,
25.8458335,-80.17607933,02:55.7,10/3/20,10,0.28,87.38,-6.992909985,1.02,102.9,96.73,5.65,-4.78,26.5,2.07,1.58,3.65,95,20,506.5,16.3,-1.2,D,1677.6,0,9025420,0,0,128,94.32,0,0,0,0,0,N,0,90,90,0,250,250,0,0,9999.99,1.63,1.757,2,9,27.6,0,27.60000038,3.07,1506.9354,10/3/20,16:42:58,27.63,5.696,3.07,1.035,7.83,-49.1,-2.2,3.3,-3617,27.1,2.1,12.6,
25.84583183,-80.17607833,02:56.7,10/3/20,10,0.3,87.38,-6.992909618,1.02,97.4,91.6,5.77,-4,26.5,2.04,1.57,3.6,95,20,506.5,16.3,-1.2,D,1677.6,0,9025420,0,0,128,94.32,0,0,0,0,0,N,0,90,90,0,250,250,0,0,9999.99,1.62,1.747,2,9,27.6,0,27.60000038,3.07,1506.94071,10/3/20,16:42:59,27.63,5.697,3.07,0.966,7.81,-48.2,-1.4,0.7,-3339,27.1,2.1,12.4,
25.8458305,-80.176078,02:57.7,10/3/20,10,0.43,87.38,-6.992909985,1.02,91.6,86.16,3.2,-4.51,26.5,2.04,1.62,3.66,95,20,506.5,16.3,-1.2,D,1677.6,0,9025420,0,0,128,94.32,0,0,0,0,0,N,0,90,90,0,250,250,0,0,9999.99,1.65,1.777,2,9,27.6,0,27.60000038,3.08,1506.94644,10/3/20,16:43:00,27.63,5.709,3.08,0.914,7.84,-50.1,-0.2,-2.3,-1613,27.2,2.1,12.7,
25.84583,-80.17607533,02:58.7,10/3/20,9,0.455,87.38,-6.992909999,1.02,87.7,82.48,3.15,-6.34,26.5,2.03,1.59,3.62,95,19,506.5,16.3,-1.2,D,1751.4,0,9025420,0,0,128,94.32,0,0,0,0,0,N,0,90,90,0,250,250,0,0,9999.99,1.62,1.747,2,9,27.6,0,27.60000038,3.08,1506.94644,10/3/20,16:43:00,27.63,5.709,3.08,0.914,7.84,-50.1,-0.2,-2.3,-1613,27.2,2.1,12.7,
25.84583083,-80.176074,02:59.7,10/3/20,10,0.385,87.38,-6.992911531,1.02,86.3,81.16,3.74,-4.29,26.6,2.01,1.59,3.6,95,19,506.5,16.3,-1.2,D,1751.4,0,9025420,0,0,128,94.32,0,0,0,0,0,N,0,90,90,0,250,250,0,0,9999.99,1.62,1.747,0,0,27.6,0,27.60000038,3.08,1506.93977,10/3/20,16:43:02,27.63,5.723,3.08,0.912,7.82,-48.9,-1.8,2.3,-920,27.2,2.11,12.6,
25.84583183,-80.17607283,03:00.7,10/3/20,10,0.423,87.38,-6.992912449,0.85,85.2,80.12,4.51,-5.49,26.6,2.01,1.56,3.57,95,20,506.5,16.3,-1.2,D,1710.1,0,9025419,0,0,128,94.32,0,0,0,0,0,N,0,90,90,0,250,250,0,0,9999.99,1.6,1.727,2,9,27.6,0,27.60000038,3.09,1506.95618,10/3/20,16:43:03,27.63,5.726,3.09,0.952,7.83,-49.1,-1.9,-2.7,-2171,27.2,2.1,12.5,
25.84583067,-80.17607017,03:01.7,10/3/20,10,0.503,87.38,-6.99291329,0.85,87.7,82.48,4.47,-2.75,26.5,2.04,1.53,3.58,95,20,506.5,16.3,-1.2,D,1710.1,0,9025419,0,0,128,94.32,0,0,0,0,0,N,0,90,90,0,250,250,0,0,9999.99,1.58,1.707,2,9,27.6,0,27.60000038,3.09,1506.95696,10/3/20,16:43:04,27.63,5.733,3.09,0.946,7.82,-49,-2.7,-0.8,-1290,27.2,2.1,12.6,
25.84583033,-80.17606933,03:02.7,10/3/20,10,0.341,87.38,-6.992914729,0.85,93.9,88.32,4.04,-4.07,26.5,2.01,1.53,3.55,95,20,506.5,16.3,-1.2,D,1710.1,0,9025419,0,0,128,94.32,0,0,0,0,0,N,0,90,90,0,250,250,0,0,9999.99,1.57,1.697,2,9,27.6,0,27.60000038,3.09,1506.95696,10/3/20,16:43:04,27.63,5.733,3.09,0.946,7.82,-49,-2.7,-0.8,-1290,27.2,2.1,12.6,
25.84583017,-80.1760695,03:03.8,10/3/20,10,0.08,87.38,-6.992915184,0.85,100.4,94.4,4.16,-6.17,26.5,2.01,1.54,3.56,95,19,506.5,16.3,-1.2,D,1754.1,0,9025419,0,0,128,94.32,0,0,0,0,0,N,0,90,90,0,250,250,0,0,9999.99,1.58,1.707,2,9,27.6,0,27.60000038,3.1,1506.9651,10/3/20,16:43:05,27.63,5.758,3.1,0.939,7.82,-48.7,-2,0.9,-730,27.2,2.11,12.6,
25.84583017,-80.17607033,03:04.8,10/3/20,10,0.086,87.38,-6.99291506,0.85,104.9,98.58,3.6,-4.59,26.5,2.02,1.55,3.57,95,19,506.5,16.3,-1.2,D,1754.1,0,9025419,0,0,128,94.32,0,0,0,0,0,N,0,90,90,0,250,250,0,0,9999.99,1.58,1.707,2,9,27.6,0,27.60000038,3.15,1507.01621,10/3/20,16:43:07,27.63,5.833,3.15,0.939,7.84,-49.9,-0.5,-1.5,-898,27.2,2.11,12.5,
25.84583267,-80.17607067,03:05.8,10/3/20,10,0.108,87.38,-6.992914559,0.85,110.2,103.5,4.39,-4.6,26.6,1.98,1.56,3.54,95,19,506.5,16.3,-1.2,D,1754.1,0,9025419,0,0,128,94.32,0,0,0,0,0,N,0,90,90,0,179,179,0,0,9999.99,1.6,1.727,2,9,27.6,0,27.60000038,3.15,1507.01621,10/3/20,16:43:07,27.63,5.833,3.15,0.939,7.84,-49.9,-0.5,-1.5,-898,27.2,2.11,12.5,
25.84583483,-80.17607,03:06.8,10/3/20,10,0.072,87.38,-6.992914709,0.85,115.2,108.13,4.27,-5.88,26.6,2.01,1.56,3.58,95,19,506.5,16.3,-1.2,D,1754.1,0,9025419,0,0,128,94.32,0,0,0,0,0,N,0,90,90,0,179,179,0,0,9999.99,1.6,1.727,0,0,27.6,0,27.60000038,3.09,1506.95643,10/3/20,16:43:08,27.64,5.742,3.09,0.968,7.83,-49.6,-0.8,1.7,-2597,27.2,2.11,12.7,
25.84583683,-80.176069,03:07.8,10/3/20,10,0.279,87.38,-6.992915413,0.85,121.9,114.32,4.9,-5.38,26.6,2.04,1.58,3.62,95,20,506.5,16.3,-1.2,D,1694.9,0,9025419,0,0,128,94.32,0,0,0,0,0,N,0,90,90,0,179,179,0,0,9999.99,1.62,1.747,2,9,27.6,0,27.60000038,3.14,1507.00409,10/3/20,16:43:09,27.64,5.827,3.14,0.948,7.85,-50.7,-0.1,-2.7,-2331,27.2,2.11,12.6,
25.84583783,-80.176068,03:08.8,10/3/20,10,0.183,87.38,-6.992916295,0.85,128.5,120.43,3.89,-4.6,26.5,2.01,1.57,3.59,95,20,506.5,16.3,-1.2,D,1694.9,0,9025419,0,0,128,94.32,0,0,0,0,0,N,0,90,90,0,179,179,0,0,9999.99,1.61,1.737,2,9,27.6,0,27.60000038,3.15,1507.02254,10/3/20,16:43:10,27.63,5.838,3.15,0.956,7.81,-48.1,-1.3,3.2,-1000,27.3,2.11,12.6,
25.84583883,-80.1760675,03:09.8,10/3/20,9,0.162,87.38,-6.992917036,0.87,133.1,124.71,3.63,-5.37,26.6,1.98,1.59,3.57,95,20,506.4,16.3,-1.2,D,1718.3,0,9025419,0,0,128,94.32,0,0,0,0,0,N,0,90,90,0,179,179,0,0,9999.99,1.63,1.757,2,9,27.6,0,27.60000038,3.14,1507.00562,10/3/20,16:43:11,27.64,5.817,3.14,0.944,7.84,-49.8,-0.4,-0.2,-2910,27.3,2.11,12.5,
25.8458385,-80.17606633,03:10.8,10/3/20,10,0.283,87.38,-6.992917476,0.85,139.2,130.4,3.26,-5.15,26.6,2.01,1.59,3.6,95,20,506.4,16.3,-1.2,D,1718.3,0,9025419,0,0,128,94.32,0,0,0,0,0,N,0,90,90,0,179,179,0,0,9999.99,1.62,1.747,2,9,27.6,0,27.60000038,3.15,1507.01475,10/3/20,16:43:13,27.64,5.841,3.15,0.95,7.82,-48.7,-1.4,1.4,-179,27.2,2.11,12.6,
25.84584133,-80.1760635,03:11.8,10/3/20,10,0.294,87.38,-6.992918131,0.85,144.6,135.47,4.07,-4.98,26.6,2.01,1.6,3.61,95,19,506.4,16.3,-1.1,D,1757,0,9025419,0,0,128,94.32,0,0,0,0,0,N,0,90,90,0,179,179,0,0,9999.99,1.63,1.757,2,9,27.6,0,27.60000038,3.15,1507.01475,10/3/20,16:43:13,27.64,5.841,3.15,0.95,7.82,-48.7,-1.4,1.4,-179,27.2,2.11,12.6,
25.84584067,-80.17606183,03:12.8,10/3/20,10,0.342,87.38,-6.99292023,0.85,149.5,140.11,4.25,-4.6,26.6,2.03,1.59,3.61,95,19,506.4,16.3,-1.2,D,1755.5,0,9025418,0,0,128,94.32,0,0,0,0,0,N,0,90,90,0,179,179,0,0,9999.99,1.62,1.747,2,9,27.6,0,27.60000038,3.15,1507.01625,10/3/20,16:43:14,27.64,5.841,3.15,0.935,7.8,-47.8,-1.1,2,-2428,27.3,2.11,12.6,
25.84584167,-80.17606067,03:13.8,10/3/20,9,0.251,87.38,-6.992921139,0.9,153.8,144.2,5.18,-4.83,26.6,1.98,1.58,3.55,95,19,506.4,16.3,-1.2,D,1755.5,0,9025418,0,0,128,94.32,0,0,0,0,0,N,0,90,90,0,134,134,0,0,9999.99,1.62,1.747,2,9,27.6,0,27.60000038,3.14,1507.00864,10/3/20,16:43:15,27.64,5.824,3.14,0.927,7.84,-49.9,-1.2,1.2,-929,27.3,2.11,12.5,
25.845842,-80.17606133,03:14.8,10/3/20,10,0.366,87.38,-6.99292198,0.9,159,149.19,4.56,-4.51,26.6,2.01,1.57,3.58,95,19,506.4,16.3,-1.2,D,1755.5,0,9025418,0,0,128,94.32,0,0,0,0,0,N,0,90,90,0,134,134,0,0,9999.99,1.61,1.737,2,9,27.6,0,27.60000038,3.13,1506.99678,10/3/20,16:43:17,27.64,5.804,3.13,0.935,7.86,-51,1.8,-1.8,-1083,27.3,2.11,12.6,
25.84584283,-80.17606133,03:15.8,10/3/20,10,0.358,87.38,-6.992921626,0.85,164,154.03,5.02,-4.88,26.6,2.02,1.57,3.59,95,19,506.4,16.3,-1.2,D,1755.5,0,9025418,0,0,128,94.32,0,0,0,0,0,N,0,90,90,0,134,134,0,0,9999.99,1.61,1.737,2,9,27.6,0,27.60000038,3.12,1506.98474,10/3/20,16:43:18,27.64,5.79,3.12,0.943,7.81,-48.4,-2.9,-2.1,-2157,27.3,2.11,12.7,
25.845843,-80.176061,03:16.8,10/3/20,10,0.19,87.38,-6.992921743,0.85,168,157.94,4.51,-3.97,26.6,2.02,1.58,3.6,95,20,506.4,16.3,-1.2,D,1671.9,0,9025418,0,0,128,94.32,0,0,0,0,0,N,0,90,90,0,134,134,0,0,9999.99,1.62,1.747,2,9,27.6,0,27.60000038,3.12,1506.98873,10/3/20,16:43:19,27.64,5.795,3.12,0.925,7.82,-49,-0.6,2.8,-3364,27.3,2.11,12.5,
25.84584467,-80.1760585,03:17.9,10/3/20,10,0.374,87.38,-6.992921966,0.85,173.9,163.75,4,-3.66,26.6,2.04,1.56,3.6,95,20,506.4,16.3,-1.2,D,1671.9,0,9025418,0,0,128,94.32,0,0,0,0,0,N,0,90,90,0,134,134,0,0,9999.99,1.6,1.727,2,9,27.6,0,27.60000038,3.13,1506.99245,10/3/20,16:43:20,27.64,5.803,3.13,0.946,7.81,-48.4,-0.6,-3.2,-2668,27.3,2.11,12.7,
25.845842,-80.1760595,03:18.9,10/3/20,10,0.237,87.38,-6.992923702,0.85,177.7,167.53,4.16,-6.08,26.6,2,1.57,3.57,95,20,506.4,16.3,-1.2,D,1700.2,0,9025418,0,0,157,94.32,0,0,0,0,0,N,0,90,90,0,134,134,0,0,9999.99,1.61,1.737,2,9,27.6,0,27.60000038,3.14,1507.00654,10/3/20,16:43:21,27.64,5.828,3.14,0.928,7.82,-48.5,-2,-2,-2168,27.3,2.12,12.6,
25.8458415,-80.17605817,03:19.9,10/3/20,10,0.108,87.38,-6.992922728,0.85,183.4,173.25,4.65,0.44,26.5,2.03,1.54,3.57,95,20,506.4,16.3,-1.2,D,1700.2,0,9025418,0,0,157,94.32,0,0,0,0,0,N,0,90,90,0,134,134,0,0,9999.99,1.58,1.707,2,9,27.6,0,27.60000038,3.15,1507.01353,10/3/20,16:43:22,27.64,5.837,3.15,0.952,7.82,-49,-0.6,0.8,-1187,27.3,2.12,12.6,
25.84583883,-80.17605733,03:20.9,10/3/20,10,0.457,87.38,-6.992923459,0.94,185.8,175.67,3.64,-5.81,26.6,2.03,1.56,3.59,95,20,506.4,16.3,-1.2,D,1700.2,0,9025418,0,0,147,94.32,0,0,0,0,0,N,0,90,90,0,134,134,0,0,9999.99,1.6,1.727,2,9,27.6,0,27.60000038,3.16,1507.02847,10/3/20,16:43:23,27.64,5.847,3.16,0.942,7.87,-51.5,-1.8,0.9,-548,27.4,2.12,12.4,
25.845837,-80.1760525,03:21.9,10/3/20,9,0.876,87.38,-6.992923586,0.99,191.2,181.16,3.49,-2.81,26.6,2.05,1.59,3.64,95,23,506.4,16.3,-1.4,D,1447.9,0,9025417,0,0,147,94.32,0,0,0,0,0,N,0,90,90,0,134,134,0,0,9999.99,1.62,1.747,2,9,27.6,0,27.60000038,3.14,1507.0098,10/3/20,16:43:24,27.64,5.813,3.14,0.935,7.82,-48.5,-1.6,-1.7,-1407,27.4,2.12,12.6,
25.84583433,-80.17605033,03:22.9,10/3/20,10,0.648,87.38,-6.992926233,0.85,194.6,184.64,3.71,-4.73,26.6,2.01,1.64,3.64,95,23,506.4,16.3,-1.4,D,1447.9,0,9025417,0,0,147,94.32,0,0,0,0,0,N,0,90,90,0,134,134,0,0,9999.99,1.67,1.797,2,9,27.6,0,27.60000038,3.19,1507.06069,10/3/20,16:43:25,27.64,5.915,3.19,0.947,7.81,-48.4,2.9,-0.2,-1590,27.4,2.12,12.6,
25.84583167,-80.17604667,03:23.9,10/3/20,10,0.675,87.38,-6.992927162,0.85,198.9,189.06,3.78,-2.29,26.5,2.05,1.67,3.72,95,22,506.3,16.3,-1.3,D,1528.7,0,9025417,0,0,147,94.32,0,0,0,0,0,N,0,90,90,0,134,134,0,0,9999.99,1.7,1.827,2,9,27.6,0,27.60000038,3.2,1507.06784,10/3/20,16:43:26,27.64,5.921,3.2,0.944,7.78,-46.4,-1.6,4.8,-1098,27.4,2.12,12.7,
25.84582983,-80.17604367,03:24.9,10/3/20,10,0.651,87.38,-6.992928992,0.85,201.9,192.16,3.54,-6.08,26.5,2.07,1.72,3.79,95,22,506.3,16.3,-1.3,D,1528.7,0,9025417,0,0,147,94.32,0,0,0,0,0,N,0,90,90,0,134,134,0,0,9999.99,1.75,1.877,2,9,27.6,0,27.60000038,3.2,1507.06887,10/3/20,16:43:27,27.65,5.919,3.2,0.953,7.82,-48.7,-2.4,1.6,-543,27.4,2.12,12.6,
25.84582717,-80.1760415,03:25.9,10/3/20,10,0.536,87.38,-6.992930537,0.85,199.6,189.79,3.76,-2.15,26.6,1.99,1.77,3.76,95,22,506.3,16.3,-1.3,D,1523.1,0,9025416,0,0,147,94.32,0,0,0,0,0,N,0,90,90,0,178,178,0,0,9999.99,1.8,1.927,2,9,27.6,0,27.60000038,3.22,1507.08902,10/3/20,16:43:28,27.65,5.957,3.22,0.965,7.79,-47.2,-1,-4.8,-2911,27.4,2.12,12.7,
25.84582467,-80.1760395,03:26.9,10/3/20,10,0.845,119.82,-6.992931466,0.85,197.8,187.93,4.38,-4.09,26.7,2.04,1.83,3.88,95,22,506.3,16.3,-1.3,D,1523.1,0,9025416,0,0,147,94.32,0,0,0,0,0,N,0,90,90,0,169,169,0,0,9999.99,1.87,1.997,2,9,27.6,0,27.60000038,3.2,1507.06365,10/3/20,16:43:29,27.65,5.917,3.2,0.954,7.84,-50.1,-1.9,-2.9,-768,27.4,2.12,12.5,
25.8458205,-80.17603917,03:27.9,10/3/20,10,0.836,119.82,-6.992932317,0.85,191.7,181.67,4.42,-5.35,26.6,2.04,1.9,3.94,95,22,506.3,16.3,-1.3,D,1523.1,0,9025416,0,0,147,94.32,0,0,0,0,0,N,0,90,90,0,169,169,0,0,9999.99,1.94,2.067,2,9,27.6,0,27.60000038,3.09,1506.95168,10/3/20,16:43:30,27.64,5.742,3.09,0.937,7.82,-48.5,-1.1,4.4,-3119,27.4,2.12,12.6,
25.84581683,-80.17603767,03:28.9,10/3/20,10,0.851,145.92,-6.992931934,0.85,188.4,178.31,5.37,-0.69,26.7,2.04,1.94,3.99,95,22,506.3,16.3,-1.3,D,1547.7,0,9025416,0,0,147,94.32,0,0,0,0,0,N,0,90,90,0,169,169,0,0,9999.99,1.99,2.117,2,9,27.6,0,27.60000038,3.09,1506.95778,10/3/20,16:43:31,27.64,5.736,3.09,0.948,7.84,-49.7,-0.3,0.3,-3344,27.4,2.12,12.5,
25.8458125,-80.1760365,03:30.3,10/3/20,10,0.833,148.21,-6.992932321,0.9,184.7,174.56,5.19,-1.34,26.7,2.06,2.05,4.11,95,22,506.3,16.3,-1.3,D,1547.7,0,9025416,0,0,147,94.32,0,0,0,0,0,N,0,90,90,0,185,185,0,0,9999.99,2.09,2.217,2,9,27.6,0,27.60000038,3.09,1506.95296,10/3/20,16:43:32,27.63,5.729,3.09,0.923,7.82,-48.5,-2.3,-4.2,-1255,27.4,2.12,12.7,
25.84580733,-80.17603583,03:31.3,10/3/20,10,1.075,149.53,-6.992932415,0.85,184.9,174.76,4.13,-4.38,26.7,2.03,2.09,4.12,95,22,506.3,16.3,-1.3,D,1548.8,0,9025416,0,0,147,94.32,0,0,0,0,0,N,0,90,90,0,192,192,0,0,9999.99,2.14,2.267,2,9,27.6,0,27.60000038,2.99,1506.84928,10/3/20,16:43:34,27.63,5.564,2.99,0.932,7.83,-49.2,-0.8,4.3,-2397,27.4,2.12,12.6,
25.8458005,-80.17603033,03:32.8,10/3/20,10,0.92,142.14,-6.992933274,0.85,184.6,174.46,3.56,-4.66,26.6,2.05,2.24,4.29,95,22,506.3,16.3,-1.3,D,1551.1,0,9025416,0,0,147,94.32,0,0,0,0,0,N,0,90,90,0,192,192,0,0,9999.99,2.27,2.397,2,9,27.6,0,27.60000038,2.82,1506.67447,10/3/20,16:43:35,27.62,5.268,2.82,0.949,7.84,-50,-2.3,1.7,-1334,27.4,2.12,12.5,
25.84579533,-80.17602683,03:33.8,10/3/20,10,0.933,142.14,-6.99293444,0.85,184.9,174.76,3.38,-3.42,26.7,2.03,2.27,4.3,95,22,506.3,16.3,-1.3,D,1551.1,0,9025415,0,0,128,94.32,0,0,0,0,0,N,0,90,90,0,192,192,0,0,9999.99,2.3,2.427,2,9,27.6,0,27.60000038,2.84,1506.69229,10/3/20,16:43:36,27.61,5.293,2.84,0.949,7.84,-49.8,-1,2.5,-3596,27.3,2.12,12.8,
25.845791,-80.17602333,03:34.8,10/3/20,10,0.994,142.14,-6.992935819,0.85,185.7,175.57,3.48,-2.87,26.7,2.02,2.35,4.37,95,22,506.3,16.3,-1.3,D,1540.8,0,9025415,0,0,128,94.32,0,0,0,0,0,N,0,90,90,0,192,192,0,0,9999.99,2.38,2.507,2,9,27.6,0,27.60000038,2.7,1506.54649,10/3/20,16:43:37,27.61,5.054,2.7,0.939,7.84,-50.1,-2.2,-1.3,-2080,27.3,2.12,12.6,
25.84578683,-80.17602017,03:35.9,10/3/20,10,1.026,140.29,-6.992937315,0.85,188.3,178.2,3.82,-5.5,26.6,2.01,2.35,4.36,95,20,506.3,16.3,-1.2,D,1671.5,0,9025414,0,0,128,94.32,0,0,0,0,0,N,0,90,90,0,192,192,0,0,9999.99,2.38,2.507,2,9,27.6,0,27.60000038,2.66,1506.51013,10/3/20,16:43:38,27.6,4.982,2.66,0.924,7.89,-52.9,-2.2,0.3,-2449,27.3,2.12,12.8,
25.84578267,-80.17601633,03:36.9,10/3/20,10,1.026,140.61,-6.992938634,0.85,188.8,178.71,4.24,-5.99,26.7,2.04,2.27,4.31,95,20,506.3,16.3,-1.2,D,1671.5,0,9025414,0,0,129,94.32,0,0,0,0,0,N,0,90,90,0,192,192,0,0,9999.99,2.31,2.437,2,9,27.6,0,27.60000038,2.61,1506.45341,10/3/20,16:43:39,27.59,4.889,2.61,0.94,7.85,-50.7,0.3,-0.2,-4896,27.3,2.12,12.5,
25.84577833,-80.176013,03:37.9,10/3/20,10,0.908,140.61,-6.992940354,0.85,187.9,177.8,3.89,-3.55,26.7,2.04,2.32,4.36,95,20,506.2,16.3,-1.2,D,1657,0,9025413,0,0,132,94.32,0,0,0,0,0,N,0,90,90,0,192,192,0,0,9999.99,2.36,2.487,2,9,27.6,0,27.60000038,2.61,1506.45341,10/3/20,16:43:39,27.59,4.889,2.61,0.94,7.85,-50.7,0.3,-0.2,-4896,27.3,2.12,12.5,
25.84577517,-80.176011,03:38.9,10/3/20,10,0.964,139.12,-6.99294175,0.85,190.7,180.65,4.14,-4.18,26.6,2.01,2.51,4.53,95,20,506.2,16.3,-1.2,D,1657,0,9025413,0,0,138,94.32,0,0,0,0,0,N,0,90,90,0,192,192,0,0,9999.99,2.55,2.677,2,9,27.6,0,27.60000038,2.59,1506.43167,10/3/20,16:43:41,27.57,4.864,2.59,0.942,7.82,-49,-1.1,2.1,-3699,27.2,2.11,12.8,
25.84577167,-80.1760075,03:39.9,10/3/20,10,0.963,139.12,-6.992942508,0.85,188.7,178.61,3.68,-6.24,26.6,2.02,2.57,4.58,95,20,506.2,16.3,-1.2,D,1694.3,0,9025412,0,0,140,94.32,0,0,0,0,0,N,0,90,90,0,192,192,0,0,9999.99,2.6,2.727,2,9,27.6,0,27.60000038,2.59,1506.43323,10/3/20,16:43:42,27.57,4.863,2.59,0.933,7.84,-50.1,-0.3,2.3,-1787,27.2,2.11,12.6,
25.8457685,-80.17600383,03:41.0,10/3/20,10,0.813,139.12,-6.992944121,0.85,190.8,180.75,4.15,-0.5,26.7,2.02,2.57,4.59,95,20,506.2,16.3,-1.2,D,1694.3,0,9025412,0,0,140,94.32,0,0,0,0,0,N,0,90,90,0,192,192,0,0,9999.99,2.6,2.727,2,9,27.6,0,27.60000038,2.59,1506.43144,10/3/20,16:43:43,27.57,4.866,2.59,0.929,7.8,-47.6,-0.9,-0.6,-3047,27.1,2.11,12.5,
25.84576517,-80.17599983,03:42.0,10/3/20,10,1.083,139.12,-6.99294588,0.85,192.8,182.79,4.01,-4.62,26.6,2.01,2.46,4.46,95,20,506.2,16.3,-1.2,D,1662.2,0,9025412,0,0,141,94.32,0,0,0,0,0,N,0,90,90,0,192,192,0,0,9999.99,2.49,2.617,2,9,27.6,0,27.60000038,2.59,1506.4336,10/3/20,16:43:44,27.56,4.859,2.59,0.922,7.84,-50.1,-0.9,-3.7,-5243,27.1,2.11,12.6,
25.84576183,-80.17599683,03:43.0,10/3/20,10,0.844,139.12,-6.992947817,0.85,193,183,4.35,-5.81,26.6,2.01,2.64,4.65,95,20,506.2,16.3,-1.2,D,1662.2,0,9025411,0,0,145,94.32,0,0,0,0,0,N,0,90,90,0,192,192,0,0,9999.99,2.68,2.807,2,9,27.6,0,27.60000038,2.59,1506.43437,10/3/20,16:43:45,27.56,4.857,2.59,0.937,7.81,-48.1,-0.6,4,-927,27.1,2.11,12.6,
25.84575817,-80.17599383,03:44.1,10/3/20,10,0.93,139.12,-6.992949153,0.85,196.3,186.38,4.43,-0.82,26.7,2.02,2.64,4.66,95,20,506.2,16.3,-1.2,D,1662.2,0,9025411,0,0,145,94.32,0,0,0,0,0,N,0,90,90,0,192,192,0,0,9999.99,2.68,2.807,2,9,27.6,0,27.60000038,2.59,1506.43131,10/3/20,16:43:46,27.56,4.86,2.59,0.941,7.84,-49.9,-1.1,1.3,-3401,27.1,2.11,12.7,
25.84575017,-80.17598683,03:45.5,10/3/20,10,0.952,139.12,-6.992952308,0.85,198.9,189.06,3.85,-3.48,26.7,2.01,2.69,4.69,95,22,506.2,16.3,-1.3,D,1565.9,0,9025411,0,0,148,94.32,0,0,0,0,0,N,0,90,90,0,192,192,0,0,9999.99,2.72,2.847,2,9,27.6,0,27.60000038,2.59,1506.43131,10/3/20,16:43:47,27.57,4.864,2.59,0.927,7.81,-48.2,-1.7,-0.5,-2111,27.1,2.11,12.5,
25.84574717,-80.1759835,03:46.7,10/3/20,10,0.937,141.78,-6.992953527,0.85,200.3,190.51,3.81,-6.77,26.7,2.02,2.73,4.75,95,22,506.2,16.3,-1.3,D,1542.9,0,9025411,0,0,148,94.32,0,0,0,0,0,N,0,90,90,0,192,192,0,0,9999.99,2.76,2.887,2,9,27.6,0,27.60000038,2.6,1506.44249,10/3/20,16:43:49,27.57,4.875,2.6,0.927,7.82,-48.5,0,-1.3,-623,27,2.1,12.7,
25.84574367,-80.175981,03:48.0,10/3/20,10,0.756,141.78,-6.99295511,0.85,201.6,191.85,4.54,-0.62,26.7,2.02,2.73,4.75,95,22,506.2,16.3,-1.3,D,1542.9,0,9025411,0,0,149,94.32,0,0,0,0,0,N,0,90,90,0,192,192,0,0,9999.99,2.76,2.887,2,9,27.6,0,27.60000038,2.6,1506.43801,10/3/20,16:43:50,27.57,4.883,2.6,0.965,7.86,-51.2,-1.2,-2.1,-1022,27,2.1,12.6,
25.84573917,-80.17597817,03:49.0,10/3/20,10,1.214,141.78,-6.992956122,0.85,205.9,196.32,3.73,-0.83,26.8,2.01,2.78,4.79,95,22,506.2,16.3,-1.3,D,1541.8,0,9025409,0,0,149,94.32,0,0,0,0,0,N,0,90,90,0,192,192,0,0,9999.99,2.81,2.937,2,9,27.6,0,27.60000038,2.6,1506.44362,10/3/20,16:43:51,27.57,4.877,2.6,0.907,7.81,-48.3,-1.1,-0.9,-4168,27,2.1,12.6,
25.8457345,-80.17597583,03:50.1,10/3/20,10,1.031,141.78,-6.992957194,0.85,208.7,199.23,3.7,-8.1,26.7,2,2.78,4.78,95,22,506.2,16.3,-1.4,D,1498.8,0,9025409,0,0,149,94.32,0,0,0,0,0,N,0,90,90,0,192,192,0,0,9999.99,2.81,2.937,2,9,27.6,0,27.60000038,2.61,1506.45137,10/3/20,16:43:52,27.57,4.89,2.61,0.953,7.87,-51.5,-0.7,-6.4,-1836,27,2.1,12.6,
25.84573017,-80.1759745,03:51.1,10/3/20,10,1.05,151.41,-6.992957942,0.85,211.6,202.26,4.39,-1.99,26.8,2.02,2.79,4.81,95,22,506.2,16.3,-1.4,D,1498.8,0,9025409,0,0,149,94.32,0,0,0,0,0,N,0,90,90,0,192,192,0,0,9999.99,2.82,2.947,2,9,27.6,0,27.60000038,2.61,1506.45037,10/3/20,16:43:53,27.57,4.894,2.61,0.944,7.82,-48.7,-0.8,-1.5,465,27,2.1,12.6,
25.84572517,-80.17597167,03:52.4,10/3/20,10,1.137,153.21,-6.992958136,0.85,215.9,206.77,4.17,-1.75,26.7,2.02,2.82,4.84,95,23,506.2,16.3,-1.4,D,1494.6,0,9025409,0,0,154,94.32,0,0,0,0,0,N,0,90,90,0,192,192,0,0,9999.99,2.86,2.987,2,9,27.6,0,27.60000038,2.62,1506.463,10/3/20,16:43:55,27.57,4.903,2.62,0.952,7.82,-48.7,-1.6,-3.7,-585,27,2.1,12.5,
25.84571617,-80.17596867,03:53.5,10/3/20,10,1.193,157.18,-6.992959456,0.85,217.3,208.24,4.3,-5.69,26.7,2.05,2.77,4.82,95,23,506.2,16.3,-1.4,D,1494.6,0,9025409,0,0,160,94.32,0,0,0,0,0,N,0,90,90,0,192,192,0,0,9999.99,2.81,2.937,2,9,27.6,0,27.60000038,2.62,1506.46372,10/3/20,16:43:56,27.58,4.904,2.62,0.929,7.86,-51.2,-1.2,-0.6,1750,27,2.1,12.7,
25.8457105,-80.1759675,03:54.8,10/3/20,10,1.149,165.58,-6.99295968,0.85,221.9,213.07,3.62,-4.17,26.8,2.03,2.8,4.83,95,24,506.1,16.3,-1.4,D,1411.5,0,9025409,0,0,160,94.32,0,0,0,0,0,N,0,90,90,0,192,192,0,0,9999.99,2.83,2.957,2,9,27.6,0,27.60000038,2.62,1506.46549,10/3/20,16:43:57,27.58,4.916,2.62,0.944,7.82,-48.9,-0.3,-1.6,-2990,27,2.1,12.6,
25.84570533,-80.17596733,03:55.8,10/3/20,10,1.111,176.84,-6.992959587,0.85,223.4,214.65,4.19,1.28,26.8,2.04,2.82,4.86,95,27,506.1,16.3,-1.6,D,1272.6,0,9025408,0,0,160,94.32,0,0,0,0,0,N,0,90,90,0,192,192,0,0,9999.99,2.86,2.987,2,9,27.6,0,27.60000038,2.63,1506.4742,10/3/20,16:43:58,27.58,4.925,2.63,0.957,7.86,-51,-1.1,0.6,-1471,27,2.1,12.5,
25.84569933,-80.17596683,03:57.3,10/3/20,10,1.382,176.49,-6.992958963,0.85,230.7,222.34,3.56,1.87,26.8,2,2.85,4.84,95,27,506.1,16.3,-1.6,D,1269.4,0,9025408,0,0,160,94.32,0,0,0,0,0,N,0,90,90,0,247,247,0,0,9999.99,2.88,3.007,2,9,27.6,0,27.60000038,2.64,1506.48576,10/3/20,16:43:59,27.58,4.949,2.64,0.932,7.82,-48.5,-0.2,-0.5,-899,26.9,2.09,12.5,
