Latitude,Longitude,Time,Date,Number of Sats,GPS Speed (Kn),GPS True Heading,GPS Magnetic Variation,HDOP,C Magnetic Heading,C True Heading,Pitch Angle,Roll Angle,C Inside Temp (c),DFS Depth (m),DTB Height (m),Total Water Column (m),Batt Percent,Power Watts,Watt-Hours,Batt Volts,Batt Ampers,Batt State,Time to Empty,Current Step,Dist To Next (m),Next Speed (kn),Vehicle Speed (kn),Motor Speed CMD,Next Heading,Next Long,Next Lat,Next Depth (m),Depth Goal (m),Vehicle State,Error State,Distance to Track (m),Fin Pitch R,Fin Pitch L,Pitch Goal,Fin Yaw T,Fin Yaw B,Yaw Goal,Fin Roll,DVL-Depth (m),DVL -Altitude (m),DVL -Water Column (m),DVL-FixType,DVL-FixQuality,DVL-Temperature,Conductivity (mmhos/cm),Temperature (c),Salinity (ppt),Sound Speed (m/s),Date m/d/y   ,Time hh:mm:ss,Temp C,SpCond mS/cm,Sal ppt,Depth feet,pH,pH mV,Turbid+ NTU,Chl ug/L,BGA-PC cells/mL,ODOsat %,ODO mg/L,Battery volts,ROSEM Command Type
25.91248317,-80.1376365,25:05.5,10/7/22,8,0.39,138.42,-7.221393677,1.02,152.9,143.12,1.39,-4.53,32.3,0,3.67,3.67,95,22,512.8,16.3,-1.3,D,1574.6,0,36.198,2,0.52,128,328.46,-80.13782583,25.9127606,0,0,1,N,1.602393,65,65,11,5,5,17.66498,0,9999.99,3.68,3.807,2,9,30,0,30,48.24,1559.30092,10/7/22,10:57:41,27.67,70.49,48.24,1.08,8.21,-72.2,-2.4,2.7,-143,50.6,3.05,12.4,
25.91248089,-80.13763569,25:06.5,10/7/22,8,0.397,138.42,-7.221393677,1.02,151.8,142.07,1.39,-3.97,32.3,0,3.66,3.66,95,22,512.8,16.3,-1.3,D,1574.6,0,36.455,2,0.43,174,328.56,-80.13782583,25.9127606,0,0,1,N,1.678629,65,65,11,5,5,328.5598,0,9999.99,3.67,3.797,2,9,30,0,30,48.24,1559.30092,10/7/22,10:57:41,27.67,70.49,48.24,1.08,8.21,-72.2,-2.4,2.7,-143,50.6,3.05,12.4,
25.91247829,-80.13763471,25:07.5,10/7/22,8,0.389,138.42,-7.221393677,1.02,150.1,140.46,2.56,2.99,32.3,0,3.67,3.67,95,27,512.8,16.3,-1.6,D,1273.8,0,36.753,2,0.42,174,328.66,-80.13782583,25.9127606,0,0,1,N,1.678629,74,74,11,5,5,328.6655,0,9999.99,3.68,3.807,2,9,30,0,30,48.36,1559.4265,10/7/22,10:57:42,27.65,70.64,48.36,1.104,8.24,-73.4,-1.5,-1,-4661,50.6,3.04,12.4,
25.9124754,-80.13763311,25:08.5,10/7/22,8,0.751,147.47,-7.221393677,1.02,149.5,139.89,1.15,-3.56,32.3,0,3.68,3.68,95,27,512.8,16.3,-1.6,D,1273.8,0,37.112,2,0.51,174,328.71,-80.13782583,25.9127606,0,0,1,N,1.678629,64,64,11,5,5,328.7147,0,9999.99,3.7,3.827,2,9,30,0,30,48.32,1559.38514,10/7/22,10:57:44,27.64,70.6,48.32,1.122,8.19,-70.6,0,-1.5,-1924,50.3,3.03,12.5,
25.91246995,-80.13763014,25:09.5,10/7/22,8,1.187,151.97,-7.221393677,1.02,147.6,138.09,1.25,0.05,32.3,0,3.68,3.68,95,27,512.8,16.3,-1.6,D,1273.8,0,37.783,2,0.78,174,328.8,-80.13782583,25.9127606,0,0,1,N,1.678629,65,65,11,5,5,328.8113,0,9999.99,3.69,3.817,2,9,30,0,30,48.32,1559.38514,10/7/22,10:57:44,27.64,70.6,48.32,1.122,8.19,-70.6,0,-1.5,-1924,50.3,3.03,12.5,
25.91246318,-80.13762593,25:10.6,10/7/22,8,1.559,151.88,-7.221393677,1.02,143.4,134.13,1.35,2.06,32.4,0,3.69,3.69,95,27,512.8,16.3,-1.6,D,1273.8,15,14.227,2,1.05,174,347.02,-80.13765788,25.91258786,0,0,1,N,6.415514,65,65,11,5,5,358.9598,0,9999.99,3.7,3.827,2,9,30,0,30,48.22,1559.27997,10/7/22,10:57:45,27.66,70.47,48.22,1.14,8.21,-71.7,-0.7,-2.9,-116,50.2,3.02,12.3,
25.91245577,-80.13762046,25:11.6,10/7/22,8,1.748,151.81,-7.221393677,1.02,137.2,128.32,1.98,3.13,32.4,0,3.72,3.72,95,41,512.8,16.3,-2.5,D,838.5,15,15.157,2,1.3,174,345.7,-80.13765788,25.91258786,0,0,1,N,6.532114,69,69,11,5,5,359.4643,0,9999.99,3.73,3.857,2,9,30,0,30,47.86,1558.90329,10/7/22,10:57:47,27.63,70.01,47.86,1.133,8.19,-70.7,-2.3,-0.6,-3176,50,3.02,12.3,
25.91244889,-80.13761346,25:12.6,10/7/22,8,1.847,149.53,-7.221393677,1.02,128.2,119.94,3.08,1.27,32.4,0.01,3.7,3.71,95,41,512.8,16.3,-2.5,D,838.5,15,16.079,2,1.5,174,343.96,-80.13765788,25.91258786,0,0,1,N,6.495344,75,75,11,5,5,359.3058,0,9999.99,3.72,3.847,2,9,30,0,30,47.86,1558.90329,10/7/22,10:57:47,27.63,70.01,47.86,1.133,8.19,-70.7,-2.3,-0.6,-3176,50,3.02,12.3,
25.91243967,-80.13760717,25:13.6,10/7/22,8,1.786,139.4,-7.221393677,1.02,119.1,111.52,3.96,1.94,32.4,0.01,3.74,3.75,95,41,512.8,16.3,-2.5,D,838.5,15,16.96,2,1.63,174,342.19,-80.13765788,25.91258786,0,0,1,N,6.385867,80,80,11,5,5,358.8302,0,9999.99,3.77,3.897,2,9,29.9,0,29.89999962,47.79,1558.63305,10/7/22,10:57:48,27.65,69.92,47.79,1.113,8.19,-70.5,-1.5,-4.1,-1929,50,3.02,12.4,
25.91243483,-80.1375995,25:14.6,10/7/22,8,1.783,132.25,-7.221393677,1.02,111.5,104.49,3.66,0.82,32.5,0.01,3.73,3.75,95,38,512.8,16.3,-2.3,D,906,15,17.784,2,1.68,174,340.71,-80.13765788,25.91258786,0,0,1,N,6.280631,79,79,11,5,5,358.3663,0,9999.99,3.77,3.897,2,9,29.9,0,29.89999962,47.63,1558.46605,10/7/22,10:57:50,27.58,69.72,47.63,1.094,8.17,-69.5,-2.7,-0.2,-4322,49.7,3,12.4,
25.91243036,-80.13759057,25:15.6,10/7/22,8,1.747,125.17,-7.221393677,1.02,102.3,95.95,3.57,0.17,32.4,0.01,3.77,3.77,95,38,512.8,16.3,-2.3,D,906,15,18.763,2,1.69,174,338.97,-80.13765788,25.91258786,0,0,1,N,5.900539,78,78,11,5,5,357.1366,0,9999.99,3.8,3.927,2,9,29.9,0,29.89999962,47.63,1558.46605,10/7/22,10:57:50,27.58,69.72,47.63,1.094,8.17,-69.5,-2.7,-0.2,-4322,49.7,3,12.4,
25.91242726,-80.13758189,25:16.6,10/7/22,8,1.744,116.69,-7.221393677,1.02,95.3,89.42,3.44,-0.21,32.4,0,3.8,3.8,95,38,512.8,16.3,-2.3,D,906,15,19.408,2,1.68,174,336.94,-80.13765788,25.91258786,0,0,1,N,5.526832,78,78,11,5,5,355.1068,0,9999.99,3.83,3.957,2,9,29.9,0,29.89999962,47.54,1558.37151,10/7/22,10:57:51,27.59,69.59,47.54,1.09,8.21,-71.8,-2.3,-2.8,-1404,49.4,2.98,12.4,
25.91242517,-80.13757417,25:17.6,10/7/22,8,1.696,110.68,-7.221393677,1.02,87.6,82.17,3.41,1.39,32.4,0,3.84,3.84,95,38,512.8,16.3,-2.3,D,906,15,19.773,2,1.66,174,334.74,-80.13765788,25.91258786,0,0,1,N,5.03715,77,77,11,5,5,352.4258,0,9999.99,3.87,3.997,2,9,29.9,0,29.89999962,47.2,1558.01527,10/7/22,10:57:53,27.52,69.16,47.2,1.099,8.19,-70.6,-2.1,1.4,-1456,49,2.97,12.4,
25.912424,-80.1375655,25:18.6,10/7/22,8,1.646,104.17,-7.221393677,1.02,80.6,75.52,3.17,2.59,32.4,0,3.87,3.87,95,38,512.7,16.3,-2.3,D,903.7,15,20.242,2,1.64,175,332.93,-80.13765788,25.91258786,0,0,1,N,4.539185,76,76,11,5,5,349.8035,0,9999.99,3.9,4.027,2,9,29.8,0,29.89999962,47.2,1558.01527,10/7/22,10:57:53,27.52,69.16,47.2,1.099,8.19,-70.6,-2.1,1.4,-1456,49,2.97,12.4,
25.91242419,-80.13755611,25:19.6,10/7/22,8,1.649,95.97,-7.221393677,1.02,72,67.25,3.52,2.54,32.4,0,3.87,3.87,95,38,512.7,16.3,-2.3,D,903.7,15,20.852,2,1.63,175,330.78,-80.13765788,25.91258786,0,0,1,N,3.905901,78,78,11,5,5,346.2771,0,9999.99,3.9,4.027,2,9,29.8,0,29.79999924,47.27,1557.88997,10/7/22,10:57:54,27.46,69.25,47.27,1.103,8.18,-70.2,-1.7,-0.7,-689,48.9,2.97,12.4,
25.9124255,-80.13754787,25:20.6,10/7/22,8,1.567,90.4,-7.221393677,1.02,63.7,59.17,3.43,2.83,32.4,0,3.87,3.87,95,38,512.7,16.3,-2.3,D,903.7,15,21.142,2,1.61,176,328.64,-80.13765788,25.91258786,0,0,1,N,3.128591,78,78,11,5,5,341.3602,0,9999.99,3.9,4.027,2,9,29.8,0,29.79999924,47.28,1557.90043,10/7/22,10:57:56,27.46,69.26,47.28,1.099,8.22,-72.6,-2.3,-2.7,-3554,48.4,2.94,12.4,
25.91242793,-80.13754043,25:21.6,10/7/22,8,1.449,78.9,-7.221393677,1.02,55.7,51.29,3.83,2.54,32.4,0,3.88,3.88,95,40,512.7,16.3,-2.4,D,868.3,15,21.313,2,1.59,176,326.55,-80.13765788,25.91258786,0,0,1,N,2.405503,80,80,11,5,5,336.6437,0,9999.99,3.91,4.037,2,9,29.8,0,29.79999924,47.28,1557.90043,10/7/22,10:57:56,27.46,69.26,47.28,1.099,8.22,-72.6,-2.3,-2.7,-3554,48.4,2.94,12.4,
25.912431,-80.137534,25:22.6,10/7/22,8,1.458,67.28,-7.221393677,1.02,47.2,42.82,3.35,2.8,32.4,0,3.88,3.88,95,40,512.7,16.3,-2.4,D,868.3,15,21.319,2,1.57,176,324.48,-80.13765788,25.91258786,0,0,1,N,1.668169,78,78,11,5,5,331.7371,0,9999.99,3.91,4.037,2,9,29.8,0,29.79999924,47.25,1557.86898,10/7/22,10:57:57,27.46,69.23,47.25,1.097,8.18,-70.2,-2.5,0.7,-235,48.2,2.92,12.2,
25.91243606,-80.13752673,25:23.6,10/7/22,8,1.544,58.19,-7.221393677,1.02,38.3,33.86,3.35,4.63,32.4,0,3.89,3.89,95,40,512.7,16.3,-2.4,D,868.3,15,21.377,2,1.53,177,322.15,-80.13765788,25.91258786,0,0,1,N,0.9324473,77,77,11,5,5,327.2719,0,9999.99,3.92,4.047,2,9,29.8,0,29.79999924,46.79,1557.38707,10/7/22,10:57:59,27.45,68.64,46.79,1.1,8.17,-69.7,-2.3,-1.8,-2741,47.7,2.9,12.4,
25.9124405,-80.137522,25:24.6,10/7/22,8,1.396,50.58,-7.221393677,1.02,29.3,24.73,3.85,3.31,32.4,0,3.9,3.9,95,40,512.7,16.3,-2.4,D,868.3,15,21.221,2,1.47,178,320.18,-80.13765788,25.91258786,0,0,1,N,7.44E-02,80,80,11,5,5,320.7551,0,9999.99,3.93,4.057,2,9,29.7,0,29.70000076,46.78,1557.17717,10/7/22,10:58:00,27.51,68.62,46.78,1.103,8.16,-69.1,-2.8,-1.2,-2170,47.4,2.88,12.5,
25.9124465,-80.1375185,25:25.6,10/7/22,8,1.418,37.24,-7.221393677,1.02,20.1,15.35,3.65,5.23,32.5,0,3.88,3.88,95,42,512.7,16.3,-2.6,D,819.9,15,21.033,2,1.42,179,318.49,-80.13765788,25.91258786,0,0,1,N,0.555528,79,79,11,5,5,316.2707,0,9999.99,3.91,4.037,2,9,29.7,0,29.70000076,46.78,1557.17717,10/7/22,10:58:00,27.51,68.62,46.78,1.103,8.16,-69.1,-2.8,-1.2,-2170,47.4,2.88,12.5,
25.91245371,-80.1375165,25:26.6,10/7/22,8,1.334,26.85,-7.221393677,1.02,8.8,3.78,3.25,4,32.4,0,3.83,3.83,95,42,512.7,16.3,-2.6,D,819.9,15,20.553,2,1.43,180,316.53,-80.13765788,25.91258786,0,0,1,N,1.237044,78,78,11,5,5,311.2952,0,9999.99,3.86,3.987,2,9,29.7,0,29.70000076,46.96,1557.3658,10/7/22,10:58:01,27.47,68.85,46.96,1.095,8.22,-72.4,-2.1,-1.8,-668,47.4,2.88,12.3,
25.91246097,-80.13751658,25:27.6,10/7/22,8,1.391,13.09,-7.221393677,1.02,357.3,352.02,3.04,5.59,32.4,0,3.82,3.82,95,42,512.7,16.3,-2.6,D,819.9,15,19.97,2,1.39,181,314.95,-80.13765788,25.91258786,0,0,1,N,1.771655,75,75,11,5,5,307.6643,0,9999.99,3.85,3.977,2,9,29.7,0,29.70000076,46.76,1557.15606,10/7/22,10:58:02,27.52,68.6,46.76,1.091,8.19,-70.7,-2.3,-0.5,294,47.3,2.87,12.6,
25.91246661,-80.13752057,25:28.6,10/7/22,8,1.209,13.09,-7.221393677,1.02,347.1,341.61,4.18,5.62,32.5,0,3.82,3.82,95,42,512.7,16.3,-2.6,D,819.9,15,19.245,2,1.39,183,314.47,-80.13765788,25.91258786,0,0,1,N,2.145239,82,82,11,5,5,306.6726,0,9999.99,3.86,3.987,2,9,29.7,0,29.70000076,46.6,1556.98836,10/7/22,10:58:03,27.48,68.4,46.6,1.105,8.18,-70.3,-2.5,-3.8,-2187,47.2,2.87,12.5,
25.91247294,-80.13752489,25:29.7,10/7/22,8,1.466,13.09,-7.221393677,1.02,333.1,327.38,3.79,7.23,32.5,0,3.82,3.82,95,47,512.7,16.3,-2.8,D,737.1,15,18.445,2,1.38,185,313.85,-80.13765788,25.91258786,0,0,1,N,2.093865,78,78,11,35,35,305.9197,0,9999.99,3.85,3.977,2,9,29.7,0,29.70000076,46.5,1556.88355,10/7/22,10:58:05,27.49,68.26,46.5,1.094,8.22,-72.5,-2.6,-3.1,-4145,46.9,2.85,12.3,
25.91247837,-80.13753024,25:30.7,10/7/22,8,1.589,13.09,-7.221393677,1.02,320.9,315.03,4.68,9.7,32.5,0,3.82,3.82,95,47,512.7,16.3,-2.8,D,737.1,15,17.64,2,1.48,186,313.64,-80.13765788,25.91258786,0,0,1,N,2.080264,85,85,11,91,91,305.9743,0,9999.99,3.86,3.987,2,9,29.7,0,29.70000076,46.5,1556.88355,10/7/22,10:58:05,27.49,68.26,46.5,1.094,8.22,-72.5,-2.6,-3.1,-4145,46.9,2.85,12.3,
25.912484,-80.1375365,25:31.7,10/7/22,8,1.736,351.55,-7.221393677,1.02,312.3,306.34,1.87,11.4,32.5,0,3.8,3.8,95,47,512.7,16.3,-2.8,D,737.1,15,16.884,2,1.54,186,313.78,-80.13765788,25.91258786,0,0,1,N,1.919636,73,73,11,123,123,306.739,0,9999.99,3.82,3.948022,2,9,29.7,0,29.70000076,46.29,1556.66346,10/7/22,10:58:07,27.48,67.99,46.29,1.102,8.18,-70.1,-1.6,-0.2,-2203,46.4,2.83,12.6,
25.9124895,-80.13754467,25:32.7,10/7/22,8,1.9,302.53,-7.221393677,1.02,310.5,304.52,2.19,11.1,32.5,0,3.8,3.8,95,54,512.6,16.2,-3.3,D,639.8,15,15.943,2,1.61,187,314.18,-80.13765788,25.91258786,0,0,1,N,1.715089,73,73,11,139,139,308.1319,0,9999.99,3.81,3.941441,2,9,29.6,0,29.70000076,46.34,1556.71586,10/7/22,10:58:08,27.51,68.06,46.34,1.115,8.17,-69.7,-2.6,0,-380,46.2,2.82,12.4,
25.91249511,-80.13755367,25:33.7,10/7/22,8,1.96,296.51,-7.221393677,1.02,310.3,304.32,1.39,11.7,32.5,0.06,3.83,3.88,95,54,512.6,16.2,-3.3,D,639.8,15,14.663,2,1.73,187,314.7,-80.13765788,25.91258786,0,0,1,N,1.422617,65,65,11,148,148,309.9806,0,9999.99,3.84,3.964424,2,9,29.6,0,29.60000038,46.16,1556.33188,10/7/22,10:58:09,27.47,67.83,46.16,1.134,8.19,-70.8,-2.5,1.1,-293,46.2,2.82,12.4,
25.91249968,-80.13756335,25:34.7,10/7/22,8,1.902,296.96,-7.221393677,1.02,309.7,303.71,1.99,12.7,32.5,0,3.77,3.77,95,54,512.6,16.2,-3.3,D,639.8,15,13.621,2,1.81,187,316.04,-80.13765788,25.91258786,0,0,1,N,1.138713,69,69,11,164,164,312.8509,0,9999.99,3.79,3.919541,2,9,29.6,0,29.60000038,46.22,1556.38969,10/7/22,10:58:10,27.5,67.9,46.22,1.137,8.23,-72.8,-2.9,-1.6,-1528,46.1,2.81,12.4,
25.91250441,-80.13757353,25:35.7,10/7/22,8,1.998,296.59,-7.221393677,1.02,314.4,308.46,3.76,10.7,32.5,0,3.77,3.77,95,54,512.6,16.2,-3.3,D,639.8,15,12.541,2,1.89,187,317.72,-80.13765788,25.91258786,0,0,1,N,0.7063562,76,76,11,163,163,316.0348,0,9999.99,3.8,3.924147,2,9,29.6,0,29.60000038,45.89,1556.04363,10/7/22,10:58:11,27.45,67.49,45.89,1.131,8.19,-70.4,-1.7,-0.1,-1893,45.9,2.81,12.4,
25.91250997,-80.13758361,25:36.7,10/7/22,8,1.918,296.65,-7.221393677,1.02,317,311.09,2.92,10.7,32.5,0.02,3.77,3.79,95,53,512.6,16.2,-3.2,D,652.5,15,11.41,2,1.94,187,319.38,-80.13765788,25.91258786,0,0,1,N,0.1955149,75,75,11,158,158,318.8323,0,9999.99,3.79,3.917967,2,9,29.6,0,29.60000038,45.98,1556.13995,10/7/22,10:58:12,27.5,67.6,45.98,1.115,8.18,-70.3,-2.4,-3.2,-3625,45.8,2.8,12.4,
25.91251535,-80.13759223,25:37.7,10/7/22,8,1.953,297.64,-7.221393677,1.02,318.3,312.4,1.71,11.2,32.6,0,3.79,3.79,95,53,512.6,16.2,-3.2,D,652.5,15,10.398,2,1.92,187,320.84,-80.13765788,25.91258786,0,0,1,N,8.70E-02,67,67,11,161,161,320.8553,0,9999.99,3.8,3.931411,2,9,29.6,0,29.60000038,45.82,1555.97023,10/7/22,10:58:13,27.46,67.4,45.82,1.132,8.21,-72,-1.5,-2.8,-1264,45.6,2.79,12.4,
25.91252006,-80.13760026,25:38.8,10/7/22,8,1.914,299.2,-7.221393677,1.02,323.2,317.36,1.82,11.5,32.6,0,3.73,3.73,95,53,512.6,16.2,-3.2,D,652.5,15,9.489,2,1.91,187,322.6,-80.13765788,25.91258786,0,0,1,N,0.2617521,66,66,11,154,154,322.9045,0,9999.99,3.75,3.87476,2,9,29.6,0,29.60000038,45.86,1556.01217,10/7/22,10:58:14,27.47,67.44,45.86,1.128,8.18,-70.2,-1.8,-1.3,-2568,45.5,2.78,12.4,
25.91252541,-80.13760891,25:39.7,10/7/22,8,1.945,304.68,-7.221393677,1.02,324,318.17,2.87,10.4,32.6,0.09,3.76,3.85,95,52,512.6,16.2,-3.2,D,661.3,15,8.498,2,1.91,187,324.81,-80.13765788,25.91258786,0,0,1,N,0.5063965,75,75,11,159,159,324.9515,0,9999.99,3.79,3.917,2,9,29.6,0,29.60000038,45.66,1555.80892,10/7/22,10:58:15,27.48,67.19,45.66,1.146,8.18,-70.1,-2.8,-0.7,-2697,45.5,2.79,12.4,
25.9125321,-80.1376176,25:40.7,10/7/22,8,1.903,308.83,-7.221393677,1.02,329,323.23,2.16,11.6,32.6,0.07,3.65,3.72,95,52,512.6,16.2,-3.2,D,661.3,15,7.394,2,1.89,187,326.98,-80.13765788,25.91258786,0,0,1,N,0.8663995,70,70,11,140,140,326.4136,0,9999.99,3.67,3.797797,2,9,29.6,0,29.60000038,45.67,1555.81906,10/7/22,10:58:16,27.43,67.2,45.67,1.114,8.17,-69.6,-2.7,-1,-3409,45.4,2.78,12.4,
25.91253846,-80.1376247,25:41.7,10/7/22,8,1.97,311.72,-7.221393677,1.02,325.7,319.89,1.56,11.2,32.6,0.01,3.69,3.7,95,52,512.6,16.2,-3.2,D,661.3,16,31.493,2,1.92,187,317.92,-80.13783571,25.91274868,0,0,1,N,0.9240857,66,66,11,132,132,321.0869,0,9999.99,3.71,3.833636,2,9,29.5,0,29.60000038,45.88,1556.037,10/7/22,10:58:17,27.47,67.47,45.88,1.145,8.15,-68.5,-1.8,-4,-3749,45.4,2.78,12.4,
25.91254487,-80.13763277,25:42.7,10/7/22,8,1.916,311.54,-7.221393677,1.02,330.3,324.54,1.55,9.3,32.6,0.03,3.77,3.8,95,52,512.6,16.2,-3.2,D,661.3,16,30.423,2,1.92,187,318.15,-80.13783571,25.91274868,0,0,1,N,1.473847,73,73,11,114,114,321.3994,0,9999.99,3.79,3.917,2,9,29.5,0,29.5,46.2,1556.17015,10/7/22,10:58:18,27.44,67.88,46.2,1.148,8.22,-72.2,-2.6,-0.3,-1287,45.2,2.76,12.4,
25.91255092,-80.13764034,25:43.8,10/7/22,8,1.941,315.88,-7.221393677,1.02,330.1,324.34,2.25,11.5,32.6,0.05,3.66,3.71,95,52,512.5,16.2,-3.2,D,655.6,16,29.417,2,1.92,187,318.38,-80.13783571,25.91274868,0,0,1,N,1.48163,71,71,11,118,118,322.209,0,9999.99,3.68,3.805583,2,9,29.5,0,29.5,45.88,1555.83684,10/7/22,10:58:19,27.5,67.47,45.88,1.131,8.19,-70.5,-2.7,3.5,-1123,45.1,2.75,12.3,
25.91255742,-80.13764839,25:44.7,10/7/22,8,2.094,315.15,-7.221393677,1.02,328.3,322.52,2.29,10,32.6,0.04,3.68,3.72,95,52,512.5,16.2,-3.2,D,655.6,16,28.342,2,1.96,187,318.62,-80.13783571,25.91274868,0,0,1,N,1.589265,71,71,11,130,130,323.2269,0,9999.99,3.69,3.821786,2,9,29.5,0,29.5,45.74,1555.68881,10/7/22,10:58:20,27.48,67.29,45.74,1.174,8.18,-70.2,-2.3,0.7,-3085,45.1,2.76,12.4,
25.91256522,-80.13765663,25:45.8,10/7/22,8,1.934,315.64,-7.221393677,1.02,328.1,322.32,1.89,11.9,32.6,0,3.64,3.64,95,52,512.5,16.2,-3.2,D,655.6,16,27.147,2,1.95,187,318.72,-80.13783571,25.91274868,0,0,1,N,1.697809,68,68,11,135,135,324.2319,0,9999.99,3.65,3.779356,2,9,29.5,0,29.5,45.65,1555.59392,10/7/22,10:58:21,27.52,67.18,45.65,1.119,8.21,-71.8,-2.9,-2.3,-3124,45,2.75,12.4,
25.91257192,-80.13766391,25:46.8,10/7/22,8,1.97,313.83,-7.221393677,1.02,329.6,323.83,3.44,11.5,32.6,0.03,3.64,3.66,95,53,512.5,16.2,-3.2,D,646.8,16,26.107,2,1.95,187,318.84,-80.13783571,25.91274868,0,0,1,N,1.690663,78,78,11,134,134,325.4778,0,9999.99,3.66,3.784424,2,9,29.5,0,29.5,45.58,1555.51942,10/7/22,10:58:22,27.51,67.08,45.58,1.143,8.22,-72.5,-1.8,-3.7,-376,45,2.75,12.5,
25.91257761,-80.1376707,25:47.8,10/7/22,8,2.049,314.24,-7.221393677,1.02,328.5,322.72,2.07,10.6,32.6,0.07,3.65,3.72,95,53,512.5,16.2,-3.2,D,646.8,16,25.183,2,1.97,187,319.05,-80.13783571,25.91274868,0,0,1,N,1.598951,69,69,11,143,143,326.7043,0,9999.99,3.67,3.793018,2,9,29.5,0,29.5,45.59,1555.53475,10/7/22,10:58:23,27.54,67.1,45.59,1.129,8.18,-70.3,-3.3,-2.4,-5176,44.9,2.75,12.4,
25.9125843,-80.13767815,25:48.8,10/7/22,8,1.985,316.59,-7.221393677,1.02,330.3,324.54,1.14,11.6,32.7,0.06,3.61,3.67,95,53,512.5,16.2,-3.2,D,646.8,16,24.133,2,1.97,187,319.23,-80.13783571,25.91274868,0,0,1,N,1.608099,64,64,11,138,138,327.2133,0,9999.99,3.62,3.750711,2,9,29.5,0,29.5,45.69,1555.63833,10/7/22,10:58:24,27.56,67.23,45.69,1.111,8.18,-70.2,-2.9,0.8,-2082,44.9,2.74,12.5,
25.91259159,-80.13768524,25:49.8,10/7/22,8,2.08,317.42,-7.221393677,1.02,331.4,325.66,3.66,12.1,32.7,0.06,3.57,3.63,95,53,512.5,16.2,-3.2,D,646.8,16,23.056,2,1.97,187,319.25,-80.13783571,25.91274868,0,0,1,N,1.568905,75,75,11,135,135,326.8709,0,9999.99,3.6,3.727423,2,9,29.5,0,29.5,45.52,1555.46056,10/7/22,10:58:25,27.6,67.01,45.52,1.134,8.17,-69.6,-1.7,0.9,-2606,44.9,2.74,12.3,
25.91259895,-80.13769247,25:50.8,10/7/22,8,1.975,316.31,-7.221393677,1.02,333.5,327.79,3.06,10.7,32.7,0.05,3.57,3.62,95,52,512.5,16.2,-3.2,D,658.1,16,21.965,2,2.03,187,319.29,-80.13783571,25.91274868,0,0,1,N,1.478222,77,77,11,123,123,326.5156,0,9999.99,3.6,3.723416,2,9,29.5,0,29.5,45.45,1555.38633,10/7/22,10:58:26,27.63,66.93,45.45,1.12,8.21,-71.8,-3.7,-1.2,-584,44.9,2.74,12.5,
25.91260618,-80.13769912,25:51.8,10/7/22,8,2.012,319.61,-7.221393677,1.02,332.6,326.87,1.95,11.5,32.7,0.04,3.55,3.59,95,52,512.5,16.2,-3.2,D,658.1,16,20.922,2,2,187,319.23,-80.13783571,25.91274868,0,0,1,N,1.412348,69,69,11,123,123,325.8284,0,9999.99,3.57,3.694921,2,9,29.5,0,29.5,45.37,1555.30022,10/7/22,10:58:27,27.62,66.82,45.37,1.125,8.23,-73.2,-3.1,-0.5,-3548,44.9,2.75,12.5,
25.91261398,-80.13770587,25:52.8,10/7/22,8,2.058,320.58,-7.221393677,1.02,333.5,327.79,3.29,12.2,32.8,0.03,3.53,3.56,95,52,512.5,16.2,-3.2,D,658.1,16,19.824,2,2.01,187,319.07,-80.13783571,25.91274868,0,0,1,N,1.296463,81,81,11,116,116,324.9472,0,9999.99,3.56,3.683924,2,9,29.5,0,29.5,45.36,1555.28889,10/7/22,10:58:28,27.65,66.8,45.36,1.119,8.19,-70.8,-2.3,-0.7,-3565,44.9,2.74,12.4,
25.91262228,-80.13771379,25:53.8,10/7/22,8,2.108,320.33,-7.221393677,1.02,332.5,326.77,2.74,11.1,32.7,0.07,3.54,3.61,95,53,512.4,16.2,-3.2,D,654.6,16,18.608,2,2.04,187,319.06,-80.13783571,25.91274868,0,0,1,N,1.290192,73,73,11,117,117,324.3165,0,9999.99,3.56,3.69014,2,9,29.5,0,29.5,45.17,1555.09334,10/7/22,10:58:29,27.62,66.56,45.17,1.117,8.2,-71.4,-3.4,-5.5,-470,45,2.76,12.3,
25.91262884,-80.13771984,25:54.8,10/7/22,8,2.072,320.14,-7.221393677,1.02,331.2,325.46,2.44,11.9,32.7,0.04,3.53,3.57,95,53,512.4,16.2,-3.2,D,654.6,16,17.66,2,2.06,187,318.99,-80.13783571,25.91274868,0,0,1,N,1.110593,68,68,11,123,123,323.6737,0,9999.99,3.55,3.677035,2,9,29.5,0,29.5,45.13,1555.04936,10/7/22,10:58:30,27.68,66.52,45.13,1.117,8.22,-72.6,-3.3,-1.2,-144,45,2.76,12.5,
25.9126372,-80.13772733,25:55.8,10/7/22,8,2.026,318.62,-7.221393677,1.02,331.1,325.35,1.88,10.8,32.8,0.02,3.5,3.52,95,53,512.4,16.2,-3.2,D,654.6,16,16.467,2,2.05,187,318.83,-80.13783571,25.91274868,0,0,1,N,1.075434,68,68,11,117,117,322.8118,0,9999.99,3.52,3.648675,2,9,29.5,0,29.5,44.98,1554.8901,10/7/22,10:58:31,27.64,66.32,44.98,1.11,8.19,-70.5,-1.8,-1.4,-2428,45.3,2.78,12.5,
25.9126448,-80.13773486,25:56.8,10/7/22,8,2.128,318.75,-7.221393677,1.02,331.3,325.56,2.59,11,32.7,0.07,3.49,3.56,95,53,512.4,16.2,-3.2,D,654.6,16,15.336,2,2.08,187,318.87,-80.13783571,25.91274868,0,0,1,N,1.018013,73,73,11,114,114,322.4074,0,9999.99,3.51,3.637934,2,9,29.5,0,29.5,44.89,1554.79943,10/7/22,10:58:32,27.68,66.21,44.89,1.12,8.19,-70.5,-3.6,-1.7,-3989,45.4,2.78,12.4,
25.91265228,-80.13774245,25:57.8,10/7/22,8,2.097,318.99,-7.221393677,1.02,331.3,325.56,2.05,11.6,32.7,0.09,3.47,3.56,95,52,512.4,16.2,-3.2,D,656.7,16,14.21,2,2.09,187,318.97,-80.13783571,25.91274868,0,0,1,N,0.9731446,69,69,11,113,113,322.0908,0,9999.99,3.49,3.620729,2,9,29.5,0,29.5,45.33,1555.26366,10/7/22,10:58:33,27.68,66.77,45.33,1.122,8.18,-70.1,-3,2.5,-4323,45.6,2.78,12.3,
25.91265923,-80.13774937,25:58.8,10/7/22,8,2.117,318.62,-7.221393677,1.02,329.9,324.14,2.51,11.3,32.8,0.03,3.45,3.48,95,52,512.4,16.2,-3.2,D,656.7,16,13.173,2,2.08,187,319.04,-80.13783571,25.91274868,0,0,1,N,0.9096625,72,72,11,117,117,321.6424,0,9999.99,3.47,3.595046,2,9,29.5,0,29.5,45.05,1554.96818,10/7/22,10:58:34,27.68,66.41,45.05,1.107,8.16,-69.3,-3.6,-2.8,-2354,45.7,2.8,12.4,
25.91266679,-80.1377571,25:59.8,10/7/22,8,2.11,317.04,-7.221393677,1.02,330.3,324.54,3.61,11.6,32.8,0.06,3.42,3.47,95,52,512.4,16.2,-3.2,D,656.7,16,12.03,2,2.11,187,319.19,-80.13783571,25.91274868,0,0,1,N,0.8684636,79,79,11,114,114,321.3509,0,9999.99,3.44,3.56576,2,9,29.5,0,29.5,44.92,1554.82966,10/7/22,10:58:35,27.72,66.25,44.92,1.126,8.22,-72.6,-3.9,-2.9,-1141,45.8,2.81,12.4,
25.91267382,-80.13776469,26:00.8,10/7/22,8,2.144,315.4,-7.221393677,1.02,328.8,323.02,2.34,11.2,32.9,0.05,3.39,3.44,95,53,512.4,16.2,-3.2,D,649.1,16,10.943,2,2.1,187,319.53,-80.13783571,25.91274868,0,0,1,N,0.850502,71,71,11,120,120,321.2239,0,9999.99,3.41,3.540806,2,9,29.5,0,29.5,44.9,1554.8082,10/7/22,10:58:36,27.69,66.22,44.9,1.115,8.22,-72.4,-4,-0.2,-1810,46,2.82,12.4,
25.91268068,-80.13777238,26:01.8,10/7/22,8,2.152,316.28,-7.221393677,1.02,328,322.21,2.77,13,32.8,0.03,3.36,3.38,95,53,512.4,16.2,-3.2,D,649.1,16,9.864,2,2.15,187,320.05,-80.13783571,25.91274868,0,0,1,N,0.8534474,71,71,11,124,124,321.2444,0,9999.99,3.37,3.497023,2,9,29.5,0,29.5,44.94,1554.85019,10/7/22,10:58:37,27.73,66.28,44.94,1.116,8.19,-70.9,-2,-3.6,-1840,46.1,2.82,12.4,
25.91268768,-80.13778001,26:02.8,10/7/22,8,2.163,316.06,-7.221393677,1.02,326.8,321,2.1,11.6,32.8,0,3.34,3.34,95,53,512.4,16.2,-3.2,D,649.1,16,8.778,2,2.13,187,320.61,-80.13783571,25.91274868,0,0,1,N,0.8459607,71,71,11,129,129,321.1915,0,9999.99,3.36,3.487697,2,9,29.5,0,29.5,44.92,1554.82511,10/7/22,10:58:38,27.71,66.24,44.92,1.106,8.21,-72,-4.1,-3.6,-2237,46.3,2.83,12.4,
25.91269611,-80.13778855,26:03.9,10/7/22,8,2.168,313.51,-7.221393677,1.02,327.9,322.11,2.91,10.1,32.8,0,3.31,3.31,95,53,512.4,16.2,-3.2,D,649.1,16,7.512,2,2.15,187,321.1,-80.13783571,25.91274868,0,0,1,N,0.7960107,74,74,11,122,122,320.8379,0,9999.99,3.33,3.456179,2,9,29.5,0,29.5,44.76,1554.6568,10/7/22,10:58:39,27.72,66.04,44.76,1.103,8.23,-73.2,-3.9,-5.5,-2705,46.5,2.85,12.4,
25.91270348,-80.13779651,26:04.9,10/7/22,8,2.16,313.38,-7.221393677,1.02,329.5,323.73,3.24,10,32.9,0,3.27,3.27,95,53,512.3,16.2,-3.2,D,649.4,16,6.375,2,2.13,187,322.05,-80.13783571,25.91274868,0,0,1,N,0.7908319,79,79,11,116,116,320.8007,0,9999.99,3.3,3.427271,2,9,29.5,0,29.5,44.42,1554.30014,10/7/22,10:58:40,27.73,65.6,44.42,1.093,8.19,-70.9,-3.2,-1.3,-2962,46.5,2.86,12.4,
25.91270998,-80.13780385,26:05.9,10/7/22,8,2.147,316.49,-7.221393677,1.02,328.5,322.72,2.86,11.1,32.8,0,3.3,3.3,95,53,512.3,16.2,-3.2,D,649.4,16,5.355,2,2.18,187,323.48,-80.13783571,25.91274868,0,0,1,N,0.7925108,74,74,11,119,119,320.8121,0,9999.99,3.32,3.447,2,9,29.5,0,29.5,44.93,1554.83514,10/7/22,10:58:41,27.71,66.26,44.93,1.108,8.19,-70.7,-3.2,-0.4,-2672,46.6,2.86,12.4,
25.91271687,-80.13781172,26:06.9,10/7/22,8,2.212,315.94,-7.221393677,1.02,326.4,320.59,1.72,12.6,32.8,0,3.15,3.15,95,53,512.3,16.2,-3.2,D,649.4,17,4.274,2,2.19,128,325.85,-80.13783571,25.91274868,0,0,6,N,0.7169663,67,67,11,147,147,325.6732,0,9999.99,3.17,3.292088,2,9,29.5,0,29.5,45.71,1555.65349,10/7/22,10:58:42,27.7,67.26,45.71,1.115,8.18,-70.3,-3,2.3,-3792,46.8,2.85,12.3,
25.91272313,-80.13781883,26:07.9,10/7/22,8,1.875,313.02,-7.221393677,1.02,327.3,321.51,2.13,-3.05,32.8,0,3.24,3.24,95,53,512.3,16.2,-3.2,D,649.4,17,3.304,2,2.1,128,329.27,-80.13783571,25.91274868,0,0,6,N,0.7169663,68,68,11,159,159,328.958,0,9999.99,3.25,3.377,2,9,29.5,0,29.5,44.93,1554.83514,10/7/22,10:58:43,27.67,66.25,44.93,1.118,8.2,-71.1,-3.8,1,37,46.8,2.87,12.4,
25.91272818,-80.1378245,26:08.9,10/7/22,8,1.517,313.52,-7.221393677,1.02,329.2,323.43,2.53,-0.93,32.9,0,3.19,3.19,95,42,512.3,16.2,-2.5,D,820.3,17,2.54,2,1.87,128,333.8,-80.13783571,25.91274868,0,0,6,N,0.7169663,72,72,11,168,168,333.3607,0,9999.99,3.21,3.337,2,9,29.5,0,29.5,44.96,1554.86661,10/7/22,10:58:44,27.66,66.29,44.96,1.102,8.24,-73.5,-3.8,2,-1554,46.9,2.88,12.4,
25.91273267,-80.13782962,26:10.0,10/7/22,8,1.303,313.36,-7.221393677,1.02,332.3,326.57,2.34,-2.46,32.9,0,3.16,3.16,95,42,512.3,16.2,-2.5,D,820.3,17,1.882,2,1.63,128,341.11,-80.13783571,25.91274868,0,0,6,N,0.7169663,71,71,11,182,182,340.4305,0,9999.99,3.18,3.307,2,9,29.5,0,29.5,44.4,1554.27916,10/7/22,10:58:46,27.67,65.57,44.4,1.087,8.19,-71,-3.8,-2.3,-858,47,2.89,12.4,
25.91273593,-80.13783319,26:11.0,10/7/22,8,1.058,317.27,-7.221393677,1.02,334.4,328.7,2.34,-3.06,32.8,0,3.14,3.14,95,42,512.3,16.2,-2.5,D,820.3,17,1.44,2,1.41,128,349.93,-80.13783571,25.91274868,0,0,6,N,0.7169663,71,71,11,208,208,348.8327,0,9999.99,3.16,3.287,2,9,29.5,0,29.5,44.4,1554.27916,10/7/22,10:58:46,27.67,65.57,44.4,1.087,8.19,-71,-3.8,-2.3,-858,47,2.89,12.4,
25.9127393,-80.13783551,26:12.0,10/7/22,8,0.935,319.18,-7.221393677,1.02,338.1,332.46,1.98,-2.13,32.9,0,3.09,3.09,95,22,512.2,16.3,-1.4,D,1515.1,17,1.044,2,1.24,128,358.9,-80.13783571,25.91274868,0,0,6,N,0.7169663,69,69,11,227,227,357.3319,0,9999.99,3.11,3.237,2,9,29.5,0,29.5,44.37,1554.24769,10/7/22,10:58:47,27.63,65.53,44.37,1.06,8.22,-72.3,-2.9,-5.2,-3205,47.1,2.9,12.4,
25.91274226,-80.13783781,26:13.0,10/7/22,8,0.853,318.27,-7.221393677,1.02,342.4,336.83,1.91,-3.33,32.9,0,2.99,2.99,95,22,512.2,16.3,-1.4,D,1515.1,17,0.741,2,1.08,128,16.43,-80.13783571,25.91274868,0,0,6,N,0.7169663,68,68,11,250,250,13.71353,0,9999.99,3.01,3.137,2,9,29.5,0,29.5,44.47,1554.35259,10/7/22,10:58:49,27.68,65.66,44.47,1.054,8.19,-70.7,-2.7,-3.8,-1383,47,2.89,12.3,
25.91274488,-80.13784002,26:14.0,10/7/22,8,0.752,319.79,-7.221393677,1.02,346.2,340.69,2.1,-4.32,32.9,0,2.95,2.95,95,22,512.2,16.3,-1.3,D,1522.7,17,0.608,2,0.94,128,45.62,-80.13783571,25.91274868,0,0,6,N,0.7169663,70,70,11,250,250,41.31783,0,9999.99,2.97,3.097,2,9,29.5,0,29.5,44.47,1554.35259,10/7/22,10:58:49,27.68,65.66,44.47,1.054,8.19,-70.7,-2.7,-3.8,-1383,47,2.89,12.3,
25.91274756,-80.13784142,26:15.0,10/7/22,8,0.618,319.79,-7.221393677,1.02,351.4,345.99,1.8,-3.82,33,0,2.92,2.92,95,22,512.2,16.3,-1.3,D,1522.7,17,0.585,2,0.81,128,77.75,-80.13783571,25.91274868,0,0,6,N,0.7169663,68,68,11,250,250,73.28893,0,9999.99,2.94,3.067,2,9,29.4,0,29.39999962,44.61,1554.29666,10/7/22,10:58:50,27.65,65.84,44.61,1.071,8.19,-70.5,-3,1.9,-1290,47,2.89,12.4,
25.91274969,-80.13784283,26:16.0,10/7/22,8,0.571,319.79,-7.221393677,1.02,356.4,351.1,1.73,-4.09,33,0,2.81,2.81,95,22,512.2,16.3,-1.3,D,1522.7,17,0.717,2,0.74,128,98.97,-80.13783571,25.91274868,0,0,6,N,0.7169663,67,67,11,250,250,95.72195,0,9999.99,2.83,2.957,2,9,29.4,0,29.39999962,44.28,1553.95028,10/7/22,10:58:52,27.68,65.41,44.28,1.073,8.18,-70.2,-3.2,1.7,-2183,47.1,2.9,12.5,
25.91275168,-80.13784399,26:16.0,10/7/22,8,0.541,319.79,-7.221393677,1.02,0.7,355.5,1.61,-4.15,32.9,0,2.78,2.78,95,22,512.2,16.3,-1.3,D,1564,17,0.891,2,0.64,128,111.94,-80.13783571,25.91274868,0,0,6,N,0.7169663,67,67,11,250,250,109.7492,0,9999.99,2.79,2.917,2,9,29.4,0,29.39999962,44.28,1553.95028,10/7/22,10:58:52,27.68,65.41,44.28,1.073,8.18,-70.2,-3.2,1.7,-2183,47.1,2.9,12.5,
25.91275336,-80.1378449,26:17.0,10/7/22,8,0.551,319.79,-7.221393677,1.02,6.2,1.12,1.6,-3.69,32.9,0,2.81,2.81,95,22,512.2,16.3,-1.3,D,1564,17,1.057,2,0.57,128,119.51,-80.13783571,25.91274868,0,0,6,N,0.7169663,66,66,11,250,250,117.8826,0,9999.99,2.82,2.947,2,9,29.4,0,29.39999962,44.38,1554.05524,10/7/22,10:58:53,27.68,65.55,44.38,1.07,8.23,-73.2,-4.1,-1.6,-2956,47.2,2.9,12.4,
25.91275545,-80.13784516,26:18.0,10/7/22,8,0.467,319.79,-7.221393677,1.02,9.9,4.91,1.71,-3.24,33,0,2.94,2.94,95,22,512.2,16.3,-1.3,D,1564,17,1.208,2,0.52,128,128.52,-80.13783571,25.91274868,0,0,6,N,0.7169663,67,67,11,250,250,127.256,0,9999.99,2.96,3.087,2,9,29.4,0,29.39999962,44.19,1553.85581,10/7/22,10:58:55,27.69,65.3,44.19,1.059,8.19,-70.9,-3,-2.5,989,47.3,2.91,12.4,
25.91275725,-80.13784511,26:19.0,10/7/22,8,0.454,319.79,-7.221393677,1.02,13.3,8.39,1.58,-4.15,33,0,2.95,2.95,95,22,512.2,16.3,-1.3,D,1564,17,1.336,2,0.48,128,135.37,-80.13783571,25.91274868,0,0,6,N,0.7169663,66,66,11,250,250,134.3368,0,9999.99,2.96,3.087,2,9,29.4,0,29.39999962,44.19,1553.85581,10/7/22,10:58:55,27.69,65.3,44.19,1.059,8.19,-70.9,-3,-2.5,989,47.3,2.91,12.4,
25.91275919,-80.13784514,26:20.0,10/7/22,8,0.389,319.79,-7.221393677,1.02,16.8,11.97,1.41,-4.92,33,0,2.97,2.97,95,22,512.2,16.3,-1.3,D,1549.2,17,1.501,2,0.45,128,141.1,-80.13783571,25.91274868,0,0,6,N,0.7169663,65,65,11,250,250,140.2549,0,9999.99,2.98,3.107,2,9,29.4,0,29.39999962,44.32,1553.99226,10/7/22,10:58:56,27.71,65.47,44.32,1.059,8.21,-72.2,-2.5,-2.1,197,47.3,2.91,12.5,
25.91276046,-80.13784478,26:21.0,10/7/22,8,0.318,319.79,-7.221393677,1.02,20.1,15.35,1.41,-3.85,33,0,2.99,2.99,95,22,512.2,16.3,-1.3,D,1549.2,17,1.591,2,0.43,128,145.31,-80.13783571,25.91274868,0,0,6,N,0.7169663,65,65,11,250,250,144.5616,0,9999.99,3,3.127,2,9,29.5,0,29.5,44.54,1554.42602,10/7/22,10:58:58,27.69,65.75,44.54,1.074,8.19,-70.7,-2.5,-3.8,-2657,47.3,2.91,12.6,
25.9127617,-80.1378439,26:22.0,10/7/22,8,0.282,319.79,-7.221393677,1.02,24.1,19.43,1.43,-3.91,33,0,3,3,95,22,512.2,16.3,-1.3,D,1549.2,17,1.663,2,0.4,128,150.51,-80.13783571,25.91274868,0,0,6,N,0.7169663,66,66,11,250,250,149.8366,0,9999.99,3.01,3.137,2,9,29.5,0,29.5,44.54,1554.42602,10/7/22,10:58:58,27.69,65.75,44.54,1.074,8.19,-70.7,-2.5,-3.8,-2657,47.3,2.91,12.6,
25.9127628,-80.1378432,26:23.0,10/7/22,8,0.354,319.79,-7.221393677,1.02,27.7,23.1,1.43,-3.27,33.1,0,3,3,95,22,512.1,16.3,-1.3,D,1544.7,17,1.74,2,0.37,128,154.51,-80.13783571,25.91274868,0,0,6,N,0.7169663,66,66,11,250,250,153.9056,0,9999.99,3.01,3.137,2,9,29.4,0,29.39999962,44.4,1554.07623,10/7/22,10:58:59,27.74,65.58,44.4,1.081,8.19,-70.7,-3,-3.6,-3959,47.2,2.9,12.4,
25.91276443,-80.13784267,26:24.0,10/7/22,8,0.386,319.79,-7.221393677,1.02,29.9,25.34,1.43,-3.86,33.1,0,3.07,3.07,95,22,512.1,16.3,-1.3,D,1544.7,17,1.884,2,0.35,128,158.32,-80.13783571,25.91274868,0,0,6,N,0.7169663,66,66,11,250,250,157.8041,0,9999.99,3.08,3.207,2,9,29.5,0,29.5,44.18,1554.0484,10/7/22,10:59:01,27.75,65.29,44.18,1.07,8.22,-72.4,-3.5,1.2,-31,47.3,2.9,12.3,
25.91276587,-80.13784236,26:25.0,10/7/22,8,0.341,319.79,-7.221393677,1.02,32.1,27.58,1.33,-4.51,33,0,3.09,3.09,95,22,512.1,16.3,-1.3,D,1544.7,17,2.023,2,0.33,128,160.8,-80.13783571,25.91274868,0,0,6,N,0.7169663,65,65,11,250,250,160.3569,0,9999.99,3.1,3.227,2,9,29.4,0,29.5,44.18,1554.0484,10/7/22,10:59:01,27.75,65.29,44.18,1.07,8.22,-72.4,-3.5,1.2,-31,47.3,2.9,12.3,
25.91276699,-80.1378422,26:26.0,10/7/22,8,0.253,319.79,-7.221393677,1.02,34.6,30.12,1.33,-3.98,33,0,3.15,3.15,95,22,512.1,16.3,-1.3,D,1544.7,17,2.138,2,0.32,128,162.31,-80.13783571,25.91274868,0,0,6,N,0.7169663,65,65,11,250,250,161.9022,0,9999.99,3.16,3.287,2,9,29.5,0,29.5,44.32,1554.19525,10/7/22,10:59:02,27.73,65.47,44.32,1.088,8.24,-73.9,-1.8,1.3,-4509,47.1,2.89,12.5,
25.91276777,-80.13784151,26:27.0,10/7/22,8,0.27,319.79,-7.221393677,1.02,37.5,33.05,1.33,-3.94,33.1,0,3.19,3.19,95,22,512.1,16.3,-1.3,D,1550.1,17,2.2,2,0.3,128,164.71,-80.13783571,25.91274868,0,0,6,N,0.7169663,65,65,11,250,250,164.3139,0,9999.99,3.2,3.327,2,9,29.5,0,29.5,44.22,1554.09036,10/7/22,10:59:04,27.76,65.34,44.22,1.095,8.21,-71.9,-2.6,-3.1,-4464,47.2,2.9,12.4,
25.91276857,-80.13784034,26:28.0,10/7/22,8,0.307,319.79,-7.221393677,1.02,39.4,34.98,1.33,-3.21,33.2,0,3.26,3.26,95,22,512.1,16.3,-1.3,D,1550.1,17,2.261,2,0.3,128,168.18,-80.13783571,25.91274868,0,0,6,N,0.7169663,65,65,11,250,250,167.8084,0,9999.99,3.27,3.397,2,9,29.5,0,29.5,44.22,1554.09036,10/7/22,10:59:04,27.76,65.34,44.22,1.095,8.21,-71.9,-2.6,-3.1,-4464,47.2,2.9,12.4,
25.91276973,-80.13783949,26:29.0,10/7/22,8,0.311,319.79,-7.221393677,1.02,40.6,36.19,1.33,-4.29,33.1,0,3.3,3.3,95,22,512.1,16.3,-1.3,D,1550.1,17,2.371,2,0.29,128,170.83,-80.13783571,25.91274868,0,0,6,N,0.7169663,65,65,11,250,250,170.4945,0,9999.99,3.31,3.437,2,9,29.5,0,29.5,43.99,1553.84912,10/7/22,10:59:05,27.72,65.04,43.99,1.07,8.22,-72.7,-3.3,-4.7,-846,47.3,2.91,12.4,
25.91277068,-80.13783869,26:30.0,10/7/22,8,0.214,319.79,-7.221393677,1.02,42.5,38.1,1.28,-4.37,33.1,0,3.34,3.34,95,22,512.1,16.3,-1.3,D,1550.1,17,2.465,2,0.27,128,173.05,-80.13783571,25.91274868,0,0,6,N,0.7169663,65,65,11,250,250,172.7543,0,9999.99,3.35,3.477,2,9,29.5,0,29.5,44.34,1554.21623,10/7/22,10:59:07,27.72,65.49,44.34,1.097,8.19,-70.7,-2.5,-4.3,-1729,47.4,2.91,12.5,
25.9127713,-80.13783772,26:31.0,10/7/22,8,0.22,319.79,-7.221393677,1.02,44.5,40.11,1.28,-2.91,33.1,0,3.36,3.36,95,22,512.1,16.3,-1.3,D,1561.5,17,2.524,2,0.24,128,175.43,-80.13783571,25.91274868,0,0,6,N,0.7169663,65,65,11,250,250,175.1661,0,9999.99,3.37,3.497,2,9,29.5,0,29.5,44.34,1554.21623,10/7/22,10:59:07,27.72,65.49,44.34,1.097,8.19,-70.7,-2.5,-4.3,-1729,47.4,2.91,12.5,
25.91277179,-80.13783671,26:32.0,10/7/22,8,0.251,319.79,-7.221393677,1.02,46.2,41.82,1.27,-4.14,33.1,0,3.44,3.44,95,22,512.1,16.3,-1.3,D,1561.5,17,2.57,2,0.25,128,177.76,-80.13783571,25.91274868,0,0,6,N,0.7169663,65,65,11,250,250,177.5005,0,9999.99,3.45,3.577,2,9,29.5,0,29.5,44.34,1554.21623,10/7/22,10:59:08,27.73,65.49,44.34,1.071,8.18,-70.4,-2.8,-5,-4109,47.3,2.91,12.4,
25.91277243,-80.13783588,26:33.0,10/7/22,8,0.266,319.79,-7.221393677,1.02,47.4,43.02,1.27,-4.53,33.1,0,3.46,3.46,95,22,512.1,16.3,-1.3,D,1561.5,17,2.641,2,0.24,128,179.63,-80.13783571,25.91274868,0,0,6,N,0.7169663,65,65,11,250,250,179.3847,0,9999.99,3.47,3.597,2,9,29.5,0,29.5,43.93,1553.78619,10/7/22,10:59:10,27.69,64.96,43.93,1.091,8.23,-73.3,-3,2.8,-1430,47.4,2.92,12.3,
25.91277276,-80.1378352,26:34.0,10/7/22,8,0.131,319.79,-7.221393677,1.02,49.4,45.02,1.27,-3.49,33,0,3.54,3.54,95,22,512,16.3,-1.3,D,1547.9,17,2.677,2,0.23,128,181.08,-80.13783571,25.91274868,0,0,6,N,0.7169663,65,65,11,250,250,180.8465,0,9999.99,3.55,3.677,2,9,29.5,0,29.5,43.93,1553.78619,10/7/22,10:59:10,27.69,64.96,43.93,1.091,8.23,-73.3,-3,2.8,-1430,47.4,2.92,12.3,
25.9127729,-80.13783408,26:35.0,10/7/22,8,0.18,319.79,-7.221393677,1.02,48.9,44.52,-1.04,-4.35,33.1,0,3.54,3.54,95,22,512,16.3,-1.3,D,1547.9,17,2.7,2,0.21,128,183.46,-80.13783571,25.91274868,0,0,6,N,0.7169663,55,55,11,250,250,183.2483,0,9999.99,3.55,3.677,2,9,29.5,0,29.5,44.17,1554.03791,10/7/22,10:59:11,27.69,65.27,44.17,1.084,8.16,-68.9,-2.5,-6.6,680,47.3,2.91,12.5,
25.91277293,-80.13783315,26:36.0,10/7/22,8,0.143,319.79,-7.221393677,1.02,46.4,42.02,-5.2,-4.14,33.1,0,3.52,3.52,95,22,512,16.3,-1.3,D,1547.9,17,2.709,2,0.2,128,185.41,-80.13783571,25.91274868,0,0,6,N,0.7169663,43,43,11,250,250,185.2551,0,9999.99,3.5,3.627,2,9,29.5,0,29.5,43.99,1553.84912,10/7/22,10:59:13,27.66,65.04,43.99,1.317,8.19,-70.8,-2.6,-4.2,-1565,47.3,2.91,12.4,
25.91277275,-80.13783263,26:38.0,10/7/22,8,0.267,319.79,-7.221393677,1.02,30.3,25.75,-6.04,2.09,33,0,3.39,3.39,95,22,512,16.3,-1.3,D,1547.9,17,2.694,2,0.31,128,186.58,-80.13783571,25.91274868,0,0,6,N,0.7169663,43,43,11,250,250,186.8006,0,9999.99,3.33,3.455524,2,9,29.5,0,29.5,43.99,1553.84912,10/7/22,10:59:13,27.66,65.04,43.99,1.317,8.19,-70.8,-2.6,-4.2,-1565,47.3,2.91,12.4,
25.91277254,-80.13783338,26:39.0,10/7/22,7,0.437,319.79,-7.221393677,1.29,26.9,22.29,0.34,-15.9,33,0,3.37,3.37,95,22,512,16.3,-1.3,D,1552.3,17,2.663,2,0.21,128,185.02,-80.13783571,25.91274868,0,0,6,N,0.7169663,54,54,11,250,250,185.1533,0,9999.99,3.35,3.477,2,9,29.5,0,29.5,44.18,1554.0484,10/7/22,10:59:14,27.65,65.29,44.18,1.654,8.19,-70.6,-1.7,-0.9,-1905,47.2,2.9,12.5,
25.91277253,-80.13783218,26:40.0,10/7/22,8,0.25,319.79,-7.221393677,1.02,27.4,22.8,0.61,0.34,33.1,0,3.64,3.64,95,22,512,16.3,-1.3,D,1552.3,17,2.675,2,0.17,128,187.59,-80.13783571,25.91274868,0,0,6,N,0.7169663,61,61,11,250,250,187.588,0,9999.99,3.66,3.787,2,9,29.5,0,29.5,44,1553.85961,10/7/22,10:59:15,27.63,65.05,44,1.454,8.18,-70.4,-1.6,-1.2,-4077,47.2,2.91,12.3,
25.91277317,-80.13783147,26:41.1,10/7/22,8,0.148,319.79,-7.221393677,1.02,28.8,24.22,-1.61,-5.04,33.1,0,3.55,3.55,95,22,512,16.3,-1.3,D,1552.3,17,2.756,2,0.17,128,188.85,-80.13783571,25.91274868,0,0,6,N,0.7169663,47,47,11,250,250,188.8673,0,9999.99,3.54,3.665293,2,9,29.4,0,29.39999962,44.15,1553.81383,10/7/22,10:59:17,27.61,65.25,44.15,1.215,8.23,-73.1,-1,-1.7,-4754,47.2,2.91,12.3,
25.91277379,-80.13783125,26:42.1,10/7/22,8,0.131,319.79,-7.221393677,1.02,23.4,18.72,1.74,-9.1,33.1,0,3.59,3.59,95,23,512,16.3,-1.4,D,1510.4,17,2.827,2,0.14,128,189.08,-80.13783571,25.91274868,0,0,6,N,0.7169663,64,64,11,250,250,189.1574,0,9999.99,3.59,3.717,0,0,29.5,0,29.39999962,44.15,1553.81383,10/7/22,10:59:17,27.61,65.25,44.15,1.215,8.23,-73.1,-1,-1.7,-4754,47.2,2.91,12.3,
25.91277404,-80.13783,26:43.1,10/7/22,8,0.271,319.79,-7.221393677,1.02,18.3,13.51,0.13,-0.2,33.1,0,3.66,3.66,95,23,512,16.3,-1.4,D,1510.4,17,2.878,2,0.15,128,191.44,-80.13783571,25.91274868,0,0,6,N,0.7169663,58,58,11,250,250,191.5442,0,9999.99,3.67,3.797,2,9,29.4,0,29.39999962,44,1553.65639,10/7/22,10:59:18,27.66,65.06,44,1.16,8.2,-71.2,-2.3,-4.3,33841,47.3,2.91,12.4,
25.91277424,-80.13782912,26:44.1,10/7/22,8,0.141,319.79,-7.221393677,1.02,15.1,10.23,1.3,-5.74,33.1,0,1.87,1.87,95,23,512,16.3,-1.4,D,1510.4,17,2.918,2,0.1,128,193.06,-80.13783571,25.91274868,0,0,6,N,0.7169663,65,65,11,5,5,193.133,0,9999.99,1.87,1.997,0,0,29.4,0,29.39999962,43.81,1553.45699,10/7/22,10:59:20,27.62,64.81,43.81,1.111,8.2,-71.6,-1.5,-2.2,-5191,47.2,2.92,12.4,
25.91277465,-80.13782882,26:45.1,10/7/22,8,0.149,319.79,-7.221393677,1.02,11.9,6.96,1.39,-6.57,33.1,0,3.67,3.67,95,23,512,16.3,-1.4,D,1510.4,17,2.969,2,0.13,128,193.42,-80.13783571,25.91274868,0,0,6,N,0.7169663,65,65,11,5,5,193.507,0,9999.99,3.68,3.807,2,9,29.4,0,29.39999962,43.81,1553.45699,10/7/22,10:59:20,27.62,64.81,43.81,1.111,8.2,-71.6,-1.5,-2.2,-5191,47.2,2.92,12.4,
25.91277495,-80.13782833,26:46.1,10/7/22,8,0.134,319.79,-7.221393677,1.02,11.1,6.14,1.45,-1.93,33.1,0,3.69,3.69,95,23,511.9,16.3,-1.4,D,1474.8,17,3.013,2,0.12,128,194.19,-80.13783571,25.91274868,0,0,6,N,0.7169663,66,66,11,5,5,194.2753,0,9999.99,3.71,3.837,2,9,29.4,0,29.39999962,43.81,1553.45699,10/7/22,10:59:21,27.66,64.8,43.81,1.118,8.22,-72.8,-1.4,-1,-1235,47,2.9,12.4,
25.91277559,-80.13782862,26:47.1,10/7/22,8,0.126,319.79,-7.221393677,1.02,10.4,5.42,1.31,-8,33.1,0,3.64,3.64,95,23,511.9,16.3,-1.4,D,1474.8,17,3.076,2,0.11,128,193.32,-80.13783571,25.91274868,0,0,6,N,0.7169663,65,65,11,5,5,193.3932,0,9999.99,3.65,3.777,2,9,29.4,0,29.39999962,43.63,1553.26808,10/7/22,10:59:23,27.64,64.57,43.63,1.101,8.23,-72.9,-1.3,-1.2,-3181,46.9,2.9,12.4,
25.91277575,-80.13782892,26:48.1,10/7/22,8,0.114,319.79,-7.221393677,1.02,10.1,5.12,1.27,-5.07,33.1,0,3.69,3.69,95,23,511.9,16.3,-1.4,D,1474.8,17,3.085,2,0.1,128,192.72,-80.13783571,25.91274868,0,0,6,N,0.7169663,64,64,11,5,5,192.7642,0,9999.99,3.7,3.827,2,9,29.4,0,29.39999962,43.63,1553.26808,10/7/22,10:59:23,27.64,64.57,43.63,1.101,8.23,-72.9,-1.3,-1.2,-3181,46.9,2.9,12.4,
25.9127759,-80.13782889,26:49.1,10/7/22,8,0.099,319.79,-7.221393677,1.02,11.8,6.86,1.77,-3.51,33.1,0,3.62,3.62,95,22,511.9,16.3,-1.3,D,1553.3,17,3.103,2,0.09,128,192.71,-80.13783571,25.91274868,0,0,6,N,0.7169663,68,68,11,5,5,192.7444,0,9999.99,3.63,3.757,2,9,29.4,0,29.39999962,43.79,1553.436,10/7/22,10:59:24,27.65,64.78,43.79,1.083,8.23,-73.3,-1.9,-4.2,-3393,46.9,2.9,12.4,
25.91277606,-80.1378292,26:50.1,10/7/22,8,0.064,319.79,-7.221393677,1.02,12,7.06,1.29,-6.19,33.2,0,3.66,3.66,95,22,511.9,16.3,-1.3,D,1553.3,17,3.113,2,0.08,128,192.07,-80.13783571,25.91274868,0,0,6,N,0.7169663,65,65,11,5,5,192.0946,0,9999.99,3.67,3.797,2,9,29.4,0,29.39999962,43.76,1553.40451,10/7/22,10:59:26,27.64,64.74,43.76,1.089,8.22,-72.6,-0.3,-2.1,-983,46.8,2.89,12.4,
25.91277653,-80.13782865,26:51.1,10/7/22,8,0.149,319.79,-7.221393677,1.02,12.2,7.26,1.18,-4.3,33.1,0,3.66,3.66,95,22,511.9,16.3,-1.3,D,1553.3,17,3.176,2,0.08,128,192.84,-80.13783571,25.91274868,0,0,6,N,0.7169663,65,65,11,5,5,192.8463,0,9999.99,3.67,3.797,2,9,29.4,0,29.39999962,43.76,1553.40451,10/7/22,10:59:26,27.64,64.74,43.76,1.089,8.22,-72.6,-0.3,-2.1,-983,46.8,2.89,12.4,
25.91277681,-80.13782847,26:52.1,10/7/22,8,0.1,319.79,-7.221393677,1.02,12.9,7.98,1.42,-5.95,33.1,0,3.64,3.64,95,22,511.9,16.3,-1.3,D,1553.3,17,3.211,2,0.07,128,193.04,-80.13783571,25.91274868,0,0,6,N,0.7169663,66,66,11,5,5,193.0417,0,9999.99,3.65,3.777,2,9,29.4,0,29.39999962,43.89,1553.54095,10/7/22,10:59:27,27.64,64.91,43.89,1.075,8.22,-72.3,-1.5,-0.9,-3549,46.8,2.89,12.4,
25.91277714,-80.13782845,26:53.1,10/7/22,8,0.091,319.79,-7.221393677,1.02,14.2,9.31,1.3,-5.55,33.2,0,3.62,3.62,95,22,511.9,16.3,-1.3,D,1550.9,17,3.246,2,0.07,128,192.92,-80.13783571,25.91274868,0,0,6,N,0.7169663,65,65,11,5,5,192.9162,0,9999.99,3.63,3.757,2,9,29.4,0,29.39999962,43.43,1553.0582,10/7/22,10:59:29,27.65,64.31,43.43,1.086,8.21,-71.8,-2.2,0.9,-1715,46.7,2.89,12.4,
25.91277748,-80.13782861,26:54.1,10/7/22,8,0.058,319.79,-7.221393677,1.02,15.6,10.74,1.27,-3.5,33.2,0,3.62,3.62,95,22,511.9,16.3,-1.3,D,1550.9,17,3.28,2,0.06,128,192.49,-80.13783571,25.91274868,0,0,6,N,0.7169663,65,65,11,5,5,192.4886,0,9999.99,3.63,3.757,2,9,29.4,0,29.39999962,43.43,1553.0582,10/7/22,10:59:29,27.65,64.31,43.43,1.086,8.21,-71.8,-2.2,0.9,-1715,46.7,2.89,12.4,
25.9127778,-80.13782893,26:55.1,10/7/22,8,0.066,319.79,-7.221393677,1.02,15.7,10.85,1.52,-6.56,33.1,0,3.65,3.65,95,22,511.9,16.3,-1.3,D,1550.9,17,3.309,2,0.06,128,191.83,-80.13783571,25.91274868,0,0,6,N,0.7169663,66,66,11,5,5,191.8194,0,9999.99,3.66,3.787,2,9,29.4,0,29.39999962,43.49,1553.12116,10/7/22,10:59:30,27.64,64.38,43.49,1.079,8.21,-71.7,-2.8,2.3,-833,46.8,2.89,12.4,
25.91277812,-80.13782855,26:56.1,10/7/22,8,0.138,319.79,-7.221393677,1.02,16.4,11.56,1.39,-5.67,33.2,0,3.63,3.63,95,22,511.9,16.3,-1.3,D,1547.4,17,3.351,2,0.06,128,192.34,-80.13783571,25.91274868,0,0,6,N,0.7169663,65,65,11,5,5,192.3097,0,9999.99,3.64,3.767,2,9,29.4,0,29.39999962,43.3,1552.92178,10/7/22,10:59:32,27.65,64.14,43.3,1.088,8.2,-71.3,-0.7,-0.6,-2027,46.9,2.9,12.4,
25.91277844,-80.13782819,26:57.1,10/7/22,8,0.058,319.79,-7.221393677,1.02,18.2,13.4,1.41,-4.2,33.2,0,3.61,3.61,95,22,511.9,16.3,-1.3,D,1547.4,17,3.394,2,0.07,128,192.81,-80.13783571,25.91274868,0,0,6,N,0.7169663,65,65,11,250,250,192.7663,0,9999.99,3.62,3.747,2,9,29.4,0,29.39999962,43.3,1552.92178,10/7/22,10:59:32,27.65,64.14,43.3,1.088,8.2,-71.3,-0.7,-0.6,-2027,46.9,2.9,12.4,
25.91277892,-80.13782814,26:58.1,10/7/22,8,0.163,319.79,-7.221393677,1.02,20.2,15.45,1.41,-6.45,33.2,0,3.61,3.61,95,22,511.9,16.3,-1.3,D,1547.4,17,3.447,2,0.07,128,192.68,-80.13783571,25.91274868,0,0,6,N,0.7169663,65,65,11,250,250,192.6307,0,9999.99,3.62,3.747,2,9,29.4,0,29.39999962,43.47,1553.10017,10/7/22,10:59:33,27.66,64.36,43.47,1.071,8.2,-71.5,-1.6,-1.2,-2571,46.9,2.9,12.3,
25.91277923,-80.1378283,26:59.1,10/7/22,8,0.112,319.79,-7.221393677,1.02,22.3,17.59,1.13,-3.76,33.1,0,3.6,3.6,95,22,511.9,16.3,-1.3,D,1547.4,17,3.477,2,0.08,128,192.31,-80.13783571,25.91274868,0,0,6,N,0.7169663,64,64,11,250,250,192.249,0,9999.99,3.61,3.737,2,9,29.4,0,29.39999962,43.23,1552.84832,10/7/22,10:59:35,27.64,64.05,43.23,1.084,8.2,-71.2,-1.6,-0.4,-714,47,2.91,12.4,
25.91277972,-80.13782826,27:00.1,10/7/22,8,0.096,319.79,-7.221393677,1.02,24.1,19.43,1.46,-5.01,33.2,0,3.58,3.58,95,22,511.8,16.3,-1.3,D,1545.2,17,3.531,2,0.09,128,192.19,-80.13783571,25.91274868,0,0,6,N,0.7169663,66,66,11,250,250,192.1144,0,9999.99,3.59,3.717,2,9,29.4,0,29.39999962,43.23,1552.84832,10/7/22,10:59:35,27.64,64.05,43.23,1.084,8.2,-71.2,-1.6,-0.4,-714,47,2.91,12.4,
25.91278003,-80.13782789,27:01.1,10/7/22,8,0.072,319.79,-7.221393677,1.02,26.9,22.29,1.15,-6.28,33.2,0,3.57,3.57,95,22,511.8,16.3,-1.3,D,1545.2,17,3.572,2,0.1,128,192.64,-80.13783571,25.91274868,0,0,6,N,0.7169663,64,64,11,250,250,192.5558,0,9999.99,3.58,3.707,2,9,29.4,0,29.39999962,43.3,1552.92178,10/7/22,10:59:36,27.66,64.14,43.3,1.081,8.2,-71.6,-1.9,-1.4,-2371,46.8,2.9,12.4,
25.91278,-80.1378274,27:02.1,10/7/22,8,0.025,319.79,-7.221393677,1.02,25.9,21.27,0.77,-6.22,33.2,0,3.58,3.58,95,22,511.8,16.3,-1.3,D,1545.2,17,3.58,2,0.1,128,193.43,-80.13783571,25.91274868,0,0,6,N,0.7169663,62,62,11,250,250,193.3421,0,9999.99,3.59,3.717,2,9,29.4,0,29.39999962,43.21,1552.82734,10/7/22,10:59:38,27.64,64.03,43.21,1.099,8.2,-71.3,-1.7,-6.9,-2458,46.9,2.91,12.4,
25.91277987,-80.13782735,27:03.1,10/7/22,8,0.087,319.79,-7.221393677,1.02,22.7,18,1.22,-6.65,33.2,0,3.56,3.56,95,22,511.8,16.3,-1.3,D,1545.2,17,3.567,2,0.05,128,193.55,-80.13783571,25.91274868,0,0,6,N,0.7169663,67,67,11,250,250,193.5104,0,9999.99,3.58,3.707,2,9,29.4,0,29.39999962,43.21,1552.82734,10/7/22,10:59:38,27.64,64.03,43.21,1.099,8.2,-71.3,-1.7,-6.9,-2458,46.9,2.91,12.4,
25.91278028,-80.13782735,27:04.1,10/7/22,8,0.13,319.79,-7.221393677,1.02,21.2,16.47,0.05,-4.51,33.2,0,3.56,3.56,95,22,511.8,16.3,-1.3,D,1547.4,17,3.611,2,0.04,128,193.39,-80.13783571,25.91274868,0,0,6,N,0.7169663,57,57,11,250,250,193.3999,0,9999.99,3.56,3.687,2,9,29.4,0,29.39999962,43.07,1552.68043,10/7/22,10:59:39,27.67,63.85,43.07,1.028,8.2,-71.3,-1.8,-5.3,-1849,46.9,2.91,12.4,
25.91278081,-80.13782716,27:05.1,10/7/22,8,0.092,319.79,-7.221393677,1.02,13.2,8.29,-2.1,-9.5,33.2,0,3.56,3.56,95,22,511.8,16.3,-1.3,D,1547.4,17,3.674,2,0.09,128,193.46,-80.13783571,25.91274868,0,0,6,N,0.7169663,44,44,11,5,5,193.5294,0,9999.99,3.55,3.677,2,9,29.4,0,29.39999962,43.26,1552.8798,10/7/22,10:59:41,27.67,64.1,43.26,1.189,8.22,-72.4,-1.1,-2.3,-1851,46.9,2.9,12.4,
25.91277934,-80.13782627,27:06.1,10/7/22,8,0.48,319.79,-7.221393677,1.02,9.6,4.6,-1.66,-1.49,33.2,0,3.28,3.28,95,22,511.8,16.3,-1.3,D,1547.4,17,3.538,2,0.18,128,195.48,-80.13783571,25.91274868,0,0,6,N,0.7169663,56,56,11,5,5,195.628,0,9999.99,3.28,3.406384,2,9,29.4,0,29.39999962,43.26,1552.8798,10/7/22,10:59:41,27.67,64.1,43.26,1.189,8.22,-72.4,-1.1,-2.3,-1851,46.9,2.9,12.4,
25.91277895,-80.13782457,27:07.1,10/7/22,8,0.378,319.79,-7.221393677,1.02,1.7,356.52,1.06,4.15,33.2,0.02,3.57,3.59,95,23,511.8,16.3,-1.4,D,1503.6,17,3.546,2,0.21,128,198.32,-80.13783571,25.91274868,0,0,6,N,0.7169663,57,57,11,5,5,198.4926,0,9999.99,3.54,3.667,2,9,29.4,0,29.39999962,40.6,1550.08944,10/7/22,10:59:42,27.67,60.61,40.6,1.028,8.19,-71,-1.1,3.9,56,46.9,2.95,12.4,
25.91277866,-80.13782508,27:08.1,10/7/22,8,0.396,319.79,-7.221393677,1.02,359,353.76,-1.06,4.55,33.2,0.02,3.45,3.47,95,23,511.8,16.3,-1.4,D,1503.6,17,3.498,2,0.21,128,197.69,-80.13783571,25.91274868,0,0,6,N,0.7169663,51,51,11,5,5,197.8345,0,9999.99,3.44,3.567,0,0,29.4,0,29.39999962,21.33,1529.93119,10/7/22,10:59:44,27.61,34.09,21.33,1.143,8.19,-70.5,49.3,0.2,-2034,46.9,3.28,12.5,
25.91277753,-80.13782715,27:09.1,10/7/22,8,0.594,319.79,-7.221393677,1.02,359.7,354.47,1.79,-12.1,33.3,0.02,3.29,3.31,95,23,511.8,16.3,-1.4,D,1503.6,17,3.32,2,0.27,128,194.95,-80.13783571,25.91274868,0,0,6,N,0.7169663,68,68,11,5,5,195.1463,0,9999.99,3.3,3.429745,2,9,29.4,0,29.39999962,21.33,1529.93119,10/7/22,10:59:44,27.61,34.09,21.33,1.143,8.19,-70.5,49.3,0.2,-2034,46.9,3.28,12.5,
25.9127763,-80.1378287,27:10.1,10/7/22,8,0.038,319.79,-7.221393677,1.02,353.8,348.44,4.78,-5.08,33.3,0,3.43,3.43,95,23,511.8,16.3,-1.4,D,1503.6,17,3.15,2,0.23,128,192.86,-80.13783571,25.91274868,0,0,6,N,0.7169663,84,84,11,5,5,193.0066,0,9999.99,3.46,3.587,2,9,29.4,0,29.39999962,43.04,1552.64895,10/7/22,10:59:45,27.64,63.8,43.04,1.15,8.17,-69.6,-1.9,-7.3,-1458,47,2.91,12.3,
25.91277624,-80.13782824,27:11.1,10/7/22,8,0.15,319.79,-7.221393677,1.02,352,346.61,1.42,-2.26,33.3,0,3.43,3.43,95,22,511.8,16.3,-1.3,D,1538.3,17,3.154,2,0.21,128,193.7,-80.13783571,25.91274868,0,0,6,N,0.7169663,66,66,11,5,5,193.8405,0,9999.99,3.46,3.587,2,9,29.4,0,29.39999962,38.38,1547.76204,10/7/22,10:59:47,27.65,57.68,38.38,1.095,8.2,-71.3,-1.3,-0.9,-2454,47.1,3,12.4,
25.91277493,-80.1378293,27:12.2,10/7/22,8,0.253,319.79,-7.221393677,1.02,351.3,345.89,0.7,-9.5,33.3,0,3.39,3.39,95,22,511.8,16.3,-1.3,D,1538.3,17,2.987,2,0.19,128,192.38,-80.13783571,25.91274868,0,0,6,N,0.7169663,61,61,11,5,5,192.4926,0,9999.99,3.4,3.527,2,9,29.4,0,29.39999962,38.38,1547.76204,10/7/22,10:59:47,27.65,57.68,38.38,1.095,8.2,-71.3,-1.3,-0.9,-2454,47.1,3,12.4,
25.91277451,-80.13782981,27:13.2,10/7/22,8,0.125,319.79,-7.221393677,1.02,350.9,345.48,1.98,-2.94,33.3,0,3.5,3.5,95,22,511.8,16.3,-1.3,D,1538.3,17,2.932,2,0.16,128,191.61,-80.13783571,25.91274868,0,0,6,N,0.7169663,69,69,11,5,5,191.6924,0,9999.99,3.51,3.637,2,9,29.4,0,29.39999962,43.07,1552.68043,10/7/22,10:59:48,27.63,63.85,43.07,1.095,8.21,-71.9,-1.6,-6.4,-2878,47.1,2.92,12.4,
25.91277453,-80.13783114,27:14.2,10/7/22,8,0.212,319.79,-7.221393677,1.02,351.2,345.79,1.85,-4.55,33.3,0,3.42,3.42,95,22,511.7,16.3,-1.3,D,1547.1,17,2.912,2,0.16,128,189.04,-80.13783571,25.91274868,0,0,6,N,0.7169663,68,68,11,5,5,189.1421,0,9999.99,3.44,3.567,2,9,29.4,0,29.39999962,42.91,1552.51255,10/7/22,10:59:50,27.69,63.64,42.91,1.085,8.19,-70.8,-2.4,-1.1,-1704,47,2.91,12.6,
25.91277321,-80.13783026,27:15.2,10/7/22,8,0.165,319.79,-7.221393677,1.02,351.3,345.89,1.02,-6.7,33.3,0,3.4,3.4,95,22,511.7,16.3,-1.3,D,1547.1,17,2.782,2,0.14,128,191.31,-80.13783571,25.91274868,0,0,6,N,0.7169663,63,63,11,5,5,191.3874,0,9999.99,3.42,3.547,2,9,29.4,0,29.39999962,42.91,1552.51255,10/7/22,10:59:50,27.69,63.64,42.91,1.085,8.19,-70.8,-2.4,-1.1,-1704,47,2.91,12.6,
25.91277454,-80.13783198,27:16.2,10/7/22,8,0.115,319.79,-7.221393677,1.02,351.6,346.2,1.28,-2.37,33.3,0,3.4,3.4,95,22,511.7,16.3,-1.3,D,1547.1,17,2.9,2,0.13,128,187.38,-80.13783571,25.91274868,0,0,6,N,0.7169663,65,65,11,5,5,187.4731,0,9999.99,3.41,3.537,2,9,29.4,0,29.39999962,43.37,1552.99523,10/7/22,10:59:51,27.66,64.24,43.37,1.084,8.19,-70.9,-1.3,1.3,-1670,47,2.91,12.5,
25.91277472,-80.13783378,27:17.2,10/7/22,8,0.082,319.79,-7.221393677,1.02,352.3,346.91,1.78,-6.28,33.3,0,3.38,3.38,95,22,511.7,16.3,-1.3,D,1547.1,17,2.903,2,0.12,128,183.82,-80.13783571,25.91274868,0,0,6,N,0.7169663,68,68,11,5,5,183.9043,0,9999.99,3.39,3.517,2,9,29.4,0,29.39999962,42.94,1552.54403,10/7/22,10:59:53,27.69,63.67,42.94,1.093,8.19,-70.8,-2.1,2.1,-4030,47.2,2.92,12.4,
25.91277457,-80.13783274,27:18.2,10/7/22,8,0.247,319.79,-7.221393677,1.02,352.3,346.91,1.5,-4.35,33.3,0,3.44,3.44,95,23,511.9,16.3,-1.4,D,1523,17,2.894,2,0.11,128,185.89,-80.13783571,25.91274868,0,0,6,N,0.7169663,66,66,11,5,5,185.9553,0,9999.99,3.46,3.587,2,9,29.4,0,29.39999962,42.94,1552.54403,10/7/22,10:59:53,27.69,63.67,42.94,1.093,8.19,-70.8,-2.1,2.1,-4030,47.2,2.92,12.4,
25.91277409,-80.13783191,27:19.2,10/7/22,8,0.183,319.79,-7.221393677,1.02,353.7,348.34,1.29,-3.27,33.3,0,3.44,3.44,95,23,511.9,16.3,-1.4,D,1523,17,2.851,2,0.11,128,187.66,-80.13783571,25.91274868,0,0,6,N,0.7169663,65,65,11,5,5,187.7322,0,9999.99,3.46,3.587,2,9,29.4,0,29.39999962,42.99,1552.59649,10/7/22,10:59:54,27.69,63.74,42.99,1.079,8.19,-70.8,-1.9,-0.6,-990,47.3,2.93,12.4,
25.91277358,-80.13783119,27:20.2,10/7/22,8,0.097,319.79,-7.221393677,1.02,353.8,348.44,1.51,-7.32,33.3,0,3.27,3.27,95,23,511.9,16.3,-1.4,D,1523,17,2.805,2,0.1,128,189.27,-80.13783571,25.91274868,0,0,6,N,0.7169663,66,66,11,5,5,189.3142,0,9999.99,3.28,3.407,2,9,29.4,0,29.39999962,42.87,1552.47058,10/7/22,10:59:56,27.68,63.58,42.87,1.088,8.19,-71,-1.5,-0.5,-1088,47.3,2.93,12.3,
25.91277326,-80.13783134,27:21.2,10/7/22,8,0.063,319.79,-7.221393677,1.02,355.1,349.77,1.51,-4.1,33.3,0,3.28,3.28,95,22,511.9,16.3,-1.3,D,1559.5,17,2.768,2,0.09,128,189.09,-80.13783571,25.91274868,0,0,6,N,0.7169663,66,66,11,5,5,189.1335,0,9999.99,3.29,3.417,2,9,29.4,0,29.39999962,42.87,1552.47058,10/7/22,10:59:56,27.68,63.58,42.87,1.088,8.19,-71,-1.5,-0.5,-1088,47.3,2.93,12.3,
25.91277295,-80.13783165,27:22.2,10/7/22,8,0.081,319.79,-7.221393677,1.02,356.7,351.41,1.48,-4.49,33.3,0,3.26,3.26,95,22,511.9,16.3,-1.3,D,1559.5,17,2.73,2,0.08,128,188.55,-80.13783571,25.91274868,0,0,6,N,0.7169663,66,66,11,5,5,188.5935,0,9999.99,3.27,3.397,2,9,29.4,0,29.39999962,42.82,1552.41811,10/7/22,10:59:57,27.71,63.53,42.82,1.094,8.23,-73.3,-2.3,-4.7,-2358,47.3,2.93,12.3,
25.91277262,-80.1378318,27:23.3,10/7/22,8,0.089,319.79,-7.221393677,1.02,358.5,353.25,1.23,-5.73,33.3,0,3.26,3.26,95,22,511.9,16.3,-1.3,D,1559.5,17,2.69,2,0.08,128,188.35,-80.13783571,25.91274868,0,0,6,N,0.7169663,64,64,11,5,5,188.3879,0,9999.99,3.27,3.397,2,9,29.4,0,29.39999962,42.78,1552.37615,10/7/22,10:59:59,27.66,63.47,42.78,1.117,8.22,-72.8,-2.4,-4,-3064,47.5,2.95,12.4,
25.91277213,-80.13783179,27:24.2,10/7/22,8,0.127,319.79,-7.221393677,1.02,358.8,353.55,1.48,-3.72,33.3,0,3.25,3.25,95,22,511.9,16.3,-1.3,D,1559.5,17,2.638,2,0.07,128,188.55,-80.13783571,25.91274868,0,0,6,N,0.7169663,66,66,11,5,5,188.5794,0,9999.99,3.26,3.387,2,9,29.4,0,29.39999962,42.78,1552.37615,10/7/22,10:59:59,27.66,63.47,42.78,1.117,8.22,-72.8,-2.4,-4,-3064,47.5,2.95,12.4,
25.91277163,-80.13783195,27:25.3,10/7/22,8,0.116,319.79,-7.221393677,1.02,0.1,354.88,1.37,-5.45,33.3,0,3.25,3.25,95,22,511.8,16.3,-1.3,D,1552.6,17,2.579,2,0.07,128,188.38,-80.13783571,25.91274868,0,0,6,N,0.7169663,65,65,11,5,5,188.4142,0,9999.99,3.26,3.387,2,9,29.4,0,29.39999962,42.69,1552.28172,10/7/22,11:00:00,27.69,63.36,42.69,1.083,8.22,-72.4,-2,-4.6,-2028,47.5,2.95,12.4,
25.9127713,-80.13783227,27:26.2,10/7/22,8,0.143,319.79,-7.221393677,1.02,0.4,355.19,1.11,-5.33,33.3,0,3.25,3.25,95,22,511.8,16.3,-1.3,D,1552.6,17,2.539,2,0.07,128,187.79,-80.13783571,25.91274868,0,0,6,N,0.7169663,64,64,11,5,5,187.8133,0,9999.99,3.26,3.387,2,9,29.4,0,29.39999962,42.75,1552.34467,10/7/22,11:00:02,27.68,63.43,42.75,1.09,8.21,-71.7,-2.9,-1.9,-2062,47.6,2.95,12.4,
25.91277111,-80.13783262,27:27.2,10/7/22,8,0.092,319.79,-7.221393677,1.02,0.8,355.6,1.43,-4.28,33.3,0,3.24,3.24,95,22,511.8,16.3,-1.3,D,1552.6,17,2.512,2,0.07,128,187.07,-80.13783571,25.91274868,0,0,6,N,0.7169663,66,66,11,5,5,187.1004,0,9999.99,3.25,3.377,2,9,29.4,0,29.39999962,42.75,1552.34467,10/7/22,11:00:02,27.68,63.43,42.75,1.09,8.21,-71.7,-2.9,-1.9,-2062,47.6,2.95,12.4,
25.91277076,-80.13783276,27:28.2,10/7/22,8,0.171,319.79,-7.221393677,1.02,1.8,356.62,1.59,-6.2,33.3,0,3.25,3.25,95,22,511.8,16.3,-1.3,D,1556,17,2.472,2,0.07,128,186.85,-80.13783571,25.91274868,0,0,6,N,0.7169663,67,67,11,5,5,186.8701,0,9999.99,3.26,3.387,2,9,29.4,0,29.39999962,42.7,1552.29221,10/7/22,11:00:03,27.67,63.37,42.7,1.076,8.2,-71.6,-2.2,-5,-2014,47.7,2.96,12.3,
25.91277076,-80.13783292,27:29.3,10/7/22,8,0.09,319.79,-7.221393677,1.02,2.2,357.03,1.28,-4.95,33.4,0,3.25,3.25,95,22,511.8,16.3,-1.3,D,1556,17,2.472,2,0.07,128,186.48,-80.13783571,25.91274868,0,0,6,N,0.7169663,65,65,11,5,5,186.4963,0,9999.99,3.26,3.387,2,9,29.4,0,29.39999962,42.51,1552.09286,10/7/22,11:00:05,27.72,63.12,42.51,1.079,8.2,-71.3,-2.2,-1.7,-4398,47.7,2.96,12.4,
25.9127706,-80.13783325,27:30.2,10/7/22,8,0.03,319.79,-7.221393677,1.02,2.9,357.75,1.25,-5.07,33.4,0,3.24,3.24,95,22,511.8,16.3,-1.3,D,1556,17,2.45,2,0.07,128,185.77,-80.13783571,25.91274868,0,0,6,N,0.7169663,65,65,11,5,5,185.7907,0,9999.99,3.25,3.377,2,9,29.4,0,29.39999962,42.51,1552.09286,10/7/22,11:00:05,27.72,63.12,42.51,1.079,8.2,-71.3,-2.2,-1.7,-4398,47.7,2.96,12.4,
25.91277029,-80.13783323,27:31.3,10/7/22,8,0.068,319.79,-7.221393677,1.02,3.1,357.95,1.5,-6.41,33.4,0,3.23,3.23,95,22,511.8,16.3,-1.3,D,1556,17,2.415,2,0.07,128,185.89,-80.13783571,25.91274868,0,0,6,N,0.7169663,66,66,11,5,5,185.9006,0,9999.99,3.24,3.367,2,9,29.4,0,29.39999962,42.7,1552.29221,10/7/22,11:00:06,27.72,63.36,42.7,1.068,8.2,-71.4,-2.4,2.4,-2231,47.7,2.96,12.4,
25.91277013,-80.13783341,27:32.2,10/7/22,8,0.051,319.79,-7.221393677,1.02,4.4,359.28,1.33,-4.27,33.4,0,3.24,3.24,95,22,511.8,16.3,-1.3,D,1558.2,17,2.396,2,0.07,128,185.52,-80.13783571,25.91274868,0,0,6,N,0.7169663,65,65,11,5,5,185.5356,0,9999.99,3.25,3.377,0,0,29.4,0,29.39999962,42.54,1552.12434,10/7/22,11:00:08,27.67,63.15,42.54,1.075,8.23,-73.1,-2.4,-0.7,-2254,47.7,2.96,12.6,
25.91276992,-80.13783361,27:33.2,10/7/22,8,0.151,319.79,-7.221393677,1.02,5.1,360,1.28,-4.7,33.4,0,3.2,3.2,95,22,511.8,16.3,-1.3,D,1558.2,17,2.371,2,0.08,128,185.08,-80.13783571,25.91274868,0,0,6,N,0.7169663,66,66,11,5,5,185.1121,0,9999.99,3.21,3.337,0,0,29.4,0,29.39999962,42.54,1552.12434,10/7/22,11:00:08,27.67,63.15,42.54,1.075,8.23,-73.1,-2.4,-0.7,-2254,47.7,2.96,12.6,
25.91276977,-80.13783373,27:34.2,10/7/22,8,0.049,319.79,-7.221393677,1.02,5.9,0.82,1.2,-6.04,33.4,0,3.21,3.21,95,22,511.8,16.3,-1.3,D,1558.2,17,2.354,2,0.08,128,184.83,-80.13783571,25.91274868,0,0,6,N,0.7169663,64,64,11,5,5,184.8467,0,9999.99,3.22,3.347,2,9,29.4,0,29.39999962,42.29,1551.86206,10/7/22,11:00:09,27.69,62.83,42.29,1.092,8.19,-70.8,-2.1,-5.2,-3026,47.7,2.96,12.3,
25.91276944,-80.13783371,27:35.2,10/7/22,8,0.152,319.79,-7.221393677,1.02,6.4,1.33,1.45,-4.46,33.4,0,3.16,3.16,95,22,511.8,16.3,-1.3,D,1558.2,17,2.316,2,0.08,128,184.95,-80.13783571,25.91274868,0,0,6,N,0.7169663,66,66,11,5,5,184.9563,0,9999.99,3.17,3.297,2,9,29.4,0,29.39999962,42.2,1551.76764,10/7/22,11:00:11,27.71,62.71,42.2,1.082,8.19,-71.1,-2.7,-1.8,407,47.6,2.96,12.6,
25.91276927,-80.13783372,27:36.3,10/7/22,8,0.072,319.79,-7.221393677,1.02,7,1.94,1.47,-4.87,33.3,0,3.15,3.15,95,22,511.7,16.3,-1.3,D,1546.8,17,2.296,2,0.08,128,184.97,-80.13783571,25.91274868,0,0,6,N,0.7169663,67,67,11,5,5,184.9843,0,9999.99,3.16,3.287,2,9,29.4,0,29.39999962,42.2,1551.76764,10/7/22,11:00:11,27.71,62.71,42.2,1.082,8.19,-71.1,-2.7,-1.8,407,47.6,2.96,12.6,
25.91276894,-80.13783354,27:37.2,10/7/22,8,0.125,319.79,-7.221393677,1.02,7,1.94,1.25,-5.88,33.3,0,3.16,3.16,95,22,511.7,16.3,-1.3,D,1546.8,17,2.263,2,0.08,128,185.51,-80.13783571,25.91274868,0,0,6,N,0.7169663,65,65,11,5,5,185.5133,0,9999.99,3.17,3.297,2,9,29.4,0,29.39999962,42.37,1551.94598,10/7/22,11:00:12,27.69,62.94,42.37,1.093,8.19,-71.1,-2,-2.8,-3614,47.6,2.96,12.4,
25.91276877,-80.13783337,27:38.3,10/7/22,8,0.088,319.79,-7.221393677,1.02,7.5,2.45,1.14,-4.84,33.3,0,3.15,3.15,95,22,511.7,16.3,-1.3,D,1546.8,17,2.247,2,0.07,128,185.99,-80.13783571,25.91274868,0,0,6,N,0.7169663,64,64,11,5,5,185.9931,0,9999.99,3.16,3.287,2,9,29.4,0,29.39999962,42.39,1551.96697,10/7/22,11:00:14,27.7,62.96,42.39,1.101,8.22,-72.5,-1.3,2.4,-1588,47.5,2.95,12.4,
25.9127686,-80.13783353,27:39.2,10/7/22,8,0.11,319.79,-7.221393677,1.02,8.6,3.58,1.51,-5.36,33.3,0.02,3.12,3.14,95,22,511.7,16.3,-1.3,D,1546.7,17,2.226,2,0.08,128,185.63,-80.13783571,25.91274868,0,0,6,N,0.7169663,66,66,11,5,5,185.6318,0,9999.99,3.13,3.257,2,9,29.4,0,29.39999962,42.39,1551.96697,10/7/22,11:00:14,27.7,62.96,42.39,1.101,8.22,-72.5,-1.3,2.4,-1588,47.5,2.95,12.4,
25.91276844,-80.13783385,27:40.3,10/7/22,8,0.133,319.79,-7.221393677,1.02,9.1,4.09,1.4,-5.23,33.4,0,3.13,3.13,95,22,511.7,16.3,-1.3,D,1546.7,17,2.204,2,0.07,128,184.84,-80.13783571,25.91274868,0,0,6,N,0.7169663,65,65,11,5,5,184.839,0,9999.99,3.14,3.267,2,9,29.4,0,29.39999962,42.29,1551.86389,10/7/22,11:00:15,27.72,62.83,42.29,1.097,8.23,-73.4,-3.3,0.2,-3080,47.5,2.95,12.4,
25.9127681,-80.13783384,27:41.2,10/7/22,8,0.113,319.79,-7.221393677,1.02,9.8,4.81,1.18,-4.92,33.3,0,3.11,3.11,95,22,511.7,16.3,-1.3,D,1546.7,17,2.169,2,0.07,128,184.94,-80.13783571,25.91274868,0,0,6,N,0.7169663,64,64,11,5,5,184.9339,0,9999.99,3.12,3.247,2,9,29.4,0,29.39999962,42.27,1551.84107,10/7/22,11:00:17,27.71,62.8,42.27,1.107,8.22,-72.5,-2.2,-3.2,-2510,47.6,2.96,12.3,
