Latitude,Longitude,Time,Date,Number of Sats,GPS Speed (Kn),GPS True Heading,GPS Magnetic Variation,HDOP,C Magnetic Heading,C True Heading,Pitch Angle,Roll Angle,C Inside Temp (c),DFS Depth (m),DTB Height (m),Total Water Column (m),Batt Percent,Power Watts,Watt-Hours,Batt Volts,Batt Ampers,Batt State,Time to Empty,Current Step,Dist To Next (m),Next Speed (kn),Vehicle Speed (kn),Motor Speed CMD,Next Heading,Next Long,Next Lat,Next Depth (m),Depth Goal (m),Vehicle State,Error State,Distance to Track (m),Fin Pitch R,Fin Pitch L,Pitch Goal,Fin Yaw T,Fin Yaw B,Yaw Goal,Fin Roll,DVL-Depth (m),DVL -Altitude (m),DVL -Water Column (m),DVL-FixType,DVL-FixQuality,DVL-Temperature,Conductivity (mmhos/cm),Temperature (c),Salinity (ppt),Sound Speed (m/s),Date m/d/y   ,Time hh:mm:ss,Temp C,SpCond mS/cm,Sal ppt,Depth feet,pH,pH mV,Turbid+ NTU,Chl ug/L,BGA-PC cells/mL,ODOsat %,ODO mg/L,Battery volts,ROSEM Command Type
25.91277083,-80.13789933,23:43.4,10/7/22,6,0.427,270.12,-7.221283826,1.43,277.8,271.26,0.06,-1.71,31.1,0.04,1.6,1.64,95,22,513.3,16.3,-1.3,D,1557,0,7.729,2,0,128,103.47,-80.13782418,25.91275464,0,0,1,N,1.709441,57,57,11,193,193,287.8358,0,9999.99,1.6,1.727,2,9,32.5,0,32.59999847,16.84,1532.03911,10/7/22,10:56:19,28.14,27.53,16.84,1.117,8.29,-76.7,2.8,-3,-871,93.2,6.63,12.4,
25.91277,-80.13789683,23:44.5,10/7/22,6,0.607,270.12,-7.221283826,1.43,277.3,270.74,2.09,-5.57,31.1,0.02,2.18,2.2,95,22,513.3,16.3,-1.3,D,1557,0,7.464,2,0,128,103.23,-80.13782418,25.91275464,0,0,1,N,1.709441,70,70,11,195,195,288.2751,0,9999.99,2.2,2.327,0,0,32.4,0,32.40000153,51.16,1566.86481,10/7/22,10:56:20,28.2,74.21,51.16,1.144,8.23,-73.5,-2.1,-0.6,-1529,91.7,5.38,12.5,
25.91277098,-80.13789087,23:45.5,10/7/22,6,0.421,270.12,-7.221283826,1.43,272.9,266.22,-0.71,2.95,31.1,0.01,2.31,2.32,95,22,513.3,16.3,-1.3,D,1557,1,22.375,2,0.26,174,137.09,-80.13773856,25.9126236,0,0,1,N,4.840483,53,53,11,5,5,129.3145,0,9999.99,2.29,2.417,0,0,32.3,0,32.29999924,51.7,1567.23994,10/7/22,10:56:21,28.18,74.89,51.7,1.1,8.23,-73.4,-2.3,-4.8,-3093,90.2,5.28,12.3,
25.91276962,-80.13788976,23:46.5,10/7/22,6,0.271,270.12,-7.221283826,1.43,263.7,256.7,1.38,5.68,31.1,0,2.4,2.41,95,28,513.3,16.3,-1.7,D,1228.6,1,22.188,2,0.42,174,137.03,-80.13773856,25.9126236,0,0,1,N,4.79929,60,60,11,5,5,129.2233,0,9999.99,2.4,2.527,2,9,32.3,0,32.29999924,51.11,1566.63073,10/7/22,10:56:22,28.13,74.15,51.11,1.048,8.23,-73.1,-3.1,-2.4,-1209,89,5.23,12.4,
25.91276741,-80.13789291,23:47.5,10/7/22,6,0.667,270.12,-7.221283826,1.43,259,251.81,1.42,-2.58,31.1,0.02,2.32,2.34,95,28,513.3,16.3,-1.7,D,1228.6,1,22.227,2,0.36,174,136.01,-80.13773856,25.9126236,0,0,1,N,5.193679,66,66,11,5,5,127.6027,0,9999.99,2.34,2.467,0,0,32.2,0,32.20000076,53.19,1568.59732,10/7/22,10:56:23,28.09,76.75,53.19,1.065,8.22,-72.8,-2.4,1.2,-3049,87.7,5.1,12.4,
25.91276655,-80.13789701,23:48.5,10/7/22,6,0.955,270.12,-7.221283826,1.43,254.7,247.32,2.57,0.52,31.1,0.03,2.22,2.24,95,28,513.3,16.3,-1.7,D,1228.6,1,22.446,2,0.57,174,135.09,-80.13773856,25.9126236,0,0,1,N,5.573458,72,72,11,5,5,126.3557,0,9999.99,2.24,2.367,2,9,32.1,0,32.09999847,54,1569.25553,10/7/22,10:56:25,28.04,77.76,54,1.118,8.21,-71.8,-2.6,-7.4,-3453,85.4,4.95,12.3,
25.91276355,-80.13790336,23:49.5,10/7/22,6,1.071,270.12,-7.221283826,1.43,250.9,243.35,1.17,0.81,31.2,0.01,2.22,2.23,95,40,513.3,16.3,-2.4,D,861.9,1,22.668,2,0.76,174,133.36,-80.13773856,25.9126236,0,0,1,N,6.276185,64,64,11,5,5,123.8499,0,9999.99,2.23,2.357,2,9,32,0,32,54.14,1569.21783,10/7/22,10:56:26,27.91,77.93,54.14,1.18,8.2,-71.6,-3.1,-1.4,-48,84.2,4.88,12.4,
25.91276062,-80.13791161,23:50.5,10/7/22,6,1.404,270.12,-7.221283826,1.43,244.6,236.74,1.35,0.6,31.2,0,2.1,2.1,95,40,513.3,16.3,-2.4,D,861.9,1,23.059,2,1.09,174,131.36,-80.13773856,25.9126236,0,0,1,N,7.140285,67,67,11,5,5,121.0938,0,9999.99,2.11,2.237,2,9,31.9,0,32,54.14,1569.21783,10/7/22,10:56:26,27.91,77.93,54.14,1.18,8.2,-71.6,-3.1,-1.4,-48,84.2,4.88,12.4,
25.91275986,-80.13791993,23:51.5,10/7/22,6,1.799,256.23,-7.221283826,1.43,237,228.74,2.04,3.03,31.2,0,1.73,1.74,95,40,513.3,16.3,-2.4,D,861.9,1,23.635,2,1.35,174,129.87,-80.13773856,25.9126236,0,0,1,N,7.887243,67,67,11,5,5,119.3366,0,9999.99,1.75,1.877,2,9,31.8,0,31.79999924,55.19,1569.94126,10/7/22,10:56:27,27.81,79.21,55.19,1.124,8.2,-71.6,-3.1,-2.5,-2546,83,4.79,12.4,
25.91275402,-80.13792664,23:52.5,10/7/22,6,1.19,256.23,-7.221283826,1.43,226.8,217.99,2.78,2.5,31.2,0,1.45,1.45,95,40,513.3,16.3,-2.4,D,861.9,1,23.753,2,2.05,174,127.63,-80.13773856,25.9126236,0,0,1,N,8.738552,74,74,11,5,5,116.2874,0,9999.99,1.47,1.597,2,9,31.7,0,31.70000076,55.38,1569.95621,10/7/22,10:56:28,27.79,79.46,55.38,1.111,8.21,-71.8,-3.4,-2.8,-777,81.6,4.71,12.4,
25.91274902,-80.13793031,23:53.5,10/7/22,6,0.997,256.23,-7.221283826,1.43,217,207.68,2.98,2.13,31.2,0.01,1.32,1.33,95,38,513.3,16.3,-2.3,D,898.4,1,23.713,2,1.93,174,126.02,-80.13773856,25.9126236,0,0,1,N,9.347234,75,75,11,5,5,113.9115,0,9999.99,1.35,1.477,2,9,31.6,0,31.60000038,55.58,1569.98198,10/7/22,10:56:29,27.78,79.7,55.58,1.097,8.21,-72,-2.4,-5.6,-3363,80.4,4.63,12.3,
25.91274403,-80.13793542,23:54.6,10/7/22,6,2.279,241.36,-7.221283826,1.43,207.5,197.74,3.36,1.96,31.2,0,1.24,1.24,95,38,513.3,16.3,-2.3,D,898.4,1,23.811,2,1.62,174,124.22,-80.13773856,25.9126236,0,0,1,N,10.11458,77,77,11,5,5,111.3146,0,9999.99,1.27,1.397,2,9,31.5,0,31.5,54.86,1569.05188,10/7/22,10:56:31,27.71,78.81,54.86,1.092,8.21,-71.9,-2.7,-4.9,-2969,77.8,4.51,12.4,
25.91273813,-80.13794004,23:55.6,10/7/22,6,1.951,233.97,-7.221283826,1.43,197.6,187.49,3.43,2.55,31.2,0,1.18,1.18,95,38,513.3,16.3,-2.3,D,898.4,1,23.838,2,1.65,174,122.29,-80.13773856,25.9126236,0,0,1,N,10.84808,78,78,11,5,5,108.6509,0,9999.99,1.21,1.337,2,9,31.4,0,31.5,54.86,1569.05188,10/7/22,10:56:31,27.71,78.81,54.86,1.092,8.21,-71.9,-2.7,-4.9,-2969,77.8,4.51,12.4,
25.91273143,-80.13794047,23:56.6,10/7/22,6,1.293,233.97,-7.221283826,1.43,185.9,175.54,3.66,2.54,31.3,0,1.16,1.16,95,38,513.3,16.3,-2.3,D,898.4,1,23.486,2,1.68,174,120.7,-80.13773856,25.9126236,0,0,1,N,11.28798,79,79,11,5,5,106.081,0,9999.99,1.19,1.317,2,9,31.3,0,31.29999924,55.25,1569.08887,10/7/22,10:56:32,27.69,79.29,55.25,1.109,8.21,-71.8,-2.6,-2.7,-1781,76.9,4.45,12.4,
25.91272898,-80.13794403,23:57.6,10/7/22,6,0.521,233.97,-7.221283826,1.43,177.3,166.9,3.12,2.95,31.3,0,1.04,1.04,95,38,513.3,16.3,-2.3,D,911,1,23.656,2,1.61,175,119.69,-80.13773856,25.9126236,0,0,1,N,11.75345,77,77,11,5,5,104.7602,0,9999.99,1.07,1.197,2,9,31.3,0,31.29999924,55.31,1569.15118,10/7/22,10:56:34,27.57,79.35,55.31,1.088,8.22,-72.8,-3.8,0.5,-2771,74.7,4.33,12.4,
25.91272146,-80.13794571,23:58.6,10/7/22,6,1.501,233.97,-7.221283826,1.43,167.3,157.03,3.47,2.81,31.4,0,0.85,0.85,95,38,513.3,16.3,-2.3,D,911,1,23.403,2,1.59,175,117.71,-80.13773856,25.9126236,0,0,1,N,12.34018,78,78,11,5,5,101.7522,0,9999.99,0.88,1.007,2,9,31.2,0,31.29999924,55.31,1569.15118,10/7/22,10:56:34,27.57,79.35,55.31,1.088,8.22,-72.8,-3.8,0.5,-2771,74.7,4.33,12.4,
25.91271627,-80.13794047,23:59.6,10/7/22,6,1.672,233.97,-7.221283826,1.43,155.6,145.7,3.68,3.21,31.3,0,0.7,0.7,95,38,513.3,16.3,-2.3,D,911,1,22.672,2,1.56,176,117.03,-80.13773856,25.9126236,0,0,1,N,12.20224,79,79,11,5,5,100.0281,0,9999.99,0.73,0.857,2,9,31.1,0,31.10000038,55.24,1568.70866,10/7/22,10:56:35,27.52,79.27,55.24,1.089,8.21,-71.8,-2.3,-3.5,-887,73.6,4.27,12.4,
25.91271137,-80.13793952,24:00.6,10/7/22,6,1.651,233.97,-7.221283826,1.43,145.5,136.1,3.38,3.36,31.4,0,0.63,0.63,95,40,513.2,16.3,-2.4,D,869.1,1,22.343,2,1.62,176,115.9,-80.13773856,25.9126236,0,0,1,N,12.4143,77,77,11,5,5,98.05721,0,9999.99,0.66,0.787,2,9,31.1,0,31.10000038,55.3,1568.771,10/7/22,10:56:37,27.45,79.34,55.3,1.103,8.19,-70.7,-3.8,-0.3,-963,71.7,4.16,12.3,
25.912707,-80.13793034,24:01.6,10/7/22,6,1.628,233.97,-7.221283826,1.43,135.5,126.73,3.95,3.76,31.4,0,0.61,0.61,95,40,513.2,16.3,-2.4,D,869.1,1,21.306,2,1.51,177,115.8,-80.13773856,25.9126236,0,0,1,N,11.87968,81,81,11,6,6,96.48345,0,9999.99,0.64,0.767,2,9,31,0,31.10000038,55.3,1568.771,10/7/22,10:56:37,27.45,79.34,55.3,1.103,8.19,-70.7,-3.8,-0.3,-963,71.7,4.16,12.3,
25.91270049,-80.13792789,24:02.6,10/7/22,6,1.458,233.97,-7.221283826,1.43,124.5,116.52,3.77,3.81,31.4,0,0.63,0.63,95,40,513.2,16.3,-2.4,D,869.1,1,20.777,2,1.54,178,114.3,-80.13773856,25.9126236,0,0,1,N,12.05711,80,80,11,35,35,93.61413,0,9999.99,0.66,0.787,2,9,30.9,0,30.89999962,55.54,1568.64898,10/7/22,10:56:38,27.42,79.63,55.54,1.072,8.18,-70.2,-2.8,0.4,-806,70.5,4.09,12.5,
25.91269944,-80.13792067,24:03.6,10/7/22,6,1.054,233.97,-7.221283826,1.43,117,109.58,3.45,6.59,31.4,0,0.66,0.67,95,40,513.2,16.3,-2.4,D,869.1,1,20.071,2,1.6,178,114.84,-80.13773856,25.9126236,0,0,1,N,11.50944,78,78,11,66,66,94.35392,0,9999.99,0.7,0.827,2,9,30.9,0,30.89999962,55.21,1568.3051,10/7/22,10:56:40,27.42,79.23,55.21,1.091,8.16,-69.2,-1.8,-0.8,-2194,68.4,3.97,12.5,
25.91269831,-80.13791135,24:04.6,10/7/22,6,0.997,233.97,-7.221283826,1.43,109.7,102.82,3.85,8.9,31.4,0,0.76,0.76,95,42,513.2,16.3,-2.6,D,814.1,1,19.175,2,1.82,179,115.68,-80.13773856,25.9126236,0,0,1,N,10.76682,80,80,11,100,100,96.16235,0,9999.99,0.79,0.917,2,9,30.8,0,30.89999962,55.21,1568.3051,10/7/22,10:56:40,27.42,79.23,55.21,1.091,8.16,-69.2,-1.8,-0.8,-2194,68.4,3.97,12.5,
25.91269062,-80.13790817,24:05.7,10/7/22,6,1.751,233.97,-7.221283826,1.43,105.8,99.21,2.61,8.3,31.5,0,0.89,0.9,95,42,513.2,16.3,-2.6,D,814.1,1,18.529,2,1.9,179,113.71,-80.13773856,25.9126236,0,0,1,N,10.92647,73,73,11,110,110,95.7714,0,9999.99,0.92,1.050337,2,9,30.8,0,30.79999924,55.08,1567.98258,10/7/22,10:56:41,27.43,79.07,55.08,1.093,8.16,-68.9,-3.2,-0.4,-2871,67.3,3.91,12.3,
25.91268895,-80.13790236,24:06.7,10/7/22,6,2.016,233.97,-7.221283826,1.43,103.7,97.26,2.13,8.6,31.5,0,1.07,1.07,95,42,513.2,16.3,-2.6,D,814.1,1,17.922,2,1.9,179,113.92,-80.13773856,25.9126236,0,0,1,N,10.53668,70,70,11,124,124,96.7649,0,9999.99,1.09,1.217,2,9,30.7,0,30.70000076,55.5,1568.23292,10/7/22,10:56:43,27.39,79.59,55.5,1.118,8.18,-69.9,-2.3,-3.4,-507,64.7,3.76,12.4,
25.91268139,-80.13788547,24:07.7,10/7/22,6,1.638,233.97,-7.221283826,1.43,103.5,97.07,1.16,8.4,31.5,0,1.32,1.32,95,43,513.2,16.3,-2.6,D,803.3,1,16.037,2,1.84,179,113.62,-80.13773856,25.9126236,0,0,1,N,9.506612,64,64,11,137,137,99.63787,0,9999.99,1.33,1.457,2,9,30.7,0,30.70000076,55.5,1568.23292,10/7/22,10:56:43,27.39,79.59,55.5,1.118,8.18,-69.9,-2.3,-3.4,-507,64.7,3.76,12.4,
25.91267889,-80.13786591,24:08.7,10/7/22,6,1.581,233.97,-7.221283826,1.43,103.6,97.16,1.64,8.5,31.5,0,1.6,1.6,95,43,513.2,16.3,-2.6,D,803.3,1,14.143,2,1.96,179,115.76,-80.13773856,25.9126236,0,0,1,N,7.955283,66,66,11,156,156,104.7181,0,9999.99,1.62,1.747,2,9,30.6,0,30.60000038,55.76,1568.31644,10/7/22,10:56:44,27.41,79.9,55.76,1.114,8.21,-71.9,-2.8,-0.3,1598,63.6,3.69,12.4,
25.91267144,-80.13785471,24:09.7,10/7/22,6,1.391,233.97,-7.221283826,1.43,104.4,97.91,2.45,8.7,31.5,0,1.98,1.98,95,43,513.2,16.3,-2.6,D,803.3,1,12.777,2,1.91,179,114.6,-80.13773856,25.9126236,0,0,1,N,7.415194,71,71,11,163,163,106.73,0,9999.99,2,2.127,2,9,30.6,0,30.60000038,55.41,1567.95097,10/7/22,10:56:46,27.53,79.48,55.41,1.116,8.2,-71,-3.3,0.7,-1424,61.6,3.57,12.6,
25.91266701,-80.13784553,24:10.7,10/7/22,6,1.966,163.4,-7.221283826,1.43,106.9,100.23,2.49,6.47,31.5,0,2.34,2.34,95,43,513.2,16.3,-2.6,D,803.3,1,11.738,2,1.84,179,114.28,-80.13773856,25.9126236,0,0,1,N,6.866531,72,72,11,162,162,108.9179,0,9999.99,2.36,2.487,2,9,30.6,0,30.60000038,55.41,1567.95097,10/7/22,10:56:46,27.53,79.48,55.41,1.116,8.2,-71,-3.3,0.7,-1424,61.6,3.57,12.6,
25.91266486,-80.1378349,24:11.7,10/7/22,6,1.973,132.38,-7.221283826,1.43,109.1,102.27,3.08,6.51,31.5,0,2.67,2.67,95,43,513.2,16.3,-2.6,D,809,1,10.672,2,1.8,179,115.46,-80.13773856,25.9126236,0,0,1,N,6.047646,75,75,11,168,168,112.4692,0,9999.99,2.69,2.817,0,0,30.5,0,30.5,54.99,1567.32361,10/7/22,10:56:47,27.56,78.96,54.99,1.109,8.2,-71.2,-3.3,-4.5,-450,60.5,3.51,12.4,
25.91266203,-80.13782418,24:12.7,10/7/22,6,1.895,117.75,-7.221283826,1.43,112.1,105.05,3.35,5.62,31.5,0,2.84,2.84,95,43,513.2,16.3,-2.6,D,807.4,1,9.571,2,1.87,179,116.52,-80.13773856,25.9126236,0,0,1,N,5.27983,75,75,11,172,172,116.134,0,9999.99,2.86,2.987,0,0,30.5,0,30.5,54.96,1567.29249,10/7/22,10:56:49,27.62,78.92,54.96,1.075,8.19,-70.9,-2.1,-8.2,-1575,59,3.42,12.4,
25.91265958,-80.13781253,24:13.7,10/7/22,6,1.994,110.95,-7.221283826,1.43,116.4,109.02,3.01,5.9,31.5,0,2.89,2.89,95,42,513.2,16.3,-2.6,D,817.9,1,8.411,2,1.97,179,118.41,-80.13773856,25.9126236,0,0,1,N,4.423857,75,75,11,173,173,120.6158,0,9999.99,2.92,3.047,2,9,30.5,0,30.5,54.96,1567.29249,10/7/22,10:56:49,27.62,78.92,54.96,1.075,8.19,-70.9,-2.1,-8.2,-1575,59,3.42,12.4,
25.91265883,-80.13779825,24:14.7,10/7/22,6,2.163,107.75,-7.221283826,1.43,121.2,113.46,3.23,5.14,31.6,0,2.97,2.97,95,42,513.2,16.3,-2.6,D,817.9,1,7.14,2,1.99,179,123.27,-80.13773856,25.9126236,0,0,1,N,3.23105,76,76,11,183,183,127.5652,0,9999.99,3,3.127,2,9,30.5,0,30.5,54.65,1566.96866,10/7/22,10:56:50,27.68,78.54,54.65,1.094,8.19,-71,-2.6,-1.5,-3189,58.3,3.38,12.4,
25.91265271,-80.13779161,24:15.7,10/7/22,6,2.01,111.21,-7.221283826,1.43,127.9,119.67,3.09,3.77,31.6,0,2.97,2.97,95,42,513.2,16.3,-2.6,D,817.9,1,6.215,2,1.98,179,121.39,-80.13773856,25.9126236,0,0,1,N,2.984713,76,76,11,165,165,129.0971,0,9999.99,3,3.127,2,9,30.4,0,30.39999962,54.02,1566.12037,10/7/22,10:56:52,27.73,77.76,54.02,1.096,8.2,-71.5,-1.7,-1.1,-1531,56.9,3.31,12.4,
25.91264751,-80.13778443,24:16.7,10/7/22,6,1.964,116.22,-7.221283826,1.43,132.2,123.66,4.01,3.55,31.6,0,3.11,3.11,95,43,513.1,16.3,-2.6,D,809.2,2,21.951,2,1.97,179,136.44,-80.13763318,25.91250447,0,0,1,N,1.967952,81,81,11,165,165,133.0342,0,9999.99,3.14,3.267,2,9,30.4,0,30.39999962,53.79,1565.88006,10/7/22,10:56:53,27.76,77.48,53.79,1.085,8.21,-71.9,-2.7,-3.6,-5894,56.5,3.29,12.3,
25.91264071,-80.13777777,24:17.7,10/7/22,6,2.031,120.48,-7.221283826,1.43,136.6,127.76,3.84,3.93,31.6,0.01,3.23,3.23,95,43,513.1,16.3,-2.6,D,809.2,2,20.943,2,1.97,179,136.33,-80.13763318,25.91250447,0,0,1,N,1.908316,80,80,11,146,146,132.6061,0,9999.99,3.26,3.387,2,9,30.4,0,30.39999962,53.79,1565.88006,10/7/22,10:56:53,27.76,77.48,53.79,1.085,8.21,-71.9,-2.7,-3.6,-5894,56.5,3.29,12.3,
25.91263314,-80.13777317,24:18.7,10/7/22,6,1.991,126.68,-7.221283826,1.43,139.2,130.19,3.28,4.58,31.7,0.01,3.27,3.27,95,43,513.1,16.3,-2.6,D,809.2,2,20.019,2,1.99,179,135.62,-80.13763318,25.91250447,0,0,1,N,2.069728,78,78,11,133,133,131.0414,0,9999.99,3.3,3.427,2,9,30.4,0,30.39999962,53.65,1565.73413,10/7/22,10:56:54,27.77,77.31,53.65,1.072,8.21,-72,-2.2,-0.4,-5046,56.1,3.27,12.4,
25.91262437,-80.13776805,24:19.7,10/7/22,6,2.06,130.6,-7.221283826,1.43,140.7,131.59,2.6,5.28,31.7,0,3.33,3.33,95,43,513.1,16.3,-2.6,D,809.2,2,18.966,2,2.04,179,134.67,-80.13763318,25.91250447,0,0,1,N,2.272516,73,73,11,116,116,128.8205,0,9999.99,3.36,3.487,2,9,30.4,0,30.39999962,53.6,1565.68159,10/7/22,10:56:55,27.79,77.24,53.6,1.096,8.22,-72.3,-2.4,-5.1,-1822,55.7,3.24,12.5,
25.91261751,-80.13775988,24:20.8,10/7/22,6,2.032,133.57,-7.221283826,1.43,139.7,130.65,1.82,7.68,31.7,0,3.36,3.36,95,43,513.1,16.3,-2.6,D,796.2,2,17.849,2,2.01,179,134.77,-80.13763318,25.91250447,0,0,1,N,2.116593,68,68,11,117,117,128.2163,0,9999.99,3.38,3.507,2,9,30.3,0,30.29999924,53.54,1565.42742,10/7/22,10:56:57,27.78,77.17,53.54,1.109,8.23,-73,-1.4,-6.6,-652,55.3,3.22,12.3,
25.91261119,-80.13775174,24:21.8,10/7/22,6,2.07,134.58,-7.221283826,1.43,139.1,130.09,2.12,8,31.7,0,3.39,3.39,95,43,513.1,16.3,-2.6,D,796.2,2,16.776,2,2.04,179,135.02,-80.13763318,25.91250447,0,0,1,N,1.918833,70,70,11,119,119,128.0208,0,9999.99,3.41,3.537,2,9,30.3,0,30.29999924,53.4,1565.28101,10/7/22,10:56:58,27.79,77,53.4,1.118,8.22,-72.5,-3,-2.6,-3615,55,3.21,12.4,
25.91260405,-80.13774448,24:22.8,10/7/22,6,2.078,134.87,-7.221283826,1.43,138.7,129.72,2.01,7.16,31.7,0,3.39,3.39,95,43,513.1,16.3,-2.6,D,796.2,2,15.701,2,2.08,179,134.85,-80.13763318,25.91250447,0,0,1,N,1.842401,69,69,11,122,122,128.5249,0,9999.99,3.41,3.537,2,9,30.3,0,30.29999924,53.4,1565.28101,10/7/22,10:56:58,27.79,77,53.4,1.118,8.22,-72.5,-3,-2.6,-3615,55,3.21,12.4,
25.91259772,-80.13773803,24:23.8,10/7/22,6,2.064,136.04,-7.221283826,1.43,138.1,129.16,1.75,7.83,31.7,0,3.41,3.41,95,42,513.1,16.3,-2.6,D,820.9,2,14.747,2,2.09,179,134.68,-80.13763318,25.91250447,0,0,1,N,1.780776,67,67,11,126,126,128.9436,0,9999.99,3.43,3.557,2,9,30.3,0,30.29999924,53.23,1565.10325,10/7/22,10:56:59,27.79,76.79,53.23,1.121,8.19,-70.8,-2.4,0.2,-2177,54.7,3.19,12.4,
25.91259158,-80.13773069,24:24.8,10/7/22,6,2.089,135.91,-7.221283826,1.43,137.2,128.32,2.19,7.99,31.8,0,3.5,3.5,95,42,513.1,16.3,-2.6,D,820.9,2,13.746,2,2.1,179,134.8,-80.13763318,25.91250447,0,0,1,N,1.632618,71,71,11,133,133,129.9577,0,9999.99,3.52,3.647,2,9,30.3,0,30.29999924,52.51,1564.35045,10/7/22,10:57:01,27.88,75.89,52.51,1.109,8.19,-70.8,-1.5,-4.7,-1450,54.5,3.19,12.4,
25.91258458,-80.13772223,24:25.8,10/7/22,6,2.03,134.93,-7.221283826,1.43,136.9,128.04,2.35,7.58,31.8,0,3.49,3.49,95,42,513.1,16.3,-2.6,D,820.9,2,12.597,2,2.09,179,135.01,-80.13763318,25.91250447,0,0,1,Snd,1.45096,71,71,11,140,140,131.2129,0,9999.99,3.51,3.637,2,9,30.3,0,30.29999924,52.51,1564.35045,10/7/22,10:57:01,27.88,75.89,52.51,1.109,8.19,-70.8,-1.5,-4.7,-1450,54.5,3.19,12.4,
25.91257857,-80.13771529,24:26.8,10/7/22,6,2.016,133.96,-7.221283826,1.43,136.7,127.85,1.89,8.1,31.8,0,3.54,3.54,95,42,513.1,16.3,-2.6,D,820.9,2,11.633,2,2.06,179,135.09,-80.13763318,25.91250447,0,0,1,Snd,1.325133,68,68,11,144,144,132.0876,0,9999.99,3.56,3.687,2,9,30.2,0,30.20000076,52.4,1564.043,10/7/22,10:57:02,27.9,75.75,52.4,1.095,8.19,-71,-1.5,-1.6,-743,54.3,3.18,12.4,
25.91257218,-80.13770725,24:27.8,10/7/22,7,2.074,133.4,-7.221283826,1.36,138.5,129.53,0.48,5.63,31.9,0,3.58,3.58,95,42,513.1,16.3,-2.6,D,816.4,2,10.562,0,2.07,128,135.46,-80.13763318,25.91250447,0,0,1,Snd,1.132522,60,60,11,143,143,133.4352,0,9999.99,3.6,3.727,2,9,30.2,0,30.20000076,52.11,1563.73965,10/7/22,10:57:04,27.93,75.39,52.11,1.118,8.19,-70.7,-2.9,-0.8,-3006,54.1,3.17,12.5,
25.91256665,-80.13769997,24:28.8,10/7/22,7,1.849,131.96,-7.221283826,1.36,136.5,127.66,2.49,-1.96,31.9,0,3.57,3.57,95,42,513.1,16.3,-2.6,D,816.4,2,9.614,0,2.02,128,135.99,-80.13763318,25.91250447,0,0,1,Snd,0.9533634,70,70,11,153,153,134.6964,0,9999.99,3.58,3.707,2,9,30.2,0,30.20000076,52.11,1563.73965,10/7/22,10:57:04,27.93,75.39,52.11,1.118,8.19,-70.7,-2.9,-0.8,-3006,54.1,3.17,12.5,
25.91256189,-80.13769369,24:29.8,10/7/22,7,1.577,133.1,-7.221283826,1.36,136.6,127.76,2.82,-1.71,31.8,0,3.58,3.58,95,42,513.1,16.3,-2.6,D,816.4,2,8.797,0,1.86,128,136.53,-80.13763318,25.91250447,0,0,1,Snd,0.7860658,74,74,11,159,159,135.8808,0,9999.99,3.6,3.727,2,9,30.2,0,30.20000076,51.93,1563.55145,10/7/22,10:57:05,27.92,75.17,51.93,1.098,8.18,-70.2,-1.7,0.4,-4381,54,3.17,12.4,
25.91255797,-80.13768842,24:30.8,10/7/22,7,1.284,131.73,-7.221283826,1.36,136.5,127.66,2.38,-2.65,31.9,0,3.59,3.59,95,22,513,16.3,-1.3,D,1544.4,2,8.119,0,1.65,128,137.12,-80.13763318,25.91250447,0,0,1,Snd,0.6436664,71,71,11,164,164,136.8927,0,9999.99,3.61,3.737,2,9,30.2,0,30.20000076,51.83,1563.44709,10/7/22,10:57:07,27.87,75.04,51.83,1.088,8.2,-71.2,-2.1,-1.8,-3517,53.9,3.17,12.4,
25.91255474,-80.13768415,24:31.8,10/7/22,7,1.13,131.13,-7.221283826,1.36,136.9,128.04,1.71,-3.47,31.9,0,3.61,3.61,95,22,513,16.3,-1.3,D,1544.4,2,7.564,0,1.47,128,137.64,-80.13763318,25.91250447,0,0,1,Snd,0.5289302,68,68,11,166,166,137.7101,0,9999.99,3.63,3.757,2,9,30.2,0,30.20000076,51.83,1563.44709,10/7/22,10:57:07,27.87,75.04,51.83,1.088,8.2,-71.2,-2.1,-1.8,-3517,53.9,3.17,12.4,
25.91255183,-80.13768041,24:32.8,10/7/22,7,1.087,132.81,-7.221283826,1.36,137.8,128.88,1.6,-2.43,31.9,0,3.6,3.6,95,22,513,16.3,-1.3,D,1544.4,2,7.075,0,1.32,128,138.11,-80.13763318,25.91250447,0,0,1,Snd,0.4351565,67,67,11,167,167,138.379,0,9999.99,3.62,3.747,2,9,30.2,0,30.20000076,51.61,1563.21667,10/7/22,10:57:08,27.84,74.76,51.61,1.084,8.22,-72.6,-2.2,-4,-4779,53.8,3.17,12.5,
25.91254855,-80.13767677,24:33.8,10/7/22,7,1.099,133.3,-7.221283826,1.36,138.6,129.62,1.6,-3.18,32,0,3.6,3.6,95,22,513,16.3,-1.3,D,1544.4,2,6.56,0,1.2,128,138.35,-80.13763318,25.91250447,0,0,1,Snd,0.3752369,67,67,11,165,165,138.8072,0,9999.99,3.61,3.737,2,9,30.2,0,30.20000076,51.35,1562.94471,10/7/22,10:57:10,27.8,74.44,51.35,1.097,8.21,-71.8,-1.8,-0.4,-102,53.8,3.17,12.3,
25.9125457,-80.13767346,24:34.8,10/7/22,7,0.907,134.27,-7.221283826,1.36,139.7,130.65,1.5,-3.18,31.9,0,3.63,3.63,95,21,513,16.3,-1.3,D,1589.1,2,6.103,0,1.09,128,138.7,-80.13763318,25.91250447,0,0,1,Snd,0.3099318,66,66,11,161,161,139.2738,0,9999.99,3.65,3.777,2,9,30.2,0,30.20000076,51.35,1562.94471,10/7/22,10:57:10,27.8,74.44,51.35,1.097,8.21,-71.8,-1.8,-0.4,-102,53.8,3.17,12.3,
25.91254308,-80.13767018,24:35.8,10/7/22,7,0.863,134.27,-7.221283826,1.36,140.8,131.68,1.52,-3.18,31.9,0,3.65,3.65,95,21,513,16.3,-1.3,D,1589.1,2,5.668,0,1,128,139.24,-80.13763318,25.91250447,0,0,1,Snd,0.2325317,67,67,11,160,160,139.8277,0,9999.99,3.66,3.787,2,9,30.1,0,30.10000038,51.16,1562.55209,10/7/22,10:57:11,27.78,74.2,51.16,1.073,8.2,-71.3,-1.6,-2.7,-1536,53.6,3.17,12.4,
25.91254083,-80.13766718,24:36.8,10/7/22,7,0.839,135.25,-7.221283826,1.36,142.2,133,1.76,-3.79,31.9,0,3.65,3.65,95,21,513,16.3,-1.3,D,1589.1,2,5.283,0,0.94,128,139.94,-80.13763318,25.91250447,0,0,1,Snd,0.1502946,68,68,11,157,157,140.4161,0,9999.99,3.66,3.787,2,9,30.1,0,30.10000038,50.91,1562.29047,10/7/22,10:57:12,27.79,73.88,50.91,1.106,8.19,-70.9,-2.2,-0.9,-2206,53.7,3.18,12.3,
25.91253759,-80.13766479,24:37.8,10/7/22,7,0.828,138.42,-7.221283826,1.36,143.7,134.41,1.48,-3.97,32,0,3.68,3.68,95,22,513,16.3,-1.3,D,1569.2,2,4.854,0,0.86,128,139.36,-80.13763318,25.91250447,0,0,1,Snd,0.1847997,66,66,11,150,150,140.1693,0,9999.99,3.69,3.817,2,9,30.1,0,30.10000038,50.91,1562.29047,10/7/22,10:57:14,27.78,73.88,50.91,1.108,8.22,-72.4,-1.7,-3.5,209,53.6,3.17,12.4,
25.91253487,-80.13766277,24:38.8,10/7/22,7,0.74,138.42,-7.221283826,1.36,144.6,135.26,1.39,-3.75,32,0,3.68,3.68,95,22,513,16.3,-1.3,D,1569.2,2,4.492,0,0.8,128,138.8,-80.13763318,25.91250447,0,0,1,Snd,0.2147831,65,65,11,146,146,139.9546,0,9999.99,3.69,3.817,2,9,30.1,0,30.10000038,50.91,1562.29047,10/7/22,10:57:14,27.78,73.88,50.91,1.108,8.22,-72.4,-1.7,-3.5,209,53.6,3.17,12.4,
25.91253227,-80.13766078,24:39.8,10/7/22,7,0.7,138.42,-7.221283826,1.36,145.9,136.48,1.75,-3.86,32,0,3.67,3.67,95,22,513,16.3,-1.3,D,1569.2,2,4.144,0,0.78,128,138.23,-80.13763318,25.91250447,0,0,1,Snd,0.2383146,67,67,11,140,140,139.7865,0,9999.99,3.68,3.807,2,9,30.1,0,30.10000038,50.93,1562.3114,10/7/22,10:57:15,27.74,73.91,50.93,1.078,8.23,-73.3,-2.5,-3.3,-950,53.5,3.17,12.4,
25.91252994,-80.13765903,24:40.8,10/7/22,7,0.704,138.42,-7.221283826,1.36,146.8,137.33,1.52,-4.39,32,0,3.67,3.67,95,22,513,16.3,-1.3,D,1569.2,2,3.834,0,0.75,128,137.61,-80.13763318,25.91250447,0,0,1,Snd,0.2612868,66,66,11,136,136,139.622,0,9999.99,3.68,3.807,2,9,30.1,0,30.10000038,50.73,1562.10213,10/7/22,10:57:17,27.69,73.65,50.73,1.12,8.19,-71,-2.2,-2.1,-4154,53.4,3.16,12.4,
25.91252766,-80.13765712,24:41.8,10/7/22,7,0.693,138.42,-7.221283826,1.36,147.6,138.09,1.16,-3.64,32,0,3.67,3.67,95,22,513,16.3,-1.3,D,1567.9,2,3.52,0,0.71,128,137.11,-80.13763318,25.91250447,0,0,1,Snd,0.2693425,64,64,11,133,133,139.5645,0,9999.99,3.68,3.807,2,9,30.1,0,30.10000038,50.73,1562.10213,10/7/22,10:57:17,27.69,73.65,50.73,1.12,8.19,-71,-2.2,-2.1,-4154,53.4,3.16,12.4,
25.91252536,-80.13765552,24:42.8,10/7/22,7,0.611,138.42,-7.221283826,1.36,148.1,138.56,1.53,-3.26,32.1,0,3.65,3.65,95,22,513,16.3,-1.3,D,1567.9,2,3.224,0,0.69,128,136.11,-80.13763318,25.91250447,0,0,1,Snd,0.3027532,66,66,11,130,130,139.3256,0,9999.99,3.66,3.787,2,9,30.1,0,30.10000038,50.61,1561.97656,10/7/22,10:57:18,27.7,73.5,50.61,1.094,8.19,-70.8,-1.3,1.1,-2995,53.3,3.16,12.5,
25.912523,-80.1376539,24:43.8,10/7/22,7,0.571,138.42,-7.221283826,1.36,148.8,139.22,1.4,-4.5,32.1,0,3.66,3.66,95,22,513,16.3,-1.3,D,1567.9,2,2.923,0,0.67,128,134.83,-80.13763318,25.91250447,0,0,1,Snd,0.3384072,65,65,11,126,126,139.0701,0,9999.99,3.67,3.797,2,9,30.1,0,30.10000038,50.27,1561.62084,10/7/22,10:57:20,27.71,73.07,50.27,1.103,8.18,-70,-1.9,-0.7,97,53.2,3.16,12.5,
25.91252074,-80.13765267,24:44.8,10/7/22,7,0.569,138.42,-7.221283826,1.36,149.9,140.27,1.4,-3.99,32.1,0,3.68,3.68,95,22,512.9,16.3,-1.3,D,1563.3,2,2.66,0,0.65,128,132.86,-80.13763318,25.91250447,0,0,1,Snd,0.3977862,65,65,11,121,121,138.6456,0,9999.99,3.69,3.817,2,9,30.1,0,30.10000038,50.27,1561.62084,10/7/22,10:57:20,27.71,73.07,50.27,1.103,8.18,-70,-1.9,-0.7,97,53.2,3.16,12.5,
25.9125184,-80.13765106,24:45.8,10/7/22,7,0.649,138.42,-7.221283826,1.36,150.5,140.84,1.51,-4.05,32.1,0,3.67,3.67,95,22,512.9,16.3,-1.3,D,1563.3,2,2.368,0,0.63,128,130.89,-80.13763318,25.91250447,0,0,1,Snd,0.433321,66,66,11,117,117,138.3937,0,9999.99,3.68,3.807,2,9,30.1,0,30.10000038,50.24,1561.58943,10/7/22,10:57:21,27.68,73.03,50.24,1.101,8.17,-69.6,-1.2,0.3,-1119,53.2,3.16,12.3,
25.91251614,-80.13764983,24:46.8,10/7/22,7,0.576,138.42,-7.221283826,1.36,151.1,141.41,1.33,-4.34,32.1,0,3.67,3.67,95,22,512.9,16.3,-1.3,D,1563.3,2,2.11,0,0.61,128,127.94,-80.13763318,25.91250447,0,0,1,Snd,0.4925706,65,65,11,112,112,137.9697,0,9999.99,3.68,3.807,2,9,30.1,0,30.10000038,50.08,1561.42203,10/7/22,10:57:23,27.64,72.82,50.08,1.128,8.23,-73.1,-1.3,-1.4,2042,52.8,3.14,12.4,
25.91251401,-80.13764869,24:47.8,10/7/22,7,0.508,138.42,-7.221283826,1.36,151.9,142.17,1.16,-3.98,32.1,0,3.68,3.68,95,22,512.9,16.3,-1.3,D,1563.3,2,1.88,0,0.59,128,124.37,-80.13763318,25.91250447,0,0,1,Snd,0.5509827,64,64,11,109,109,137.5522,0,9999.99,3.69,3.817,2,9,30.1,0,30.10000038,50.08,1561.42203,10/7/22,10:57:23,27.64,72.82,50.08,1.128,8.23,-73.1,-1.3,-1.4,2042,52.8,3.14,12.4,
25.91251186,-80.1376479,24:48.8,10/7/22,7,0.469,138.42,-7.221283826,1.36,152.1,142.36,1.44,-4.14,32.1,0,3.69,3.69,95,22,512.9,16.3,-1.3,D,1574.8,2,1.685,0,0.57,128,119.16,-80.13763318,25.91250447,0,0,1,Snd,0.6377117,66,66,11,105,105,136.9338,0,9999.99,3.7,3.827,2,9,30.1,0,30.10000038,49.94,1561.27556,10/7/22,10:57:24,27.66,72.64,49.94,1.102,8.22,-72.3,-0.9,-6.8,-245,52.7,3.14,12.4,
25.91250915,-80.13764711,24:49.8,10/7/22,7,0.534,138.42,-7.221283826,1.36,152.6,142.84,1.46,-4.56,32.1,0,3.7,3.7,95,22,512.9,16.3,-1.3,D,1574.8,2,1.486,0,0.57,128,110.48,-80.13763318,25.91250447,0,0,1,Snd,0.7648075,66,66,11,100,100,136.0429,0,9999.99,3.71,3.837,2,9,30,0,30,49.7,1560.82897,10/7/22,10:57:26,27.67,72.35,49.7,1.116,8.2,-71.3,-1.9,-2.7,-1542,52.3,3.12,12.5,
25.91250684,-80.13764614,24:50.8,10/7/22,7,0.555,138.42,-7.221283826,1.36,153,143.22,1.28,-4.51,32.1,0,3.7,3.7,95,22,512.9,16.3,-1.3,D,1574.8,2,1.322,0,0.55,128,101.49,-80.13763318,25.91250447,0,0,1,Snd,0.8477458,65,65,11,96,96,135.4481,0,9999.99,3.71,3.837,2,9,30,0,30,49.7,1560.82897,10/7/22,10:57:26,27.67,72.35,49.7,1.116,8.2,-71.3,-1.9,-2.7,-1542,52.3,3.12,12.5,
25.91250531,-80.13764515,24:51.8,10/7/22,8,0.479,138.42,-7.221283826,1.02,153.1,143.31,1.41,-4.14,32.1,0,3.64,3.64,95,22,512.9,16.3,-1.3,D,1574.8,2,1.201,0,0.54,128,94.45,-80.13763318,25.91250447,0,0,1,Snd,0.8761548,65,65,11,95,95,135.2384,0,9999.99,3.65,3.777,2,9,30,0,30,49.5,1560.61961,10/7/22,10:57:27,27.64,72.09,49.5,1.097,8.21,-71.9,-2.3,1.1,-1493,52.2,3.12,12.5,
25.91250334,-80.13764369,24:52.8,10/7/22,8,0.515,138.42,-7.221283826,1.02,153.4,143.6,1.41,-4.46,32.2,0,3.68,3.68,95,22,512.9,16.3,-1.3,D,1574.8,2,1.061,0,0.52,128,83.2,-80.13763318,25.91250447,0,0,1,Snd,0.8961875,65,65,11,93,93,135.0872,0,9999.99,3.69,3.817,2,9,30,0,30,49.26,1560.36839,10/7/22,10:57:29,27.66,71.79,49.26,1.113,8.19,-70.7,-2.8,0.1,-311,51.9,3.11,12.3,