Latitude,Longitude,Time,Date,Number of Sats,GPS Speed (Kn),GPS True Heading,GPS Magnetic Variation,HDOP,C Magnetic Heading,C True Heading,Pitch Angle,Roll Angle,C Inside Temp (c),DFS Depth (m),DTB Height (m),Total Water Column (m),Batt Percent,Power Watts,Watt-Hours,Batt Volts,Batt Ampers,Batt State,Time to Empty,Current Step,Dist To Next (m),Next Speed (kn),Vehicle Speed (kn),Motor Speed CMD,Next Heading,Next Long,Next Lat,Next Depth (m),Depth Goal (m),Vehicle State,Error State,Distance to Track (m),Fin Pitch R,Fin Pitch L,Pitch Goal,Fin Yaw T,Fin Yaw B,Yaw Goal,Fin Roll,DVL-Depth (m),DVL -Altitude (m),DVL -Water Column (m),DVL-FixType,DVL-FixQuality,DVL-Temperature,Conductivity (mmhos/cm),Temperature (c),Salinity (ppt),Sound Speed (m/s),Date m/d/y   ,Time hh:mm:ss,Temp C,SpCond mS/cm,Sal ppt,Depth feet,pH,pH mV,Turbid+ NTU,Chl ug/L,BGA-PC cells/mL,ODOsat %,ODO mg/L,Battery volts,ROSEM Command Type
25.91275133,-80.13790833,02:16.9,9/2/21,10,0.024,11.52,-7.114276417,1.02,161.5,151.49,1.83,-2.79,33.1,0,1.95,1.95,88,23,475.3,15.9,-1.4,D,1340.8,0,8.425,2,0.1,128,87.5,-80.13782418,25.91275464,0,0,1,N,1.259154,68,68,11,5,5,93.46522,0,9999.99,1.96,2.087,2,9,31.2,0,31.20000076,53.44,1567.02223,9/2/21,11:39:02,30.66,77.19,53.44,0.956,8.12,-67,-3.1,-2.6,-3512,56.3,3.14,13.2,
25.912751,-80.1379085,02:17.9,9/2/21,9,0.095,11.52,-7.114276417,1.25,160.5,150.52,2.07,-6.13,33.1,0,1.93,1.94,88,23,475.3,15.9,-1.4,D,1340.8,0,8.443,2,0.1,128,87.25,-80.13782418,25.91275464,0,0,1,N,1.259154,69,69,11,5,5,93.33156,0,9999.99,1.95,2.077,2,9,31.2,0,31.20000076,53.44,1567.02222,9/2/21,11:39:03,30.66,77.2,53.44,0.958,8.12,-67.5,-4,-4.2,-3657,56,3.13,13,
25.9127507,-80.1379086,02:18.9,9/2/21,10,0.069,11.52,-7.114276417,1.25,157,147.15,3.27,-0.93,33.1,0.02,1.95,1.97,88,23,475.3,15.9,-1.4,D,1340.8,0,8.454,2,0.05,174,87.03,-80.13782418,25.91275464,0,0,1,N,1.259154,74,74,11,5,5,87.02248,0,9999.99,1.97,2.097,2,9,31.2,0,31.20000076,53.45,1567.03265,9/2/21,11:39:04,30.66,77.21,53.45,0.956,8.12,-67.3,-2.7,-7.2,-1169,55.7,3.11,13.2,
25.91274842,-80.13790805,02:19.9,9/2/21,10,0.335,11.52,-7.114276417,1.25,157.6,147.73,1.39,-2.44,33.1,0.02,1.95,1.97,88,26,475.3,15.9,-1.6,D,1189.9,0,8.417,2,0.12,174,85.28,-80.13782418,25.91275464,0,0,1,N,1.259154,65,65,11,5,5,85.31847,0,9999.99,1.97,2.097,2,9,31.2,0,31.20000076,53.46,1567.04507,9/2/21,11:39:05,30.66,77.23,53.46,0.962,8.11,-66.6,-2.6,-2.4,-3373,55.4,3.09,13.2,
25.91274398,-80.13790617,02:20.9,9/2/21,10,0.873,11.52,-7.114276417,1.25,154.9,145.14,0.3,-1.51,33.1,0.02,2.05,2.07,88,26,475.3,15.9,-1.6,D,1189.9,0,8.286,2,0.4,174,81.78,-80.13782418,25.91275464,0,0,1,N,1.259154,59,59,11,5,5,81.92615,0,9999.99,2.06,2.187,2,9,31.2,0,31.20000076,53.45,1567.03436,9/2/21,11:39:06,30.66,77.21,53.45,0.99,8.14,-68.5,-3.7,-2.4,-1407,55.2,3.08,13.3,
25.91273734,-80.13790261,02:21.9,9/2/21,10,1.282,112.01,-7.114276417,0.95,152.2,142.56,0.98,-0.9,33.1,0.01,2.18,2.19,88,26,475.3,15.9,-1.6,D,1189.9,0,8.077,2,0.69,174,76.22,-80.13782418,25.91275464,0,0,1,N,1.259154,63,63,11,5,5,76.46958,0,9999.99,2.19,2.317,2,9,31.2,0,31.20000076,53.41,1566.99264,9/2/21,11:39:07,30.66,77.16,53.41,1.026,8.15,-68.9,-2.2,-6.1,-947,54.9,3.06,13.1,
25.91273093,-80.13789852,02:22.9,9/2/21,10,1.448,132.38,-7.114276417,0.95,147,137.62,1.03,1.47,33.1,0.01,2.25,2.26,88,41,475.2,15.9,-2.6,D,759.9,0,7.889,2,0.98,174,70.47,-80.13782418,25.91275464,0,0,1,N,1.259154,63,63,11,5,5,70.83604,0,9999.99,2.26,2.387,2,9,31.2,0,31.20000076,53.4,1566.98167,9/2/21,11:39:08,30.67,77.15,53.4,0.992,8.14,-68.7,-2.5,-1.2,-1089,54.7,3.05,13.2,
25.91272526,-80.13789428,02:23.9,9/2/21,10,1.396,141.75,-7.114276417,0.95,138.7,129.82,2.07,0.7,33.1,0.01,2.12,2.13,88,41,475.2,15.9,-2.6,D,759.9,0,7.735,2,1.23,174,65.02,-80.13782418,25.91275464,0,0,1,N,1.259154,69,69,11,5,5,65.54082,0,9999.99,2.13,2.257,2,9,31.2,0,31.20000076,53.37,1566.95005,9/2/21,11:39:09,30.67,77.1,53.37,0.995,8.15,-68.9,-4.1,-1.2,-883,54.6,3.05,13.3,
25.91271967,-80.13788801,02:24.9,9/2/21,11,1.409,141.95,-7.114276417,0.95,130.1,121.81,2.57,0.29,33.1,0.01,1.93,1.94,88,41,475.2,15.9,-2.6,D,759.9,0,7.475,2,1.36,174,58.66,-80.13782418,25.91275464,0,0,1,N,1.259154,71,71,11,5,5,59.249,0,9999.99,1.95,2.077,2,9,31.2,0,31.20000076,53.5,1567.08549,9/2/21,11:39:10,30.66,77.27,53.5,0.953,8.14,-68.5,-2.7,0.2,-5212,54.5,3.04,13.2,
25.91271488,-80.13788275,02:25.9,9/2/21,10,1.366,141.95,-7.114276417,1.02,119.3,111.8,2.83,1.25,33.1,0.02,1.83,1.85,88,41,475.2,15.9,-2.6,D,759.9,0,7.34,2,1.43,174,52.95,-80.13782418,25.91275464,0,0,1,N,1.259154,74,74,11,5,5,53.47772,0,9999.99,1.86,1.987,2,9,31.2,0,31.20000076,53.59,1567.1794,9/2/21,11:39:11,30.64,77.39,53.59,0.982,8.12,-67.3,-3.3,-7,-3379,54.5,3.04,13.1,
25.91271153,-80.13787607,02:26.9,9/2/21,10,1.362,132.32,-7.114276417,1.02,109.1,102.37,2.76,1.81,33.1,0.02,1.82,1.83,88,39,475.2,15.9,-2.4,D,807.5,1,16.874,2,1.46,174,125.41,-80.13773856,25.9126236,0,0,1,N,6.974813,74,74,11,151,151,108.4705,0,9999.99,1.84,1.967,2,9,31.2,0,31.20000076,53.59,1567.17952,9/2/21,11:39:12,30.63,77.39,53.59,0.967,8.1,-66.1,-3.2,0,-3083,54.4,3.04,13.2,
25.9127089,-80.13786903,02:27.9,9/2/21,10,1.334,132.32,-7.114276417,1.02,101.2,95.03,3.16,7.98,33.1,0.01,1.94,1.95,88,39,475.2,15.9,-2.4,D,807.5,1,16.132,2,1.46,174,126.01,-80.13773856,25.9126236,0,0,1,N,6.523065,77,77,11,188,188,110.3651,0,9999.99,1.97,2.097,2,9,31.2,0,31.20000076,53.59,1567.17836,9/2/21,11:39:13,30.63,77.38,53.59,0.956,8.09,-65.4,-2.5,-0.4,1593,54.2,3.02,13.1,
25.91270875,-80.13785991,02:28.9,9/2/21,11,1.574,101.46,-7.114276417,1.17,104.8,98.38,0.9,1.41,33.1,0.01,2.22,2.23,88,39,475.2,15.9,-2.4,D,807.5,1,15.393,2,1.5,174,127.96,-80.13773856,25.9126236,0,0,1,N,5.734064,62,62,11,189,189,113.9237,0,9999.99,2.24,2.367,2,9,31.2,0,31.20000076,53.62,1567.20969,9/2/21,11:39:14,30.62,77.41,53.62,0.978,8.09,-65.3,-3.5,-1.6,-2541,53.9,3.01,13.2,
25.91270798,-80.13785189,02:29.9,9/2/21,11,1.491,97.51,-7.114276417,1.17,108.2,101.53,0.67,2.31,33.1,0,2.31,2.31,88,38,475.2,15.9,-2.4,D,824,1,14.715,2,1.56,175,129.62,-80.13773856,25.9126236,0,0,1,N,5.086096,61,61,11,189,189,117.1109,0,9999.99,2.32,2.447,2,9,31.2,0,31.20000076,53.65,1567.24062,9/2/21,11:39:15,30.63,77.45,53.65,0.99,8.08,-65,-3.8,-3,-3829,53.5,2.98,13.1,
25.91270642,-80.137843,02:30.9,9/2/21,11,1.785,97.12,-7.114276417,1.02,112.5,105.52,1.23,1.84,33.2,0,2.24,2.24,88,38,475.2,15.9,-2.4,D,824,1,13.925,2,1.6,175,131.4,-80.13773856,25.9126236,0,0,1,N,4.413687,64,64,11,188,188,120.6713,0,9999.99,2.25,2.377,2,9,31.2,0,31.20000076,53.67,1567.26122,9/2/21,11:39:16,30.63,77.48,53.67,0.995,8.08,-64.7,-3.4,1.3,-3205,53,2.95,13.2,
25.91270514,-80.13783416,02:31.9,9/2/21,11,1.745,100.04,-7.114276417,0.88,117.6,110.23,1.16,2.2,33.1,0.01,2.58,2.58,88,38,475.2,15.9,-2.4,D,824,1,13.178,2,1.62,176,133.48,-80.13773856,25.9126236,0,0,1,N,3.72118,63,63,11,187,187,124.6124,0,9999.99,2.59,2.717,2,9,31.2,0,31.20000076,53.67,1567.26172,9/2/21,11:39:17,30.63,77.48,53.67,0.988,8.08,-64.8,-3.9,-5.7,-4418,52.5,2.93,13.2,
25.91270143,-80.13782538,02:32.9,9/2/21,11,1.689,103.07,-7.114276417,0.88,122,114.3,1.25,2.03,33.1,0,2.7,2.7,88,38,475.2,15.9,-2.4,D,824,1,12.26,2,1.66,176,134.9,-80.13773856,25.9126236,0,0,1,N,3.158699,65,65,11,182,182,128.0117,0,9999.99,2.71,2.837,2,9,31.2,0,31.20000076,53.68,1567.27186,9/2/21,11:39:18,30.63,77.5,53.68,1.006,8.08,-64.8,-2.8,-1.4,-544,52,2.9,13.2,
25.91269852,-80.13781649,02:33.9,9/2/21,11,1.702,105.36,-7.114276417,0.88,126,118,1.87,1.63,33.1,0.01,2.78,2.78,88,39,475.2,15.9,-2.4,D,795.4,1,11.409,2,1.68,176,136.91,-80.13773856,25.9126236,0,0,1,N,2.558248,68,68,11,182,182,131.825,0,9999.99,2.79,2.917,2,9,31.2,0,31.20000076,53.68,1567.27177,9/2/21,11:39:19,30.64,77.49,53.68,0.996,8.08,-64.9,-2.3,-9.4,7,51.4,2.87,13,
25.91269468,-80.13780733,02:34.9,9/2/21,11,1.826,108.46,-7.114276417,0.97,131.1,122.74,2.08,2.47,33.2,0,2.78,2.78,88,39,475.2,15.9,-2.4,D,795.4,1,10.478,2,1.7,177,138.97,-80.13773856,25.9126236,0,0,1,N,1.978319,68,68,11,181,181,135.6672,0,9999.99,2.79,2.917,2,9,31.2,0,31.20000076,53.68,1567.27184,9/2/21,11:39:20,30.64,77.5,53.68,0.979,8.08,-65.2,-3,-6.8,-2469,50.9,2.84,13.2,
25.9126908,-80.13779912,02:35.9,9/2/21,11,1.839,110.52,-7.114276417,0.97,136.1,127.39,2.14,0.59,33.2,0,2.87,2.88,88,39,475.2,15.9,-2.4,D,795.4,1,9.619,2,1.72,177,140.97,-80.13773856,25.9126236,0,0,1,N,1.481275,72,72,11,177,177,139.0673,0,9999.99,2.89,3.017,2,9,31.2,0,31.20000076,53.69,1567.28201,9/2/21,11:39:21,30.64,77.5,53.69,1.009,8.1,-65.9,-2.9,-2.6,-685,50.4,2.81,13.2,
25.91268563,-80.13779191,02:36.9,9/2/21,9,1.749,123.4,-7.114276417,1.13,141,131.97,1.64,1.45,33.1,0.01,2.89,2.9,88,39,475.2,15.9,-2.4,D,795.4,1,8.721,2,1.75,177,142.27,-80.13773856,25.9126236,0,0,1,N,1.137956,67,67,11,165,165,141.4616,0,9999.99,2.91,3.037,2,9,31.2,0,31.20000076,53.7,1567.29248,9/2/21,11:39:22,30.64,77.52,53.7,0.976,8.11,-66.4,-3,-3,-1785,49.9,2.78,13.2,
25.91267921,-80.1377851,02:37.9,9/2/21,9,1.757,126.44,-7.114276417,1.13,145.3,136.02,1.89,1.63,33.2,0.01,2.89,2.9,88,40,475.2,15.9,-2.5,D,770.6,1,7.739,2,1.75,177,143.03,-80.13773856,25.9126236,0,0,1,N,0.9078486,68,68,11,155,155,143.0829,0,9999.99,2.91,3.037,2,9,31.2,0,31.20000076,53.72,1567.3138,9/2/21,11:39:23,30.65,77.54,53.72,0.993,8.11,-66.5,-2.8,-3.4,-2247,49.5,2.76,13,
25.91267367,-80.13777926,02:38.9,9/2/21,10,1.776,132.91,-7.114276417,1.13,147.7,138.28,2.01,1.82,33.1,0,2.95,2.95,88,40,475.2,15.9,-2.5,D,770.6,1,6.897,2,1.77,178,143.83,-80.13773856,25.9126236,0,0,1,N,0.7093873,69,69,11,152,152,144.49,0,9999.99,2.97,3.097,2,9,31.2,0,31.20000076,53.71,1567.30278,9/2/21,11:39:24,30.66,77.53,53.71,1.003,8.11,-66.7,-3.7,-1.5,-1525,49,2.73,13.2,
25.91266709,-80.13777339,02:39.9,9/2/21,10,1.801,136.95,-7.114276417,1.13,151.1,141.51,1.71,3.02,33.2,0,2.96,2.97,88,40,475.2,15.9,-2.5,D,770.6,1,5.961,2,1.79,178,144.23,-80.13773856,25.9126236,0,0,1,N,0.5698612,68,68,11,144,144,145.4831,0,9999.99,2.98,3.107,2,9,31.2,0,31.20000076,53.72,1567.31315,9/2/21,11:39:25,30.66,77.55,53.72,1.007,8.11,-66.8,-3.2,-3.2,-1446,48.6,2.7,13.2,
25.91265964,-80.13776707,02:40.9,9/2/21,10,1.793,138.27,-7.114276417,1.13,152.9,143.22,1.36,2.03,33.2,0,3,3,88,42,475.1,15.9,-2.6,D,743.8,1,4.918,2,1.84,178,144.57,-80.13773856,25.9126236,0,0,1,N,0.4418527,65,65,11,140,140,146.3962,0,9999.99,3.01,3.137,2,9,31.2,0,31.20000076,53.68,1567.27162,9/2/21,11:39:26,30.67,77.5,53.68,1.001,8.12,-67,-3,-1.8,-5516,48.2,2.68,13.2,
25.91265121,-80.13776137,02:41.9,9/2/21,10,1.827,143.74,-7.114276417,1.13,153.2,143.51,0.84,2.49,33.1,0,2.96,2.96,88,42,475.1,15.9,-2.6,D,743.8,2,20.751,2,1.87,178,141.84,-80.13763318,25.91250447,0,0,1,N,0.1269336,62,62,11,121,121,142.0941,0,9999.99,2.97,3.097,2,9,31.2,0,31.20000076,53.71,1567.30276,9/2/21,11:39:27,30.67,77.53,53.71,1.022,8.12,-67,-4,1,-1488,47.8,2.66,13,
25.9126421,-80.13775541,02:42.9,9/2/21,10,1.932,147.1,-7.114276417,1.13,153.6,143.89,1.11,3.42,33.1,0,2.98,2.98,88,42,475.1,15.9,-2.6,D,743.8,2,19.586,2,1.88,178,141.38,-80.13763318,25.91250447,0,0,1,N,3.43E-02,61,61,11,116,116,141.3129,0,9999.99,2.99,3.117,2,9,31.2,0,31.20000076,53.7,1567.29236,9/2/21,11:39:28,30.68,77.52,53.7,1.042,8.12,-67.4,-4.2,-1.6,-4960,47.4,2.64,13.2,
25.91263407,-80.13775128,02:43.9,9/2/21,9,1.934,148.83,-7.114276417,1.13,153.9,144.18,0.08,3.05,33.1,0,3,3.01,88,42,475.1,15.9,-2.6,D,743.8,2,18.633,2,1.86,178,140.66,-80.13763318,25.91250447,0,0,1,N,0.2679732,61,61,11,110,110,139.9403,0,9999.99,3.01,3.137,2,9,31.2,0,31.20000076,53.69,1567.28201,9/2/21,11:39:29,30.69,77.51,53.69,1.046,8.13,-67.6,-4.4,-4.3,-223,47.1,2.62,13.2,
25.91262517,-80.13774598,02:44.9,9/2/21,10,1.903,148.92,-7.114276417,0.97,154.4,144.66,0.25,1.57,33.1,0,3.01,3.01,88,42,475.1,15.9,-2.6,D,735,2,17.533,2,1.91,178,139.95,-80.13763318,25.91250447,0,0,1,N,0.4674859,59,59,11,102,102,138.4371,0,9999.99,3.01,3.137,2,9,31.2,0,31.20000076,53.72,1567.31333,9/2/21,11:39:30,30.71,77.55,53.72,1.054,8.14,-68.3,-5.2,-4.6,-2681,46.8,2.61,13.3,
25.91261731,-80.13774092,02:45.9,9/2/21,9,1.888,148.82,-7.114276417,1.13,153.6,143.89,0.89,2.26,33.2,0,3.02,3.03,88,42,475.1,15.9,-2.6,D,735,2,16.539,2,1.94,178,139.34,-80.13763318,25.91250447,0,0,1,N,0.6175265,62,62,11,100,100,137.0798,0,9999.99,3.03,3.157,2,9,31.2,0,31.20000076,53.69,1567.28224,9/2/21,11:39:31,30.73,77.51,53.69,1.035,8.14,-68.6,-4.8,-2.2,-2837,46.6,2.59,13.1,
25.91260981,-80.13773536,02:46.9,9/2/21,9,2.027,146.34,-7.114276417,1.13,153.2,143.51,0.35,3.04,33.1,0.01,3.03,3.04,88,42,475.1,15.9,-2.6,D,735,2,15.545,2,1.94,178,138.9,-80.13763318,25.91250447,0,0,1,N,0.7010986,60,60,11,99,99,136.4842,0,9999.99,3.04,3.167,2,9,31.2,0,31.20000076,53.67,1567.26159,9/2/21,11:39:32,30.74,77.49,53.67,1.026,8.12,-67.4,-3,-2.8,-1218,46.4,2.58,13.2,
25.91260152,-80.13772887,02:47.9,9/2/21,10,1.909,148.12,-7.114276417,1.13,152.2,142.56,0.26,2.55,33.2,0.01,3.05,3.05,88,43,475.1,15.9,-2.7,D,725.5,2,14.424,2,1.94,178,138.43,-80.13763318,25.91250447,0,0,1,N,0.7686093,59,59,11,101,101,136.0047,0,9999.99,3.05,3.177,2,9,31.2,0,31.20000076,53.65,1567.24081,9/2/21,11:39:33,30.74,77.47,53.65,1.026,8.11,-66.8,-3.2,-5.7,-2560,46.3,2.58,13.1,
25.91259417,-80.13772415,02:48.9,9/2/21,10,1.907,148.74,-7.114276417,1.13,151.9,142.27,0.47,2.71,33.2,0.01,3.05,3.06,88,43,475.1,15.9,-2.7,D,725.5,2,13.501,2,1.96,178,137.63,-80.13763318,25.91250447,0,0,1,N,0.9098817,60,60,11,98,98,135.004,0,9999.99,3.06,3.187,2,9,31.2,0,31.20000076,53.66,1567.25142,9/2/21,11:39:34,30.74,77.48,53.66,1.039,8.11,-66.9,-5.6,-1,-2996,46.3,2.58,13.2,
25.91258625,-80.13771843,02:49.9,9/2/21,11,2.005,147.38,-7.114276417,0.97,150.4,140.84,0.86,3.33,33.1,0.01,3.05,3.05,88,43,475.1,15.9,-2.7,D,725.5,2,12.466,2,1.94,178,136.84,-80.13763318,25.91250447,0,0,1,N,1.013711,61,61,11,101,101,134.2708,0,9999.99,3.05,3.177,2,9,31.2,0,31.20000076,53.68,1567.27214,9/2/21,11:39:35,30.74,77.5,53.68,1.032,8.11,-66.9,-4.5,-1.9,-16,46.3,2.58,13.1,
25.91257889,-80.13771294,02:50.9,9/2/21,10,1.896,146.97,-7.114276417,0.97,148.7,139.23,0.97,2.56,33.1,0.01,3.06,3.07,88,43,475.1,15.9,-2.7,D,725.5,2,11.494,2,1.99,178,136.05,-80.13763318,25.91250447,0,0,1,N,1.096317,63,63,11,105,105,133.6894,0,9999.99,3.07,3.197,2,9,31.2,0,31.20000076,53.63,1567.22007,9/2/21,11:39:36,30.75,77.44,53.63,1.05,8.12,-67.1,-3.9,-4.7,-2125,46.2,2.57,13.2,
25.91257226,-80.13770751,02:51.9,9/2/21,10,1.9,146.25,-7.114276417,0.97,149.3,139.8,0.68,2.75,33.2,0.01,3.09,3.1,88,43,475.1,15.9,-2.7,D,722.7,2,10.587,2,1.98,178,135.4,-80.13763318,25.91250447,0,0,1,N,1.128871,60,60,11,102,102,133.4612,0,9999.99,3.09,3.217,2,9,31.2,0,31.20000076,53.67,1567.26241,9/2/21,11:39:37,30.75,77.49,53.67,1.065,8.12,-67.2,-3.3,-3.9,-1296,46.2,2.57,13.2,
25.91256486,-80.13770132,02:52.9,9/2/21,10,1.985,144.22,-7.114276417,0.97,147.2,137.81,0.67,2.8,33.2,0.01,3.07,3.08,88,43,475.1,15.9,-2.7,D,722.7,2,9.568,2,1.99,178,134.58,-80.13763318,25.91250447,0,0,1,N,1.161907,61,61,11,109,109,133.2286,0,9999.99,3.08,3.207,2,9,31.2,0,31.20000076,53.7,1567.29321,9/2/21,11:39:38,30.76,77.53,53.7,1.032,8.12,-67.2,-3.8,-3.2,-1791,46.3,2.58,13.2,
25.91255749,-80.13769428,02:53.9,9/2/21,10,1.944,141.75,-7.114276417,0.97,146.8,137.43,0.61,2.15,33.1,0.01,3.08,3.08,88,43,475.1,15.9,-2.7,D,722.7,2,8.492,2,2.01,178,133.97,-80.13763318,25.91250447,0,0,1,N,1.123527,62,62,11,111,111,133.4983,0,9999.99,3.08,3.207,2,9,31.2,0,31.20000076,53.65,1567.24073,9/2/21,11:39:39,30.78,77.46,53.65,1.032,8.12,-67.5,-4.7,-3.7,-1326,46.3,2.58,13.1,
25.9125505,-80.13768827,02:54.9,9/2/21,11,1.932,141.79,-7.114276417,0.97,146.6,137.24,0.52,3.17,33.2,0.01,3.1,3.1,88,43,475,15.9,-2.6,D,732.8,2,7.52,2,2.01,178,132.89,-80.13763318,25.91250447,0,0,1,N,1.137657,60,60,11,112,112,133.3992,0,9999.99,3.1,3.227,2,9,31.2,0,31.20000076,53.63,1567.21995,9/2/21,11:39:40,30.79,77.44,53.63,1.043,8.13,-67.6,-5.6,-1.6,-6576,46.4,2.58,13.2,
25.91254319,-80.13768125,02:55.9,9/2/21,11,2.074,140.38,-7.114276417,0.97,145.8,136.49,0.64,2.49,33.2,0.01,3.11,3.12,88,43,475,15.9,-2.6,D,732.8,2,6.454,2,2.02,178,131.84,-80.13763318,25.91250447,0,0,1,N,1.09647,61,61,11,116,116,133.688,0,9999.99,3.12,3.247,2,9,31.2,0,31.20000076,53.62,1567.20975,9/2/21,11:39:41,30.79,77.43,53.62,1.046,8.13,-67.8,-4.9,-2,-3430,46.5,2.58,13.2,
25.91253694,-80.13767444,02:56.9,9/2/21,11,1.982,138.63,-7.114276417,0.97,146.6,137.24,-0.1,1.71,33.2,0,3.13,3.13,88,43,475,15.9,-2.6,D,732.8,2,5.482,2,1.97,178,131.18,-80.13763318,25.91250447,0,0,1,N,0.9954839,56,56,11,116,116,134.3997,0,9999.99,3.13,3.257,2,9,31.2,0,31.20000076,53.6,1567.1886,9/2/21,11:39:42,30.8,77.4,53.6,1.054,8.13,-67.8,-5.3,-1.4,-3750,46.6,2.59,13.2,
25.9125305,-80.13766837,02:57.9,9/2/21,11,1.961,140.47,-7.114276417,0.88,147.8,138.38,0.18,6.95,33.2,0,3.14,3.14,88,43,475,15.9,-2.6,D,732.8,3,24.61,2,1.97,178,150.6,-80.13754756,25.91233769,0,0,1,N,2.017084,57,57,11,160,160,146.2962,0,9999.99,3.14,3.267,2,9,31.2,0,31.20000076,53.61,1567.19877,9/2/21,11:39:43,30.81,77.42,53.61,1.051,8.13,-67.8,-5,-5.6,-2976,46.8,2.6,13.1,
25.91252361,-80.1376613,02:58.9,9/2/21,11,1.855,138.88,-7.114276417,0.88,148.8,139.33,0.58,0.95,33.2,0,3.17,3.17,88,43,475,15.9,-2.6,D,732.3,3,23.597,2,1.97,178,151.18,-80.13754756,25.91233769,0,0,1,N,1.698988,60,60,11,158,158,146.9972,0,9999.99,3.17,3.297,2,9,31.2,0,31.20000076,53.64,1567.22997,9/2/21,11:39:44,30.81,77.45,53.64,1.043,8.13,-67.9,-4.8,-8.4,-3052,47,2.61,13.2,
25.91251684,-80.13765532,02:59.9,9/2/21,11,1.9,141.24,-7.114276417,0.88,152,142.37,0.57,3.2,33.2,0,3.15,3.16,88,43,475,15.9,-2.6,D,732.3,3,22.65,2,1.95,178,151.59,-80.13754756,25.91233769,0,0,1,N,1.462958,60,60,11,147,147,147.434,0,9999.99,3.16,3.287,2,9,31.2,0,31.20000076,53.61,1567.19876,9/2/21,11:39:45,30.82,77.41,53.61,1.03,8.13,-67.7,-5,-7.8,-3927,47.2,2.63,13,
25.91251013,-80.13765008,03:00.9,9/2/21,11,1.878,143.27,-7.114276417,0.88,154.5,144.75,0.59,1.79,33.2,0.01,3.16,3.16,88,43,475,15.9,-2.6,D,732.3,3,21.744,2,1.93,178,151.86,-80.13754756,25.91233769,0,0,1,N,1.291845,61,61,11,138,138,147.5912,0,9999.99,3.16,3.287,2,9,31.2,0,31.20000076,53.6,1567.1888,9/2/21,11:39:46,30.82,77.41,53.6,1.058,8.13,-67.7,-4.7,-3.9,-4407,47.4,2.64,13.2,
25.91250339,-80.13764484,03:01.9,9/2/21,10,1.894,147.49,-7.114276417,0.97,157.3,147.44,0.34,1.97,33.1,0,3.17,3.17,88,42,475,15.9,-2.6,D,747.1,3,20.836,2,1.93,178,152.16,-80.13754756,25.91233769,0,0,1,N,1.126308,59,59,11,131,131,147.7474,0,9999.99,3.17,3.297,2,9,31.2,0,31.20000076,53.58,1567.16811,9/2/21,11:39:47,30.81,77.38,53.58,1.029,8.13,-67.8,-3.1,-7.6,-4589,47.6,2.65,13.1,
25.9124968,-80.13764169,03:02.9,9/2/21,11,1.898,149.97,-7.114276417,0.97,157.9,148.01,0.98,2.6,33.2,0,3.18,3.19,88,42,475,15.9,-2.6,D,747.1,3,20.041,2,1.91,178,151.98,-80.13754756,25.91233769,0,0,1,N,1.146376,63,63,11,124,124,147.0639,0,9999.99,3.19,3.317,2,9,31.2,0,31.20000076,53.6,1567.18861,9/2/21,11:39:48,30.81,77.41,53.6,1.036,8.12,-67.5,-3.5,2.1,-2241,47.8,2.66,13.2,
25.91248945,-80.13763758,03:03.9,9/2/21,10,1.913,151.58,-7.114276417,0.97,158.7,148.78,0.57,2.94,33.2,0.01,3.19,3.2,88,42,475,15.9,-2.6,D,747.1,3,19.127,2,1.89,178,151.92,-80.13754756,25.91233769,0,0,1,N,1.113027,60,60,11,121,121,147.2957,0,9999.99,3.2,3.327,2,9,31.2,0,31.20000076,53.6,1567.18888,9/2/21,11:39:49,30.81,77.41,53.6,1.044,8.12,-67,-3.9,-4.1,-1595,48,2.67,13.2,
25.91248097,-80.13763271,03:04.9,9/2/21,10,1.931,152.94,-7.114276417,0.97,159.9,149.94,0.25,2.45,33.2,0.01,3.18,3.18,88,42,475,15.9,-2.6,D,747.1,3,18.065,2,1.92,178,151.87,-80.13754756,25.91233769,0,0,1,N,1.062925,59,59,11,120,120,147.6469,0,9999.99,3.18,3.307,2,9,31.2,0,31.20000076,53.61,1567.19921,9/2/21,11:39:50,30.79,77.42,53.61,1.039,8.11,-66.7,-4.4,-1.7,-6891,48.2,2.68,13.2,
25.91247253,-80.13762765,03:05.9,9/2/21,10,1.939,154.83,-7.114276417,0.97,159.7,149.75,0.63,2.96,33.1,0.01,3.19,3.2,88,42,474.9,15.9,-2.6,D,739.5,3,16.999,2,1.96,178,151.89,-80.13754756,25.91233769,0,0,1,N,1.000062,61,61,11,120,120,148.0891,0,9999.99,3.2,3.327,2,9,31.2,0,31.20000076,53.65,1567.24089,9/2/21,11:39:51,30.79,77.47,53.65,1.033,8.11,-66.8,-4.6,0.5,-1965,48.3,2.69,13,
25.91246431,-80.13762311,03:06.9,9/2/21,10,1.883,154.45,-7.114276417,0.97,160.2,150.23,0.48,3.86,33.2,0.01,3.19,3.2,88,42,474.9,15.9,-2.6,D,739.5,3,15.979,2,1.91,178,151.78,-80.13754756,25.91233769,0,0,1,N,0.9702175,60,60,11,119,119,148.2997,0,9999.99,3.2,3.327,2,9,31.2,0,31.20000076,53.65,1567.24077,9/2/21,11:39:52,30.79,77.47,53.65,1.02,8.12,-67.1,-6.5,-3.5,-1315,48.4,2.69,13.2,
25.91245588,-80.13761919,03:07.9,9/2/21,10,1.921,155.09,-7.114276417,0.97,160.7,150.71,0.42,3.26,33.2,0.01,3.22,3.22,88,42,474.9,15.9,-2.6,D,739.5,3,14.967,2,1.94,178,151.4,-80.13754756,25.91233769,0,0,1,N,1.005326,60,60,11,116,116,148.0518,0,9999.99,3.22,3.347,2,9,31.2,0,31.20000076,53.65,1567.24088,9/2/21,11:39:53,30.79,77.46,53.65,1.044,8.14,-68.3,-5.1,-9.5,450,48.6,2.7,13.2,
25.91244775,-80.13761525,03:08.9,9/2/21,10,1.95,155.25,-7.114276417,0.97,160.9,150.91,0.18,3.51,33.1,0,3.22,3.23,88,42,474.9,15.9,-2.6,D,739.5,3,13.986,2,1.94,178,151.05,-80.13754756,25.91233769,0,0,1,N,1.02411,57,57,11,115,115,147.9194,0,9999.99,3.23,3.357,2,9,31.2,0,31.20000076,53.64,1567.2302,9/2/21,11:39:54,30.79,77.45,53.64,1.036,8.14,-68.3,-4.4,1.2,19,48.6,2.7,13.3,
25.91243902,-80.13761078,03:09.9,9/2/21,10,1.97,155.5,-7.114276417,0.97,160.7,150.71,0.52,3.27,33.2,0,3.23,3.23,88,43,474.9,15.9,-2.7,D,730.5,3,12.92,2,1.97,178,150.7,-80.13754756,25.91233769,0,0,1,N,1.028206,60,60,11,116,116,147.8906,0,9999.99,3.23,3.357,2,9,31.2,0,31.20000076,53.62,1567.20947,9/2/21,11:39:55,30.8,77.43,53.62,1.057,8.14,-68.6,-4.4,-5.1,-1195,48.8,2.71,13.1,
25.91243049,-80.137607,03:11.0,9/2/21,10,1.962,156.63,-7.114276417,0.88,161.5,151.49,0.27,2.95,33.2,0,3.21,3.21,88,43,474.9,15.9,-2.7,D,730.5,3,11.909,2,1.97,178,150.05,-80.13754756,25.91233769,0,0,1,N,1.080242,59,59,11,111,111,147.5244,0,9999.99,3.21,3.337,2,9,31.2,0,31.20000076,53.56,1567.14703,9/2/21,11:39:56,30.81,77.36,53.56,1.039,8.14,-68.6,-4.4,-5.8,-3908,48.8,2.72,13.2,
25.91242257,-80.13760302,03:12.0,9/2/21,10,1.953,155.3,-7.114276417,0.88,161.2,151.2,0.23,2.41,33.2,0,3.19,3.19,88,43,474.9,15.9,-2.7,D,730.5,3,10.948,2,1.97,178,149.56,-80.13754756,25.91233769,0,0,1,N,1.088584,59,59,11,112,112,147.4656,0,9999.99,3.19,3.317,2,9,31.2,0,31.20000076,53.58,1567.16787,9/2/21,11:39:57,30.81,77.38,53.58,1.043,8.14,-68.6,-5.6,-2.7,-3529,48.9,2.72,13.3,
25.91241406,-80.13759912,03:13.0,9/2/21,10,1.939,155.49,-7.114276417,0.88,162.2,152.17,0.35,2.78,33.2,0,3.23,3.23,88,42,474.9,15.9,-2.6,D,736.9,3,9.935,2,1.99,178,148.73,-80.13754756,25.91233769,0,0,1,N,1.130343,60,60,11,107,107,147.1722,0,9999.99,3.23,3.357,2,9,31.2,0,31.20000076,53.55,1567.13668,9/2/21,11:39:58,30.81,77.34,53.55,1.06,8.15,-68.9,-5.3,-1,-997,49,2.73,13.2,
25.91240566,-80.13759516,03:14.0,9/2/21,10,1.918,156.21,-7.114276417,0.88,161.5,151.49,0.3,1.89,33.2,0.01,3.23,3.24,88,42,474.9,15.9,-2.6,D,736.9,3,8.933,2,1.97,178,147.79,-80.13754756,25.91233769,0,0,1,N,1.163681,59,59,11,110,110,146.9383,0,9999.99,3.23,3.357,2,9,31.2,0,31.20000076,53.56,1567.14723,9/2/21,11:39:59,30.81,77.36,53.56,1.047,8.14,-68.3,-5.2,-1.7,-2090,49.1,2.73,13.1,
25.91239655,-80.13759121,03:15.0,9/2/21,10,1.932,157.05,-7.114276417,0.88,161.2,151.2,0.49,2.65,33.2,0.01,3.22,3.22,88,42,474.9,15.9,-2.6,D,736.9,3,7.868,2,1.98,178,146.3,-80.13754756,25.91233769,0,0,1,N,1.226693,60,60,11,108,108,146.4971,0,9999.99,3.22,3.347,2,9,31.2,0,31.20000076,53.56,1567.14732,9/2/21,11:40:00,30.81,77.35,53.56,1.04,8.14,-68.8,-5.2,-4.9,-2682,49.2,2.74,13.2,
25.91238878,-80.13758726,03:16.0,9/2/21,10,1.973,156.7,-7.114276417,0.88,161.1,151.1,0.67,1.91,33.1,0,3.22,3.22,88,42,474.9,15.9,-2.6,D,736.9,3,6.931,2,1.94,178,145.05,-80.13754756,25.91233769,0,0,1,N,1.234991,61,61,11,108,108,146.4385,0,9999.99,3.22,3.347,2,9,31.2,0,31.20000076,53.55,1567.1368,9/2/21,11:40:01,30.81,77.34,53.55,1.05,8.14,-68.6,-4.4,-3.9,-13,49.3,2.74,13.2,
25.91238115,-80.13758374,03:17.0,9/2/21,10,1.919,156.35,-7.114276417,0.88,160.7,150.71,0.7,2.82,33.1,0.01,3.21,3.22,88,43,474.8,15.9,-2.7,D,730.1,3,6.036,2,1.92,178,143.18,-80.13754756,25.91233769,0,0,1,N,1.273504,61,61,11,110,110,146.1693,0,9999.99,3.22,3.347,2,9,31.2,0,31.20000076,53.56,1567.14762,9/2/21,11:40:02,30.8,77.35,53.56,1.053,8.15,-68.8,-5,-6.2,-148,49.5,2.75,13.2,
25.91237269,-80.13757984,03:18.0,9/2/21,10,1.983,157.86,-7.114276417,0.88,159.8,149.85,0.25,3.05,33.2,0,3.2,3.2,88,43,474.8,15.9,-2.7,D,730.1,3,5.056,2,2,178,140.32,-80.13754756,25.91233769,0,0,1,N,1.313484,59,59,11,111,111,145.891,0,9999.99,3.2,3.327,2,9,31.2,0,31.20000076,53.56,1567.14721,9/2/21,11:40:03,30.8,77.35,53.56,1.045,8.14,-68.7,-4.1,-6.1,-4876,49.5,2.76,13.2,
25.91236421,-80.1375754,03:19.0,9/2/21,10,1.965,156.86,-7.114276417,0.88,160.3,150.33,0.51,1.39,33.2,0,3.22,3.22,88,43,474.8,15.9,-2.7,D,730.1,4,23.624,2,1.94,178,145.67,-80.13744218,25.91218878,0,0,1,N,0.7584202,58,58,11,104,104,144.0846,0,9999.99,3.22,3.347,2,9,31.2,0,31.20000076,53.54,1567.12626,9/2/21,11:40:04,30.8,77.33,53.54,1.046,8.14,-68.6,-5.7,-0.2,-2645,49.6,2.76,13.2,
25.91235587,-80.13757178,03:20.0,9/2/21,10,1.9,157.6,-7.114276417,0.88,160.1,150.13,0.32,2.74,33.1,0,3.2,3.2,88,42,474.8,15.9,-2.6,D,734.4,4,22.655,2,1.97,178,145.1,-80.13744218,25.91218878,0,0,1,N,0.9494327,59,59,11,98,98,142.832,0,9999.99,3.2,3.327,2,9,31.2,0,31.20000076,53.56,1567.14698,9/2/21,11:40:05,30.8,77.36,53.56,1.056,8.14,-68.4,-4.4,-5.3,-3639,49.7,2.76,13.2,
25.91234833,-80.1375683,03:21.0,9/2/21,10,1.965,156.68,-7.114276417,0.88,159,149.07,0.1,2.45,33.2,0,3.2,3.2,88,42,474.8,15.9,-2.6,D,734.4,4,21.768,2,1.98,178,144.59,-80.13744218,25.91218878,0,0,1,N,1.110286,58,58,11,97,97,141.5296,0,9999.99,3.2,3.327,2,9,31.2,0,31.20000076,53.57,1567.15752,9/2/21,11:40:06,30.8,77.37,53.57,1.046,8.14,-68.5,-4.5,-7.3,492,49.7,2.76,13.2,
25.91234005,-80.13756401,03:22.0,9/2/21,10,1.968,155.47,-7.114276417,0.88,157.8,147.92,0.79,3.39,33.1,0.01,3.2,3.2,88,42,474.8,15.9,-2.6,D,734.4,4,20.77,2,1.98,178,144.08,-80.13744218,25.91218878,0,0,1,N,1.245288,62,62,11,95,95,139.9882,0,9999.99,3.2,3.327,2,9,31.2,0,31.20000076,53.55,1567.13682,9/2/21,11:40:07,30.8,77.34,53.55,1.039,8.14,-68.3,-4.3,-1.6,-2114,49.7,2.76,13.2,
25.91233126,-80.13755936,03:23.0,9/2/21,10,2.033,155.13,-7.114276417,0.88,157.2,147.34,0.4,3.71,33.1,0.01,3.22,3.22,88,42,474.8,15.9,-2.6,D,734.4,4,19.707,2,1.97,178,143.51,-80.13744218,25.91218878,0,0,1,N,1.377741,59,59,11,89,89,137.9503,0,9999.99,3.22,3.347,2,9,31.2,0,31.20000076,53.58,1567.16807,9/2/21,11:40:08,30.8,77.38,53.58,1.029,8.13,-68.1,-4.7,-6.2,-2759,49.8,2.77,13.2,
25.91232279,-80.1375544,03:24.0,9/2/21,10,1.945,154.16,-7.114276417,0.88,156.4,146.57,0.76,1.14,33.1,0.01,3.23,3.23,88,43,474.8,15.9,-2.7,D,726.5,4,18.656,2,1.99,178,143.01,-80.13744218,25.91218878,0,0,1,N,1.467191,62,62,11,89,89,137.1325,0,9999.99,3.23,3.357,2,9,31.2,0,31.20000076,53.56,1567.14711,9/2/21,11:40:09,30.8,77.35,53.56,1.036,8.13,-68,-5.1,-2.2,-2056,49.7,2.77,13.1,
25.91231475,-80.1375497,03:25.0,9/2/21,10,1.963,153.45,-7.114276417,0.88,154.3,144.56,0.34,3.89,33.1,0,3.21,3.21,88,43,474.8,15.9,-2.7,D,726.5,4,17.659,2,1.99,178,142.49,-80.13744218,25.91218878,0,0,1,N,1.556971,59,59,11,95,95,136.5082,0,9999.99,3.21,3.337,2,9,31.2,0,31.20000076,53.6,1567.18869,9/2/21,11:40:10,30.8,77.4,53.6,1.044,8.14,-68.2,-4.4,-5.4,-2686,49.7,2.77,13.2,
25.91230805,-80.13754598,03:26.0,9/2/21,10,1.882,151.98,-7.114276417,0.88,152.5,142.84,0.49,3.46,33.1,0,3.22,3.23,88,43,474.8,15.9,-2.7,D,726.5,4,16.843,2,2.01,178,141.95,-80.13744218,25.91218878,0,0,1,N,1.645641,62,62,11,99,99,135.8979,0,9999.99,3.23,3.357,2,9,31.2,0,31.20000076,53.58,1567.16792,9/2/21,11:40:11,30.8,77.38,53.58,1.048,8.13,-68,-3.4,-1.2,-2876,49.7,2.77,13,
25.91230024,-80.13754097,03:27.0,9/2/21,10,1.974,150.32,-7.114276417,0.88,151.9,142.27,0.29,3.49,33.1,0,3.19,3.2,88,43,474.8,15.9,-2.7,D,717.2,4,15.85,2,2,178,141.44,-80.13744218,25.91218878,0,0,1,N,1.689354,57,57,11,99,99,135.5985,0,9999.99,3.2,3.327,2,9,31.2,0,31.20000076,53.62,1567.20929,9/2/21,11:40:12,30.8,77.43,53.62,1.021,8.13,-67.7,-3.8,-2.5,-3579,49.7,2.76,13.1,
25.91229132,-80.13753477,03:28.1,9/2/21,10,1.942,149.59,-7.114276417,0.88,150.1,140.56,0.28,3.85,33.1,0,3.21,3.21,88,43,474.8,15.9,-2.7,D,717.2,4,14.688,2,1.97,178,140.92,-80.13744218,25.91218878,0,0,1,N,1.705598,59,59,11,107,107,135.4868,0,9999.99,3.21,3.337,2,9,31.2,0,31.20000076,53.62,1567.20946,9/2/21,11:40:13,30.8,77.42,53.62,1.045,8.12,-67.6,-3.7,-5.6,-1223,49.7,2.76,13.1,
25.91228385,-80.13752932,03:29.1,9/2/21,10,1.95,147.4,-7.114276417,0.88,149.6,140.08,0.46,3.4,33.1,0,3.21,3.22,88,43,474.8,15.9,-2.7,D,717.2,4,13.7,2,1.96,178,140.5,-80.13744218,25.91218878,0,0,1,N,1.69138,60,60,11,109,109,135.5841,0,9999.99,3.22,3.347,2,9,31.2,0,31.20000076,53.61,1567.19896,9/2/21,11:40:14,30.79,77.41,53.61,1.039,8.12,-67.3,-3.7,-2.4,-4969,49.8,2.77,13.2,
25.91227687,-80.13752343,03:30.1,9/2/21,10,2.049,144.95,-7.114276417,0.88,149.1,139.61,0.22,3.19,33.1,0,3.22,3.22,88,43,474.8,15.9,-2.7,D,717.2,4,12.727,2,1.95,178,140.32,-80.13744218,25.91218878,0,0,1,N,1.612259,58,58,11,113,113,136.1277,0,9999.99,3.22,3.347,2,9,31.2,0,31.20000076,53.61,1567.19914,9/2/21,11:40:15,30.77,77.42,53.61,1.05,8.12,-67.2,-3.7,-4.5,-753,49.7,2.77,13,
25.91226915,-80.13751721,03:31.1,9/2/21,10,1.912,144.76,-7.114276417,0.88,149.1,139.61,0.17,2.33,33.1,0,3.25,3.25,88,43,474.7,15.9,-2.7,D,727.1,4,11.67,2,1.93,178,139.98,-80.13744218,25.91218878,0,0,1,N,1.550122,58,58,11,115,115,136.5565,0,9999.99,3.25,3.377,2,9,31.2,0,31.20000076,53.59,1567.17828,9/2/21,11:40:16,30.76,77.39,53.59,1.046,8.11,-66.6,-4,-4.2,-793,49.7,2.77,13.2,
25.9122621,-80.13751065,03:32.1,9/2/21,10,1.975,143.31,-7.114276417,0.88,147.5,138.09,0.57,3.53,33.1,0,3.24,3.25,88,43,474.7,15.9,-2.7,D,727.1,4,10.648,2,1.97,178,139.97,-80.13744218,25.91218878,0,0,1,N,1.422856,60,60,11,124,124,137.437,0,9999.99,3.25,3.377,2,9,31.2,0,31.20000076,53.62,1567.20947,9/2/21,11:40:17,30.76,77.42,53.62,1.043,8.11,-66.7,-4.2,-2.2,-1475,49.6,2.76,13.2,
25.91225489,-80.13750468,03:33.1,9/2/21,10,2.004,143.4,-7.114276417,0.88,147.8,138.38,0.42,4.2,33.1,0.01,3.25,3.26,88,43,474.7,15.9,-2.7,D,727.1,4,9.649,2,1.97,178,139.62,-80.13744218,25.91218878,0,0,1,N,1.346112,60,60,11,125,125,137.9706,0,9999.99,3.26,3.387,2,9,31.2,0,31.20000076,53.64,1567.23081,9/2/21,11:40:18,30.76,77.46,53.64,1.039,8.13,-68,-3.3,-4,-469,49.6,2.76,13.3,
25.9122475,-80.13749812,03:34.1,9/2/21,10,1.942,142.13,-7.114276417,0.88,147.8,138.38,0.44,2.75,33.2,0.01,3.29,3.3,88,42,474.7,15.9,-2.6,D,733.3,4,8.599,2,2,178,139.41,-80.13744218,25.91218878,0,0,1,N,1.23432,60,60,11,128,128,138.7512,0,9999.99,3.29,3.417,2,9,31.2,0,31.20000076,53.65,1567.24141,9/2/21,11:40:19,30.75,77.46,53.65,1.042,8.13,-68,-3.7,-3.9,-2404,49.5,2.76,13.1,
25.91223918,-80.13749099,03:35.1,9/2/21,10,1.912,142.5,-7.114276417,0.88,148.8,139.33,0.89,3.75,33.1,0.01,3.26,3.27,88,42,474.7,15.9,-2.6,D,733.3,4,7.432,2,1.99,178,138.94,-80.13744218,25.91218878,0,0,1,N,1.129977,62,62,11,128,128,139.4827,0,9999.99,3.27,3.397,2,9,31.2,0,31.20000076,53.63,1567.22039,9/2/21,11:40:20,30.75,77.44,53.63,1.056,8.13,-67.7,-4.5,-2.6,-604,49.5,2.76,13.2,
25.91223215,-80.13748539,03:36.1,9/2/21,10,1.911,143.51,-7.114276417,0.88,150,140.46,0.2,3.02,33.1,0,3.29,3.3,88,42,474.7,15.9,-2.6,D,733.3,4,6.476,2,1.98,178,138.14,-80.13744218,25.91218878,0,0,1,N,1.072921,58,58,11,125,125,139.8844,0,9999.99,3.3,3.427,2,9,31.2,0,31.20000076,53.64,1567.23047,9/2/21,11:40:21,30.75,77.45,53.64,1.05,8.13,-67.7,-3.4,-1.3,-5145,49.4,2.75,13.2,
25.91222529,-80.13747987,03:37.2,9/2/21,10,1.931,143.33,-7.114276417,0.88,149.1,139.61,0.72,3.91,33.1,0,3.31,3.31,88,42,474.7,15.9,-2.6,D,733.3,4,5.54,2,2.04,178,137.12,-80.13744218,25.91218878,0,0,1,N,1.018535,61,61,11,128,128,140.2669,0,9999.99,3.31,3.437,2,9,31.2,0,31.20000076,53.64,1567.23009,9/2/21,11:40:22,30.74,77.45,53.64,1.018,8.12,-67.4,-3.7,-3.7,-1632,49.2,2.74,13.2,
25.9122174,-80.13747391,03:38.2,9/2/21,10,1.905,143.05,-7.114276417,0.88,150.1,140.56,0.55,2.84,33.1,0.01,3.31,3.31,88,42,474.7,15.9,-2.6,D,739.3,5,25.738,1,2.03,178,142.44,-80.13731704,25.91203391,0,0,1,N,0.7072598,60,60,11,129,129,140.961,0,9999.99,3.31,3.437,2,9,31.2,0,31.20000076,53.65,1567.24086,9/2/21,11:40:24,30.73,77.46,53.65,1.021,8.12,-67.2,-3.8,-6,7,48.8,2.72,13.2,
25.91221015,-80.13746905,03:39.2,9/2/21,10,1.838,145.11,-7.114276417,0.88,150.9,141.32,0.37,3.28,33.2,0.01,3.31,3.31,88,42,474.7,15.9,-2.6,D,739.3,5,24.803,1,1.96,174,142.19,-80.13731704,25.91203391,0,0,1,N,0.792082,59,59,11,123,123,140.3059,0,9999.99,3.31,3.437,2,9,31.2,0,31.20000076,53.65,1567.24086,9/2/21,11:40:24,30.73,77.46,53.65,1.021,8.12,-67.2,-3.8,-6,7,48.8,2.72,13.2,
25.91220296,-80.13746427,03:40.2,9/2/21,9,1.882,145.86,-7.114276417,1.07,150.7,141.13,0.16,1.98,33.1,0,3.35,3.36,88,42,474.7,15.9,-2.6,D,739.3,5,23.878,1,1.93,170,141.93,-80.13731704,25.91203391,0,0,1,N,0.8701888,58,58,11,121,121,139.5543,0,9999.99,3.36,3.487,2,9,31.2,0,31.20000076,53.64,1567.23001,9/2/21,11:40:25,30.73,77.45,53.64,1.042,8.12,-67,-4,0.7,-2319,48.6,2.71,13.2,
25.91219591,-80.13745884,03:41.2,9/2/21,9,1.826,145.75,-7.114276417,1.07,151,141.41,0.37,0.01,33.1,0,3.37,3.37,88,34,474.6,15.9,-2.1,D,911.9,5,22.927,1,1.93,166,141.79,-80.13731704,25.91203391,0,0,1,N,0.8887206,59,59,11,116,116,138.9616,0,9999.99,3.37,3.497,2,9,31.2,0,31.20000076,53.65,1567.24034,9/2/21,11:40:27,30.73,77.47,53.65,1.033,8.12,-67.2,-4.1,-1.1,-2500,48.1,2.68,13.2,
25.91218971,-80.13745441,03:42.2,9/2/21,10,1.674,147.56,-7.114276417,1.07,150.1,140.56,0.93,0.67,33.1,0,3.36,3.36,88,34,474.6,15.9,-2.1,D,911.9,5,22.111,1,1.86,163,141.58,-80.13731704,25.91203391,0,0,1,N,0.9381152,63,63,11,116,116,138.1273,0,9999.99,3.36,3.487,2,9,31.2,0,31.20000076,53.65,1567.24034,9/2/21,11:40:27,30.73,77.47,53.65,1.033,8.12,-67.2,-4.1,-1.1,-2500,48.1,2.68,13.2,
25.91218323,-80.13744937,03:43.2,9/2/21,10,1.646,146.74,-7.114276417,1.07,150.4,140.84,1.12,-0.1,33.2,0.01,3.35,3.36,88,34,474.6,15.9,-2.1,D,911.9,5,21.233,1,1.81,159,141.44,-80.13731704,25.91203391,0,0,1,N,0.9559107,64,64,11,113,113,137.2666,0,9999.99,3.36,3.487,2,9,31.2,0,31.20000076,53.64,1567.23085,9/2/21,11:40:29,30.73,77.45,53.64,0.978,8.09,-65.6,-3.5,-0.2,-2432,47.6,2.65,13.2,
25.91217754,-80.1374438,03:44.2,9/2/21,10,1.437,146.02,-7.114276417,1.07,149.1,139.61,1.82,-0.9,33.1,0.01,3.37,3.38,88,34,474.6,15.9,-2.1,D,911.9,5,20.392,1,1.73,156,141.56,-80.13731704,25.91203391,0,0,1,N,0.8749866,68,68,11,120,120,137.748,0,9999.99,3.38,3.507,2,9,31.2,0,31.20000076,53.64,1567.23085,9/2/21,11:40:29,30.73,77.45,53.64,0.978,8.09,-65.6,-3.5,-0.2,-2432,47.6,2.65,13.2,
25.91217248,-80.13743825,03:45.2,9/2/21,10,1.328,144.47,-7.114276417,0.88,148.8,139.33,1.16,-1.5,33.1,0.01,3.37,3.38,88,26,474.6,15.9,-1.6,D,1168.7,5,19.606,1,1.62,154,141.8,-80.13731704,25.91203391,0,0,1,N,0.7561617,64,64,11,124,124,138.591,0,9999.99,3.39,3.517,2,9,31.2,0,31.20000076,53.64,1567.23078,9/2/21,11:40:30,30.73,77.46,53.64,0.985,8.09,-65.4,-3.9,-1.3,-3237,47.3,2.63,13.1,
25.91216759,-80.13743461,03:46.2,9/2/21,10,1.221,145.32,-7.114276417,0.88,148.3,138.85,1.29,-1.75,33.1,0.01,3.39,3.4,88,26,474.6,15.9,-1.6,D,1168.7,5,18.953,1,1.5,153,141.65,-80.13731704,25.91203391,0,0,1,N,0.7830744,65,65,11,125,125,138.4004,0,9999.99,3.4,3.527,2,9,31.2,0,31.20000076,53.65,1567.24126,9/2/21,11:40:32,30.73,77.47,53.65,0.984,8.12,-67.2,-3.5,-3.3,-2061,46.8,2.61,13.2,
25.91216371,-80.13743154,03:47.2,9/2/21,10,1.15,143.87,-7.114276417,0.88,147.7,138.28,1.58,-1.82,33.1,0.01,3.41,3.42,88,26,474.6,15.9,-1.6,D,1168.7,5,18.425,1,1.4,152,141.57,-80.13731704,25.91203391,0,0,1,N,0.7869903,66,66,11,127,127,138.3723,0,9999.99,3.42,3.547,2,9,31.2,0,31.20000076,53.65,1567.24126,9/2/21,11:40:32,30.73,77.47,53.65,0.984,8.12,-67.2,-3.5,-3.3,-2061,46.8,2.61,13.2,
25.91215992,-80.13742853,03:48.2,9/2/21,10,1.139,143.84,-7.114276417,0.88,148.2,138.76,1.25,-2.26,33.1,0,3.41,3.41,88,26,474.6,15.9,-1.6,D,1168.7,5,17.907,1,1.29,152,141.49,-80.13731704,25.91203391,0,0,1,N,0.7905522,65,65,11,126,126,138.3468,0,9999.99,3.42,3.547,2,9,31.2,0,31.20000076,53.64,1567.23019,9/2/21,11:40:33,30.73,77.45,53.64,0.996,8.12,-67.4,-3.5,-3.6,-514,46.6,2.59,13.2,
25.91215635,-80.13742587,03:49.2,9/2/21,10,1.065,144.02,-7.114276417,0.88,148,138.57,1.25,-2.88,33.2,0.01,3.4,3.41,88,25,474.6,15.9,-1.5,D,1247.7,5,17.43,1,1.09,152,141.36,-80.13731704,25.91203391,0,0,1,N,0.8170673,65,65,11,125,125,138.1588,0,9999.99,3.41,3.537,0,0,31.2,0,31.20000076,53.65,1567.24092,9/2/21,11:40:35,30.73,77.47,53.65,0.992,8.13,-67.7,-4.7,-5.1,-631,46.2,2.57,13,
25.91215247,-80.13742305,03:50.2,9/2/21,10,0.972,143.62,-7.114276417,0.88,147.8,138.38,1.35,-1.79,33.1,0,3.4,3.4,88,25,474.6,15.9,-1.5,D,1247.7,5,16.918,1,1.05,152,141.19,-80.13731704,25.91203391,0,0,1,N,0.8372736,65,65,11,125,125,138.0159,0,9999.99,3.41,3.537,2,9,31.2,0,31.20000076,53.65,1567.24092,9/2/21,11:40:35,30.73,77.47,53.65,0.992,8.13,-67.7,-4.7,-5.1,-631,46.2,2.57,13,
25.91214882,-80.13742011,03:51.2,9/2/21,10,0.963,142.84,-7.114276417,0.88,147.2,137.81,1,-2.66,33.1,0,3.41,3.41,88,25,474.6,15.9,-1.5,D,1247.7,5,16.417,1,1.03,152,141.1,-80.13731704,25.91203391,0,0,1,N,0.8361173,63,63,11,128,128,138.024,0,9999.99,3.42,3.547,2,9,31.2,0,31.20000076,53.65,1567.24057,9/2/21,11:40:36,30.73,77.46,53.65,0.956,8.13,-68.2,-2.4,-2.3,-2899,46,2.56,13.2,
25.91214517,-80.1374172,03:52.2,9/2/21,10,0.893,141.22,-7.114276417,0.88,147.2,137.81,1.37,-2.3,33.1,0,3.44,3.44,88,25,474.5,15.9,-1.5,D,1242.9,5,15.918,1,1.01,152,141,-80.13731704,25.91203391,0,0,1,N,0.8386055,65,65,11,128,128,138.0064,0,9999.99,3.45,3.577,2,9,31.2,0,31.20000076,53.65,1567.24054,9/2/21,11:40:38,30.73,77.47,53.65,0.969,8.11,-66.4,-3.2,-5.3,-1303,45.7,2.54,13.2,
25.91214215,-80.13741476,03:53.2,9/2/21,10,0.891,140.83,-7.114276417,0.88,147.2,137.81,1,-2.25,33.1,0,3.45,3.45,88,25,474.5,15.9,-1.5,D,1242.9,5,15.504,1,0.99,152,140.92,-80.13731704,25.91203391,0,0,1,N,0.8379946,63,63,11,127,127,138.0106,0,9999.99,3.46,3.587,2,9,31.2,0,31.20000076,53.66,1567.25103,9/2/21,11:40:39,30.72,77.48,53.66,0.98,8.1,-66.4,-2.4,-2.7,-4441,45.5,2.54,13,
25.91213893,-80.13741219,03:54.2,9/2/21,10,0.842,142.05,-7.114276417,0.88,147.2,137.81,1.08,-2.51,33.1,0,3.44,3.45,88,25,474.5,15.9,-1.5,D,1236.6,5,15.064,1,0.97,152,140.82,-80.13731704,25.91203391,0,0,1,N,0.839331,63,63,11,128,128,138.0011,0,9999.99,3.45,3.577,2,9,31.2,0,31.20000076,53.66,1567.25103,9/2/21,11:40:39,30.72,77.48,53.66,0.98,8.1,-66.4,-2.4,-2.7,-4441,45.5,2.54,13,
25.91213539,-80.1374094,03:55.2,9/2/21,10,0.856,141.56,-7.114276417,0.88,147.1,137.72,1.28,-2.18,33.1,0,3.42,3.43,88,25,474.5,15.9,-1.5,D,1236.6,5,14.583,1,0.97,152,140.7,-80.13731704,25.91203391,0,0,1,N,0.8452724,65,65,11,128,128,137.9589,0,9999.99,3.43,3.557,2,9,31.2,0,31.20000076,53.66,1567.25106,9/2/21,11:40:40,30.72,77.47,53.66,1.002,8.1,-66.4,-3,-5.2,-2891,45.4,2.53,13.2,
25.9121321,-80.13740668,03:56.2,9/2/21,10,0.923,139.6,-7.114276417,0.88,146.5,137.15,1.24,-2.81,33.2,0.01,3.44,3.45,88,25,474.5,15.9,-1.5,D,1236.6,5,14.127,1,0.94,152,140.61,-80.13731704,25.91203391,0,0,1,N,0.8433313,64,64,11,130,130,137.9727,0,9999.99,3.45,3.577,2,9,31.2,0,31.20000076,53.64,1567.23053,9/2/21,11:40:41,30.72,77.45,53.64,0.989,8.1,-66.4,-3,-1.9,-2048,45.2,2.52,13.2,
25.91212877,-80.13740388,03:57.2,9/2/21,10,0.899,140.89,-7.114276417,0.88,146.1,136.77,0.98,-1.88,33.1,0.01,3.47,3.48,88,25,474.5,15.9,-1.6,D,1232.7,5,13.664,1,0.93,152,140.53,-80.13731704,25.91203391,0,0,1,N,0.8342445,63,63,11,132,132,138.0372,0,9999.99,3.48,3.607,2,9,31.2,0,31.20000076,53.64,1567.23138,9/2/21,11:40:42,30.72,77.45,53.64,0.979,8.1,-66.3,-3.2,0.3,-2356,45.1,2.51,13.2,
25.91212522,-80.13740111,03:58.2,9/2/21,10,0.93,143.01,-7.114276417,0.88,146.1,136.77,1.29,-2.45,33.1,0,3.46,3.46,88,25,474.5,15.9,-1.6,D,1232.7,5,13.183,1,0.92,152,140.37,-80.13731704,25.91203391,0,0,1,N,0.8408412,65,65,11,132,132,137.9905,0,9999.99,3.47,3.597,2,9,31.2,0,31.20000076,53.65,1567.24074,9/2/21,11:40:44,30.72,77.46,53.65,0.987,8.1,-66.3,-4.3,-2.3,-2361,44.9,2.5,13.2,
25.9121217,-80.13739815,03:59.2,9/2/21,10,0.884,141.54,-7.114276417,0.88,146.6,137.24,1.33,-3.01,33.2,0,3.46,3.46,88,25,474.5,15.9,-1.6,D,1230.4,5,12.692,1,0.92,152,140.27,-80.13731704,25.91203391,0,0,1,N,0.8316311,65,65,11,130,130,138.0557,0,9999.99,3.47,3.597,2,9,31.2,0,31.20000076,53.65,1567.24074,9/2/21,11:40:44,30.72,77.46,53.65,0.987,8.1,-66.3,-4.3,-2.3,-2361,44.9,2.5,13.2,
25.91211862,-80.13739546,04:00.2,9/2/21,10,0.923,139.89,-7.114276417,0.88,147.3,137.91,1.33,-2.98,33.2,0,3.51,3.51,88,25,474.5,15.9,-1.6,D,1230.4,5,12.257,1,0.91,152,140.22,-80.13731704,25.91203391,0,0,1,N,0.8149301,65,65,11,128,128,138.174,0,9999.99,3.52,3.647,2,9,31.2,0,31.20000076,53.68,1567.27184,9/2/21,11:40:45,30.72,77.5,53.68,0.987,8.1,-66.1,-1.7,-0.7,-5252,44.9,2.5,13.3,
25.91211539,-80.13739241,04:01.2,9/2/21,10,0.861,138.46,-7.114276417,0.88,147.7,138.28,1.34,-2.83,33.1,0,3.5,3.5,88,25,474.5,15.9,-1.6,D,1230.4,5,11.787,1,0.9,152,140.24,-80.13731704,25.91203391,0,0,1,N,0.7780989,65,65,11,128,128,138.4353,0,9999.99,3.51,3.637,2,9,31.2,0,31.20000076,53.65,1567.24065,9/2/21,11:40:46,30.72,77.46,53.65,0.972,8.1,-66,-3.2,-3.9,-1524,44.7,2.49,13.2,
25.91211188,-80.13738939,04:02.2,9/2/21,10,0.899,139.7,-7.114276417,0.88,147.6,138.19,1.13,-2.83,33.2,0.01,3.47,3.47,88,25,474.5,15.9,-1.6,D,1230.4,5,11.293,1,0.9,152,140.15,-80.13731704,25.91203391,0,0,1,N,0.7639595,64,64,11,128,128,138.5355,0,9999.99,3.48,3.607,2,9,31.2,0,31.20000076,53.68,1567.272,9/2/21,11:40:48,30.73,77.5,53.68,0.988,8.09,-65.4,-3.2,-5.1,-4643,44.6,2.49,13.2,
25.91210807,-80.13738647,04:03.3,9/2/21,10,0.904,142.32,-7.114276417,0.88,148.3,138.85,1.13,-2.61,33.2,0,3.49,3.49,88,25,474.4,15.9,-1.5,D,1242.7,5,10.781,1,0.89,152,139.9,-80.13731704,25.91203391,0,0,1,N,0.7761748,64,64,11,125,125,138.4489,0,9999.99,3.5,3.627,2,9,31.2,0,31.20000076,53.68,1567.272,9/2/21,11:40:48,30.73,77.5,53.68,0.988,8.09,-65.4,-3.2,-5.1,-4643,44.6,2.49,13.2,
25.91210453,-80.13738347,04:04.3,9/2/21,10,0.883,144.07,-7.114276417,0.88,148.5,139.04,1.24,-2.59,33.3,0.01,3.47,3.48,88,25,474.4,15.9,-1.5,D,1242.7,5,10.286,1,0.9,152,139.77,-80.13731704,25.91203391,0,0,1,N,0.7647168,64,64,11,125,125,138.53,0,9999.99,3.48,3.607,2,9,31.2,0,31.20000076,53.63,1567.21991,9/2/21,11:40:49,30.73,77.44,53.63,0.981,8.08,-65.2,-4.1,-4.8,-1592,44.6,2.48,13.2,
25.91210097,-80.13738098,04:05.3,9/2/21,9,0.921,144.65,-7.114276417,1.07,148.4,138.95,1.28,-2.36,33.2,0.01,3.48,3.48,88,25,474.4,15.9,-1.6,D,1229.5,5,9.823,1,0.89,152,139.39,-80.13731704,25.91203391,0,0,1,N,0.7938628,65,65,11,125,125,138.3233,0,9999.99,3.49,3.617,2,9,31.2,0,31.20000076,53.65,1567.24084,9/2/21,11:40:50,30.73,77.46,53.65,0.977,8.08,-64.6,-4,-2.4,-3051,44.5,2.48,13.1,
25.91209761,-80.13737867,04:06.3,9/2/21,10,0.859,144.83,-7.114276417,1.07,148.5,139.04,1.11,-2.8,33.2,0.01,3.5,3.51,88,25,474.4,15.9,-1.6,D,1229.5,5,9.39,1,0.91,152,138.97,-80.13731704,25.91203391,0,0,1,N,0.826911,64,64,11,123,123,138.0891,0,9999.99,3.51,3.637,2,9,31.2,0,31.20000076,53.66,1567.25131,9/2/21,11:40:52,30.74,77.48,53.66,0.98,8.1,-66.2,-2,-6.4,-4413,44.4,2.47,13.1,
25.91209405,-80.13737575,04:07.3,9/2/21,10,0.934,143.01,-7.114276417,1.07,148.8,139.33,1.29,-2.6,33.2,0,3.48,3.48,88,25,474.4,15.9,-1.6,D,1229.5,5,8.899,1,0.9,152,138.71,-80.13731704,25.91203391,0,0,1,N,0.8236365,65,65,11,122,122,138.1122,0,9999.99,3.49,3.617,2,9,31.2,0,31.20000076,53.66,1567.25131,9/2/21,11:40:52,30.74,77.48,53.66,0.98,8.1,-66.2,-2,-6.4,-4413,44.4,2.47,13.1,
25.91209046,-80.13737298,04:08.3,9/2/21,10,0.897,144.7,-7.114276417,0.88,149.3,139.8,1.17,-2.22,33.2,0,3.46,3.46,88,25,474.4,15.9,-1.6,D,1229.5,5,8.416,1,0.89,152,138.34,-80.13731704,25.91203391,0,0,1,N,0.8334144,64,64,11,120,120,138.0428,0,9999.99,3.47,3.597,2,9,31.2,0,31.20000076,53.62,1567.20922,9/2/21,11:40:53,30.75,77.43,53.62,0.963,8.1,-66.2,-2.4,-4.6,-4143,44.4,2.47,13.2,
25.91208705,-80.13737001,04:09.3,9/2/21,10,0.863,143.87,-7.114276417,0.88,148.4,138.95,1.1,-2.96,33.2,0.01,3.5,3.51,88,25,474.4,15.9,-1.6,D,1229.5,5,7.936,1,0.87,152,138.12,-80.13731704,25.91203391,0,0,1,N,0.8168743,64,64,11,124,124,138.1598,0,9999.99,3.51,3.637,2,9,31.2,0,31.20000076,53.63,1567.22,9/2/21,11:40:55,30.75,77.43,53.63,0.975,8.1,-66.2,-3.9,-2.8,-2054,44.1,2.46,13.1,
25.91208407,-80.1373676,04:10.3,9/2/21,10,0.856,140.55,-7.114276417,0.88,148.6,139.14,1.39,-2.47,33.2,0.01,3.5,3.51,88,25,474.4,15.9,-1.6,D,1229.5,5,7.528,1,0.89,153,137.8,-80.13731704,25.91203391,0,0,1,N,0.8171539,65,65,11,123,123,138.1583,0,9999.99,3.51,3.637,2,9,31.2,0,31.20000076,53.63,1567.22,9/2/21,11:40:55,30.75,77.43,53.63,0.975,8.1,-66.2,-3.9,-2.8,-2054,44.1,2.46,13.1,
25.91208095,-80.13736432,04:11.3,9/2/21,10,0.943,137.81,-7.114276417,0.88,148.6,139.14,1.07,-2.49,33.2,0.01,3.49,3.5,88,25,474.4,15.9,-1.6,D,1229.5,5,7.051,1,0.89,153,137.89,-80.13731704,25.91203391,0,0,1,N,0.7551838,63,63,11,124,124,138.5976,0,9999.99,3.5,3.627,2,9,31.2,0,31.20000076,53.63,1567.2206,9/2/21,11:40:56,30.75,77.44,53.63,0.985,8.1,-66.2,-3.2,-3.1,-3943,44,2.45,13.2,
25.91207759,-80.13736163,04:12.3,9/2/21,9,0.874,140.36,-7.114276417,1.07,148.7,139.23,1.27,-2.73,33.2,0.01,3.5,3.51,88,25,474.4,15.9,-1.6,D,1218,5,6.593,1,0.91,153,137.44,-80.13731704,25.91203391,0,0,1,N,0.7570444,65,65,11,124,124,138.5847,0,9999.99,3.51,3.637,2,9,31.2,0,31.20000076,53.6,1567.18935,9/2/21,11:40:58,30.75,77.4,53.6,0.974,8.11,-66.4,-3.9,-3,-2848,43.7,2.43,13.2,
25.91207414,-80.13735889,04:13.3,9/2/21,9,0.92,141.04,-7.114276417,1.07,149,139.52,1.06,-2.16,33.2,0,3.55,3.55,88,25,474.4,15.9,-1.6,D,1218,6,28.375,1,0.92,153,192.94,-80.13742242,25.91182544,0,0,1,N,5.71509,63,63,11,250,250,177.2216,0,9999.99,3.56,3.687,2,9,31.2,0,31.20000076,53.6,1567.18935,9/2/21,11:40:58,30.75,77.4,53.6,0.974,8.11,-66.4,-3.9,-3,-2848,43.7,2.43,13.2,
25.91207074,-80.13735571,04:14.3,9/2/21,9,0.883,139.42,-7.114276417,1.07,150.8,141.22,1.19,-0.39,33.2,0,3.56,3.56,88,25,474.4,15.9,-1.6,D,1218,6,28.08,1,0.91,153,193.75,-80.13742242,25.91182544,0,0,1,N,5.268755,64,64,11,250,250,178.5224,0,9999.99,3.57,3.697,2,9,31.2,0,31.20000076,53.61,1567.19864,9/2/21,11:40:59,30.74,77.41,53.61,0.963,8.11,-66.5,-1.9,1.2,-3341,43.6,2.43,13.1,
25.91206792,-80.13735279,04:15.3,9/2/21,9,0.875,136.24,-7.114276417,1.07,153.8,144.08,1.58,-3.35,33.2,0.01,3.57,3.57,88,26,474.3,15.9,-1.6,D,1201.6,6,27.848,1,0.91,153,194.48,-80.13742242,25.91182544,0,0,1,N,4.864923,65,65,11,250,250,179.8511,0,9999.99,3.58,3.707,2,9,31.2,0,31.20000076,53.6,1567.1888,9/2/21,11:41:01,30.73,77.4,53.6,0.977,8.08,-64.6,-5,-2.3,-4653,43.2,2.41,13.2,
25.91206491,-80.13735054,04:16.3,9/2/21,9,0.843,141.09,-7.114276417,1.07,157.7,147.82,1.61,-2.65,33.1,0.01,3.56,3.57,88,26,474.3,15.9,-1.6,D,1201.6,6,27.581,1,0.88,153,195.11,-80.13742242,25.91182544,0,0,1,N,4.518837,67,67,11,250,250,180.8788,0,9999.99,3.57,3.697,2,9,31.2,0,31.20000076,53.6,1567.1888,9/2/21,11:41:01,30.73,77.4,53.6,0.977,8.08,-64.6,-5,-2.3,-4653,43.2,2.41,13.2,
25.91206137,-80.13734794,04:17.3,9/2/21,10,0.851,141.75,-7.114276417,1.07,162.2,152.17,1.56,-2.6,33.1,0.01,3.54,3.54,88,26,474.3,15.9,-1.6,D,1201.6,6,27.271,1,0.85,153,195.85,-80.13742242,25.91182544,0,0,1,N,4.118767,66,66,11,247,247,182.1544,0,9999.99,3.55,3.677,2,9,31.2,0,31.20000076,53.6,1567.18946,9/2/21,11:41:02,30.73,77.4,53.6,0.96,8.07,-64.5,-3,-7.7,-2121,43.1,2.4,13.2,
25.91205818,-80.13734574,04:18.3,9/2/21,10,0.824,142.7,-7.114276417,1.07,166.7,156.55,2.03,-3.06,33.1,0.01,3.52,3.53,88,26,474.3,15.9,-1.6,D,1201.6,6,26.992,1,0.83,153,196.51,-80.13742242,25.91182544,0,0,1,N,3.768849,69,69,11,236,236,183.3125,0,9999.99,3.54,3.667,2,9,31.2,0,31.20000076,53.6,1567.18917,9/2/21,11:41:04,30.73,77.4,53.6,0.973,8.1,-66.3,-2.7,-5.3,-1464,42.7,2.38,13.3,
25.91205503,-80.13734445,04:19.3,9/2/21,10,0.864,147.76,-7.114276417,1.07,171.1,160.87,1.7,-2.74,33.1,0.01,3.53,3.54,88,25,474.3,15.9,-1.6,D,1217.9,6,26.694,1,0.83,153,196.99,-80.13742242,25.91182544,0,0,1,N,3.498303,67,67,11,222,222,184.0306,0,9999.99,3.55,3.677,2,9,31.2,0,31.20000076,53.6,1567.18917,9/2/21,11:41:04,30.73,77.4,53.6,0.973,8.1,-66.3,-2.7,-5.3,-1464,42.7,2.38,13.3,
25.91205168,-80.13734336,04:20.3,9/2/21,10,0.738,154.11,-7.114276417,0.88,176.3,166.01,1.82,-3.29,33.1,0.01,3.53,3.54,88,25,474.3,15.9,-1.6,D,1217.9,6,26.37,1,0.82,153,197.45,-80.13742242,25.91182544,0,0,1,N,3.245634,68,68,11,204,204,184.6471,0,9999.99,3.55,3.677,2,9,31.2,0,31.20000076,53.58,1567.16806,9/2/21,11:41:05,30.72,77.38,53.58,0.953,8.1,-66.3,-2,-2.1,-3616,42.5,2.37,13.2,
25.9120485,-80.13734218,04:21.3,9/2/21,10,0.792,156.3,-7.114276417,0.88,178.9,168.61,1.92,-2.72,33.2,0,3.52,3.53,88,26,474.3,15.9,-1.6,D,1208.2,6,26.07,1,0.82,153,197.93,-80.13742242,25.91182544,0,0,1,N,2.990129,69,69,11,194,194,185.3773,0,9999.99,3.54,3.667,2,9,31.2,0,31.20000076,53.6,1567.18871,9/2/21,11:41:07,30.72,77.4,53.6,0.973,8.11,-67,-5,-2.5,-2550,42,2.34,13.1,
25.91204462,-80.13734203,04:22.3,9/2/21,10,0.807,162.71,-7.114276417,0.88,183.5,173.22,1.91,-2.52,33.2,0,3.52,3.53,88,26,474.3,15.9,-1.6,D,1208.2,6,25.664,1,0.82,153,198.26,-80.13742242,25.91182544,0,0,1,N,2.794589,68,68,11,178,178,185.5127,0,9999.99,3.54,3.667,2,9,31.2,0,31.20000076,53.59,1567.17814,9/2/21,11:41:08,30.72,77.39,53.59,0.978,8.12,-67.2,-3.1,-2.5,-2685,41.9,2.33,13.2,
25.91204008,-80.13734285,04:23.3,9/2/21,10,0.835,169.31,-7.114276417,0.88,186.7,176.46,1.4,-2.79,33.1,0.01,3.53,3.53,88,26,474.3,15.9,-1.6,D,1208.2,6,25.158,1,0.84,153,198.44,-80.13742242,25.91182544,0,0,1,N,2.654246,65,65,11,166,166,186.1016,0,9999.99,3.54,3.667,2,9,31.2,0,31.20000076,53.59,1567.17814,9/2/21,11:41:08,30.72,77.39,53.59,0.978,8.12,-67.2,-3.1,-2.5,-2685,41.9,2.33,13.2,
25.91203598,-80.13734319,04:24.3,9/2/21,10,0.865,172.8,-7.114276417,0.88,189,178.79,1.55,-3,33.1,0.01,3.53,3.53,88,26,474.3,15.9,-1.6,D,1174.4,6,24.716,1,0.84,153,198.7,-80.13742242,25.91182544,0,0,1,N,2.497942,66,66,11,160,160,187.1123,0,9999.99,3.54,3.667,2,9,31.2,0,31.20000076,53.6,1567.18894,9/2/21,11:41:09,30.72,77.39,53.6,0.97,8.09,-65.5,-4.7,-8.1,-3172,41.7,2.32,13.2,
25.91203169,-80.13734361,04:25.3,9/2/21,10,0.865,178.5,-7.114276417,0.88,191.8,181.65,1.4,-2.67,33.2,0,3.53,3.53,88,26,474.3,15.9,-1.6,D,1174.4,6,24.251,1,0.85,153,198.97,-80.13742242,25.91182544,0,0,1,N,2.337164,65,65,11,154,154,188.1651,0,9999.99,3.54,3.667,2,9,31.2,0,31.20000076,53.59,1567.17832,9/2/21,11:41:11,30.71,77.39,53.59,0.98,8.09,-65.3,-3.5,-2,-1919,41.4,2.31,13.1,
25.91202726,-80.13734481,04:26.3,9/2/21,10,0.911,184.26,-7.114276417,0.88,194,183.9,1.39,-2.61,33.2,0,3.52,3.52,88,26,474.3,15.9,-1.6,D,1174.4,6,23.746,1,0.9,153,199.08,-80.13742242,25.91182544,0,0,1,N,2.238046,65,65,11,147,147,188.8206,0,9999.99,3.53,3.657,2,9,31.2,0,31.20000076,53.59,1567.17832,9/2/21,11:41:11,30.71,77.39,53.59,0.98,8.09,-65.3,-3.5,-2,-1919,41.4,2.31,13.1,
25.91202292,-80.13734612,04:27.3,9/2/21,10,0.909,187.75,-7.114276417,0.88,194.9,184.82,1.49,-2.53,33.1,0,3.5,3.5,88,26,474.3,15.9,-1.6,D,1174.4,6,23.247,1,0.92,154,199.16,-80.13742242,25.91182544,0,0,1,N,2.159382,66,66,11,145,145,189.3451,0,9999.99,3.51,3.637,2,9,31.2,0,31.20000076,53.61,1567.19875,9/2/21,11:41:12,30.71,77.41,53.61,0.969,8.09,-65.2,-3.1,-7.1,-3400,41.2,2.3,13.2,
25.91201883,-80.13734739,04:28.3,9/2/21,10,0.922,191.19,-7.114276417,0.88,196.6,186.57,1.15,-1.99,33.2,0,3.48,3.48,88,25,474.2,15.9,-1.6,D,1219.2,6,22.776,1,0.93,154,199.24,-80.13742242,25.91182544,0,0,1,N,2.084589,64,64,11,137,137,189.8441,0,9999.99,3.49,3.617,2,9,31.2,0,31.20000076,53.58,1567.16784,9/2/21,11:41:14,30.7,77.37,53.58,0.974,8.08,-65.1,-2.9,-5,-3589,40.9,2.28,13.2,
25.91201422,-80.13734898,04:29.4,9/2/21,10,0.994,194.75,-7.114276417,0.88,198,188.01,1.05,-2.38,33.2,0,3.48,3.48,88,25,474.2,15.9,-1.6,D,1219.2,6,22.239,1,0.96,154,199.29,-80.13742242,25.91182544,0,0,1,N,2.01497,63,63,11,136,136,190.3132,0,9999.99,3.49,3.617,2,9,31.2,0,31.20000076,53.58,1567.16784,9/2/21,11:41:14,30.7,77.37,53.58,0.974,8.08,-65.1,-2.9,-5,-3589,40.9,2.28,13.2,
25.91200949,-80.13735059,04:30.4,9/2/21,10,1.031,195.3,-7.114276417,0.88,199.2,189.25,1.43,-2.17,33.2,0,3.46,3.46,88,25,474.2,15.9,-1.6,D,1219.2,6,21.689,1,0.97,154,199.34,-80.13742242,25.91182544,0,0,1,N,1.942233,66,66,11,133,133,190.8037,0,9999.99,3.47,3.597,2,9,31.2,0,31.20000076,53.57,1567.15725,9/2/21,11:41:15,30.7,77.36,53.57,0.973,8.08,-65,-2.5,-6.9,-3038,40.8,2.27,13.1,
25.91200477,-80.13735257,04:31.4,9/2/21,10,0.957,197.98,-7.114276417,0.88,200.1,190.18,1.31,-2.23,33.2,0,3.44,3.44,88,25,474.2,15.9,-1.6,D,1223,6,21.129,1,0.98,154,199.31,-80.13742242,25.91182544,0,0,1,N,1.905882,64,64,11,130,130,191.0496,0,9999.99,3.45,3.577,2,9,31.2,0,31.20000076,53.63,1567.2198,9/2/21,11:41:17,30.7,77.43,53.63,0.98,8.08,-64.9,-3.4,-4,-1903,40.5,2.26,13.2,
25.9120003,-80.13735455,04:32.4,9/2/21,10,0.983,197.86,-7.114276417,0.88,200.4,190.49,1.34,-1.97,33.2,0.01,3.43,3.44,88,25,474.2,15.9,-1.6,D,1223,6,20.595,1,0.99,154,199.25,-80.13742242,25.91182544,0,0,1,N,1.878765,65,65,11,130,130,191.234,0,9999.99,3.44,3.567,2,9,31.2,0,31.20000076,53.63,1567.2198,9/2/21,11:41:17,30.7,77.43,53.63,0.98,8.08,-64.9,-3.4,-4,-1903,40.5,2.26,13.2,
25.91199579,-80.13735618,04:33.4,9/2/21,10,0.962,198.45,-7.114276417,0.88,200.5,190.59,1.4,-1.57,33.2,0.01,3.39,3.39,88,25,474.2,15.9,-1.6,D,1223,6,20.067,1,1,154,199.28,-80.13742242,25.91182544,0,0,1,N,1.819601,65,65,11,131,131,191.6362,0,9999.99,3.4,3.527,2,9,31.2,0,31.20000076,53.65,1567.24088,9/2/21,11:41:18,30.71,77.46,53.65,0.968,8.08,-64.7,-3.1,1.3,-2952,40.4,2.25,13.2,
25.91199166,-80.13735806,04:34.4,9/2/21,10,0.993,201.08,-7.114276417,0.88,199.4,189.45,0.9,-1.53,33.2,0.01,3.4,3.41,88,25,474.2,15.9,-1.6,D,1223,6,19.572,1,1,154,199.2,-80.13742242,25.91182544,0,0,1,N,1.803612,62,62,11,134,134,191.7453,0,9999.99,3.41,3.537,2,9,31.2,0,31.20000076,53.64,1567.23062,9/2/21,11:41:20,30.72,77.45,53.64,0.972,8.08,-64.6,-4,-3.7,-2555,40.4,2.25,13.2,
25.91198739,-80.1373602,04:35.4,9/2/21,10,1.021,201.34,-7.114276417,0.88,200.3,190.38,1.17,-1.86,33.2,0,3.39,3.39,88,26,474.2,15.9,-1.6,D,1208,6,19.053,1,0.98,154,199.06,-80.13742242,25.91182544,0,0,1,N,1.801975,64,64,11,132,132,191.7562,0,9999.99,3.4,3.527,2,9,31.2,0,31.20000076,53.64,1567.23062,9/2/21,11:41:20,30.72,77.45,53.64,0.972,8.08,-64.6,-4,-3.7,-2555,40.4,2.25,13.2,
25.91198293,-80.13736232,04:36.4,9/2/21,10,1.015,200.72,-7.114276417,0.88,200.6,190.69,1.06,-0.97,33.1,0,3.36,3.36,88,26,474.2,15.9,-1.6,D,1208,6,18.515,1,0.99,154,198.94,-80.13742242,25.91182544,0,0,1,N,1.787893,63,63,11,132,132,191.8525,0,9999.99,3.37,3.497,2,9,31.2,0,31.20000076,53.64,1567.23013,9/2/21,11:41:21,30.72,77.45,53.64,0.964,8.08,-64.7,-4.4,-8.2,-4002,40.4,2.25,13.2,
25.91197839,-80.13736419,04:37.4,9/2/21,10,1.006,199.65,-7.114276417,0.88,200.5,190.59,1.24,-2.04,33.2,0,3.35,3.35,88,26,474.2,15.9,-1.6,D,1208,6,17.977,1,1.01,154,198.9,-80.13742242,25.91182544,0,0,1,N,1.749553,64,64,11,133,133,192.1143,0,9999.99,3.36,3.487,2,9,31.2,0,31.20000076,53.62,1567.2094,9/2/21,11:41:23,30.73,77.43,53.62,0.966,8.08,-64.8,-4.1,-3.1,-2256,40.4,2.25,13.1,
25.9119738,-80.13736612,04:38.5,9/2/21,10,0.985,199.64,-7.114276417,0.88,200.9,191,1.1,-1.48,33.2,0.01,3.33,3.34,88,26,474.1,15.9,-1.6,D,1212.3,6,17.431,1,1.03,154,198.85,-80.13742242,25.91182544,0,0,1,N,1.71527,64,64,11,132,132,192.3488,0,9999.99,3.34,3.467,2,9,31.2,0,31.20000076,53.62,1567.2094,9/2/21,11:41:23,30.73,77.43,53.62,0.966,8.08,-64.8,-4.1,-3.1,-2256,40.4,2.25,13.1,
25.9119701,-80.13736822,04:39.5,9/2/21,10,1.026,200.72,-7.114276417,0.88,200.5,190.59,1.62,-1.59,33.2,0,3.31,3.31,88,26,474.1,15.9,-1.6,D,1212.3,6,16.974,1,1.03,154,198.62,-80.13742242,25.91182544,0,0,1,N,1.736706,67,67,11,133,133,192.2017,0,9999.99,3.32,3.447,2,9,31.2,0,31.20000076,53.62,1567.20986,9/2/21,11:41:24,30.73,77.43,53.62,0.951,8.11,-66.4,-4.3,-1.6,-1636,40.5,2.26,13.2,
25.91196606,-80.13737016,04:40.5,9/2/21,10,1.067,201.91,-7.114276417,0.88,201.1,191.21,1.08,-1.92,33.2,0,3.28,3.28,88,26,474.1,15.9,-1.6,D,1212.3,6,16.487,1,1.03,154,198.48,-80.13742242,25.91182544,0,0,1,N,1.724987,63,63,11,130,130,192.282,0,9999.99,3.29,3.417,2,9,31.2,0,31.20000076,53.6,1567.18838,9/2/21,11:41:25,30.74,77.4,53.6,0.988,8.11,-66.8,-3.9,-4.6,-3343,40.7,2.27,13.1,
25.91196177,-80.13737202,04:41.5,9/2/21,10,0.959,201.85,-7.114276417,0.88,200.9,191,1,-1.86,33.2,0,3.26,3.27,88,26,474.1,15.9,-1.6,D,1212.3,6,15.975,1,1.02,154,198.4,-80.13742242,25.91182544,0,0,1,N,1.696705,63,63,11,134,134,192.4756,0,9999.99,3.27,3.397,2,9,31.2,0,31.20000076,53.64,1567.22996,9/2/21,11:41:27,30.77,77.45,53.64,0.979,8.13,-67.6,-3.4,-2.9,-2502,41.1,2.29,13.1,
25.91195724,-80.13737431,04:42.5,9/2/21,10,0.995,202.41,-7.114276417,0.88,199.8,189.87,1.02,-0.4,33.2,0.01,3.24,3.25,88,25,474.1,15.9,-1.6,D,1213,6,15.426,1,1,154,198.18,-80.13742242,25.91182544,0,0,1,N,1.699481,63,63,11,137,137,192.4568,0,9999.99,3.25,3.377,2,9,31.2,0,31.20000076,53.64,1567.22996,9/2/21,11:41:27,30.77,77.45,53.64,0.979,8.13,-67.6,-3.4,-2.9,-2502,41.1,2.29,13.1,
25.91195318,-80.13737599,04:43.5,9/2/21,10,1.023,197.96,-7.114276417,0.88,200.8,190.9,1.13,-2.05,33.2,0,3.21,3.21,88,25,474.1,15.9,-1.6,D,1213,6,14.943,1,0.98,154,198.1,-80.13742242,25.91182544,0,0,1,N,1.663467,64,64,11,134,134,192.7037,0,9999.99,3.22,3.347,2,9,31.2,0,31.20000076,53.56,1567.14722,9/2/21,11:41:28,30.8,77.35,53.56,0.966,8.14,-68.4,-3.8,-5.6,-2502,41.4,2.3,13.4,
25.91194929,-80.13737751,04:44.5,9/2/21,10,0.923,197.77,-7.114276417,0.88,200.7,190.8,1.01,-0.97,33.2,0,3.19,3.19,88,25,474.1,15.9,-1.6,D,1213,6,14.485,1,1,154,198.06,-80.13742242,25.91182544,0,0,1,N,1.622151,63,63,11,136,136,192.9878,0,9999.99,3.2,3.327,2,9,31.2,0,31.20000076,53.26,1566.83513,9/2/21,11:41:30,30.87,76.99,53.26,0.988,8.16,-69.6,-5.7,-1.3,-2762,42.2,2.35,13.2,
25.91194527,-80.13737892,04:45.5,9/2/21,10,0.942,198.25,-7.114276417,0.88,199.9,189.97,1.08,-1.16,33.2,0,3.18,3.18,88,26,474.1,15.9,-1.6,D,1208.5,6,14.017,1,1,154,198.08,-80.13742242,25.91182544,0,0,1,N,1.568345,63,63,11,139,139,193.3584,0,9999.99,3.19,3.317,2,9,31.2,0,31.20000076,53.22,1566.79331,9/2/21,11:41:31,30.89,76.94,53.22,0.967,8.16,-70,-5.2,-3.9,-5183,42.8,2.38,13.1,
25.911941,-80.13738055,04:46.6,9/2/21,10,0.958,198.59,-7.114276417,0.88,200.4,190.49,1.17,-1.37,33.2,0,3.17,3.17,88,26,474.1,15.9,-1.6,D,1208.5,6,13.514,1,0.98,154,198.05,-80.13742242,25.91182544,0,0,1,N,1.519838,64,64,11,140,140,193.6933,0,9999.99,3.18,3.307,2,9,31.2,0,31.20000076,53.22,1566.79331,9/2/21,11:41:31,30.89,76.94,53.22,0.967,8.16,-70,-5.2,-3.9,-5183,42.8,2.38,13.1,
25.9119372,-80.13738252,04:47.6,9/2/21,10,1.022,201.58,-7.114276417,0.88,200.5,190.59,1.34,-1.37,33.2,0.01,3.14,3.14,88,26,474.1,15.9,-1.6,D,1208.5,6,13.052,1,0.96,154,197.8,-80.13742242,25.91182544,0,0,1,N,1.521224,65,65,11,139,139,193.6836,0,9999.99,3.15,3.277,2,9,31.2,0,31.20000076,53.15,1566.72098,9/2/21,11:41:32,30.91,76.84,53.15,0.964,8.15,-69.3,-4.6,-5.7,-2826,43.5,2.42,13.2,
25.91193289,-80.13738443,04:48.6,9/2/21,10,0.987,200.1,-7.114276417,0.88,200.9,191,1.1,-1.47,33.2,0,3.13,3.13,88,26,474.1,15.9,-1.6,D,1208.5,6,12.537,1,0.96,154,197.64,-80.13742242,25.91182544,0,0,1,N,1.496683,64,64,11,138,138,193.8532,0,9999.99,3.14,3.267,2,9,31.2,0,31.20000076,53.15,1566.72088,9/2/21,11:41:34,30.91,76.85,53.15,0.96,8.15,-69.3,-4.7,-2.9,-298,45,2.5,13.2,
25.91192919,-80.1373858,04:49.6,9/2/21,10,0.981,199.71,-7.114276417,0.88,200.7,190.8,1.27,-0.88,33.1,0.01,3.13,3.14,88,26,474.1,15.9,-1.6,D,1204.7,6,12.103,1,0.97,154,197.61,-80.13742242,25.91182544,0,0,1,N,1.454349,63,63,11,143,143,194.1463,0,9999.99,3.14,3.267,2,9,31.2,0,31.20000076,53.15,1566.72088,9/2/21,11:41:34,30.91,76.85,53.15,0.96,8.15,-69.3,-4.7,-2.9,-298,45,2.5,13.2,
25.91192484,-80.137388,04:50.6,9/2/21,10,1.005,200.92,-7.114276417,0.88,201.6,191.73,1.16,-1.77,33.2,0.01,3.1,3.11,88,26,474.1,15.9,-1.6,D,1204.7,6,11.576,1,0.97,154,197.3,-80.13742242,25.91182544,0,0,1,N,1.452428,64,64,11,137,137,194.1595,0,9999.99,3.11,3.237,2,9,31.2,0,31.20000076,53.18,1566.75247,9/2/21,11:41:35,30.92,76.89,53.18,0.953,8.15,-69.3,-5.3,-3,-2396,45.8,2.55,13.1,
25.91191999,-80.1373901,04:51.6,9/2/21,10,0.987,199.96,-7.114276417,0.88,201.6,191.73,1.25,-1.09,33.2,0.01,3.08,3.08,88,26,474.1,15.9,-1.6,D,1204.7,6,10.999,1,0.98,154,197.09,-80.13742242,25.91182544,0,0,1,N,1.41951,65,65,11,138,138,194.388,0,9999.99,3.09,3.217,2,9,31.2,0,31.20000076,53.15,1566.72077,9/2/21,11:41:36,30.92,76.85,53.15,0.974,8.15,-69.4,-4.9,-0.3,-5034,46.5,2.59,13.1,
