Latitude,Longitude,Time,Date,Number of Sats,GPS Speed (Kn),GPS True Heading,GPS Magnetic Variation,HDOP,C Magnetic Heading,C True Heading,Pitch Angle,Roll Angle,C Inside Temp (c),DFS Depth (m),DTB Height (m),Total Water Column (m),Batt Percent,Power Watts,Watt-Hours,Batt Volts,Batt Ampers,Batt State,Time to Empty,Current Step,Dist To Next (m),Next Speed (kn),Vehicle Speed (kn),Motor Speed CMD,Next Heading,Next Long,Next Lat,Next Depth (m),Depth Goal (m),Vehicle State,Error State,Distance to Track (m),Fin Pitch R,Fin Pitch L,Pitch Goal,Fin Yaw T,Fin Yaw B,Yaw Goal,Fin Roll,DVL-Depth (m),DVL -Altitude (m),DVL -Water Column (m),DVL-FixType,DVL-FixQuality,DVL-Temperature,Conductivity (mmhos/cm),Temperature (c),Salinity (ppt),Sound Speed (m/s),Date m/d/y   ,Time hh:mm:ss,Temp C,SpCond mS/cm,Sal ppt,Depth feet,pH,pH mV,Turbid+ NTU,Chl ug/L,BGA-PC cells/mL,ODOsat %,ODO mg/L,Battery volts,ROSEM Command Type
25.91272083,-80.13789167,48:38.9,9/2/21,11,0.503,198.53,-7.114278177,0.88,146.8,137.43,0.99,-5.05,33.2,0.01,2.26,2.27,89,22,478.5,16,-1.4,D,1402.7,0,7.726,2,0.11,128,60.89,-80.13782418,25.91275464,0,0,1,N,7.595767,63,63,11,5,5,224.914,0,9999.99,2.27,2.397,2,9,31.1,0,31.10000038,54.84,1568.29314,9/2/21,11:25:24,30.46,78.92,54.84,0.978,8.14,-68.6,-2.8,-4.6,-4596,47.9,2.66,13.2,
25.91272033,-80.1378895,48:39.9,9/2/21,11,0.402,198.53,-7.114278177,0.88,147.5,138.09,1.33,-4.4,33.3,0.01,2.25,2.26,89,22,478.5,16,-1.4,D,1403.7,0,7.565,2,0.11,128,59.72,-80.13782418,25.91275464,0,0,1,N,7.464193,65,65,11,5,5,224.914,0,9999.99,2.26,2.387,2,9,31.1,0,31.10000038,54.81,1568.26191,9/2/21,11:25:25,30.46,78.89,54.81,0.987,8.12,-67.3,-2.3,-4.1,-3455,47.9,2.66,13.2,
25.91271952,-80.13788798,48:40.9,9/2/21,10,0.346,198.53,-7.114278177,0.88,146.1,136.77,2.79,-0.27,33.3,0.01,2.25,2.26,89,22,478.5,16,-1.4,D,1403.7,0,7.481,2,0.13,174,58.54,-80.13782418,25.91275464,0,0,1,N,7.464193,74,74,11,5,5,58.59489,0,9999.99,2.26,2.387,2,9,31.1,0,31.10000038,54.82,1568.27255,9/2/21,11:25:26,30.46,78.9,54.82,0.974,8.14,-68.2,-1,-1.1,-680,47.9,2.66,13.2,
25.91271723,-80.13788605,48:41.9,9/2/21,9,0.582,198.53,-7.114278177,0.92,147.2,137.81,1.01,-5.5,33.2,0.01,2.25,2.26,89,22,478.5,16,-1.4,D,1403.7,0,7.457,2,0.21,174,56.09,-80.13782418,25.91275464,0,0,1,N,7.464193,64,64,11,5,5,56.19294,0,9999.99,2.27,2.397,2,9,31.1,0,31.10000038,54.86,1568.31419,9/2/21,11:25:27,30.46,78.95,54.86,0.993,8.16,-69.4,-1.6,-1.8,-1417,47.9,2.66,13.2,
25.91271398,-80.13788395,48:42.9,9/2/21,9,0.929,198.53,-7.114278177,0.92,147.7,138.28,0.59,-2.02,33.3,0,2.16,2.17,89,38,478.4,16,-2.4,D,818.9,0,7.495,2,0.47,174,52.9,-80.13782418,25.91275464,0,0,1,N,7.464193,61,61,11,5,5,53.09828,0,9999.99,2.17,2.297,2,9,31.1,0,31.10000038,54.87,1568.32387,9/2/21,11:25:28,30.46,78.96,54.87,1.037,8.16,-69.6,-4.6,-4.5,-3243,47.9,2.66,13.2,
25.91270861,-80.13788142,48:43.9,9/2/21,10,1.188,198.53,-7.114278177,0.92,144.5,135.26,0.58,-1.03,33.3,0,2.03,2.03,89,38,478.4,16,-2.4,D,818.9,0,7.68,2,0.76,174,48.2,-80.13782418,25.91275464,0,0,1,N,7.464193,60,60,11,5,5,48.5657,0,9999.99,2.04,2.167,2,9,31.1,0,31.10000038,55,1568.459,9/2/21,11:25:29,30.49,79.13,55,1.03,8.18,-70.8,-2.9,2,-1269,47.8,2.65,13.2,
25.91270419,-80.13787391,48:44.9,9/2/21,11,1.638,146.34,-7.114278177,0.88,138,129.16,1.32,1.7,33.4,0,1.9,1.9,89,38,478.4,16,-2.4,D,818.9,0,7.496,2,1.06,174,41.56,-80.13782418,25.91275464,0,0,1,N,7.464193,65,65,11,5,5,42.0778,0,9999.99,1.9,2.027,2,9,31.1,0,31.10000038,55.02,1568.4796,9/2/21,11:25:30,30.52,79.15,55.02,1.035,8.2,-71.9,-3.1,-4.6,-3582,47.9,2.66,13.2,
25.91269981,-80.13786352,48:45.9,9/2/21,10,1.988,129.5,-7.114278177,0.88,130.1,121.81,1.99,2.25,33.3,0,1.76,1.76,89,38,478.4,16,-2.4,D,818.9,0,7.256,2,1.29,174,32.84,-80.13782418,25.91275464,0,0,1,N,7.464193,69,69,11,5,5,33.40981,0,9999.99,1.77,1.897,2,9,31.1,0,31.10000038,55.09,1568.55263,9/2/21,11:25:31,30.56,79.23,55.09,1.018,8.21,-72.6,-3.4,-6.1,-4058,48.2,2.67,13.1,
25.91269496,-80.13785674,48:46.9,9/2/21,10,1.777,127.59,-7.114278177,0.92,120.8,113.19,2.48,1.04,33.3,0.01,1.76,1.77,89,40,478.4,16,-2.5,D,779.8,0,7.393,2,1.4,174,26.14,-80.13782418,25.91275464,0,0,1,N,7.464193,72,72,11,5,5,26.74422,0,9999.99,1.78,1.907,2,9,31.1,0,31.10000038,54.96,1568.41749,9/2/21,11:25:32,30.58,79.08,54.96,0.994,8.22,-73.2,-3.5,-3.5,-3146,48.6,2.69,13.2,
25.91269186,-80.13785112,48:47.9,9/2/21,10,1.474,124.14,-7.114278177,0.92,109.5,102.74,3.01,1.6,33.3,0.01,2.02,2.02,89,40,478.4,16,-2.5,D,779.8,0,7.482,2,1.47,174,21.1,-80.13782418,25.91275464,0,0,1,N,7.464193,75,75,11,5,5,21.81016,0,9999.99,2.04,2.167,2,9,31.1,0,31.10000038,55.16,1568.62604,9/2/21,11:25:33,30.55,79.32,55.16,0.981,8.22,-73.1,-3.7,-6.4,-3790,49.1,2.72,13.1,
25.91268976,-80.13784498,48:49.0,9/2/21,11,1.417,124.14,-7.114278177,0.92,100.2,94.1,2.67,0.99,33.3,0.01,2.17,2.18,89,40,478.4,16,-2.5,D,779.8,0,7.508,2,1.52,174,16.08,-80.13782418,25.91275464,0,0,1,N,7.464193,73,73,11,5,5,16.8809,0,9999.99,2.2,2.327,2,9,31.1,0,31.10000038,55.37,1568.84465,9/2/21,11:25:34,30.54,79.58,55.37,0.971,8.2,-72.3,-2.4,-3.6,-3067,49.5,2.74,13.2,
25.91269056,-80.13783628,48:49.9,9/2/21,11,1.619,103.39,-7.114278177,0.88,89.6,84.16,2.79,1.6,33.3,0.01,2.27,2.27,89,38,478.4,16,-2.4,D,824.2,0,7.228,2,1.53,174,9.64,-80.13782418,25.91275464,0,0,1,N,7.464193,74,74,11,5,5,10.27234,0,9999.99,2.29,2.417,2,9,31.1,0,31.10000038,55.39,1568.8652,9/2/21,11:25:35,30.54,79.61,55.39,0.969,8.19,-71.7,-2.2,-1.3,-3297,49.9,2.76,13,
25.91269153,-80.13782935,48:51.0,9/2/21,11,1.495,94.27,-7.114278177,0.88,79.3,74.38,2.29,1.31,33.3,0,2.34,2.34,89,38,478.4,16,-2.4,D,824.2,0,7.037,2,1.54,174,4.22,-80.13782418,25.91275464,0,0,1,N,0.1800545,71,71,11,5,5,5.115982,0,9999.99,2.36,2.487,2,9,31.1,0,31.10000038,55.4,1568.87531,9/2/21,11:25:36,30.54,79.63,55.4,0.973,8.17,-70.3,-2.9,-3.8,-3641,50.1,2.77,13.2,
25.91269325,-80.13782223,48:51.9,9/2/21,11,1.489,81.92,-7.114278177,0.88,69.6,65.03,2.7,1.41,33.4,0,2.5,2.5,89,38,478.4,16,-2.4,D,824.2,0,6.829,2,1.53,175,358.36,-80.13782418,25.91275464,0,0,1,N,0.8759607,73,73,11,5,5,0.1593116,0,9999.99,2.52,2.647,2,9,31.1,0,31.10000038,55.39,1568.86485,9/2/21,11:25:37,30.55,79.62,55.39,0.966,8.15,-68.9,-3,-4.3,-3338,50.2,2.77,13.1,
25.91269704,-80.13781482,48:53.0,9/2/21,11,1.575,70.55,-7.114278177,0.88,60.6,56.24,2.64,0.98,33.3,0,2.66,2.66,89,38,478.4,16,-2.4,D,824.2,1,11.173,2,1.62,175,136.96,-80.13773856,25.9126236,0,0,1,N,2.528083,73,73,11,250,250,132.0207,0,9999.99,2.68,2.807,2,9,31.1,0,31.10000038,55.34,1568.81284,9/2/21,11:25:38,30.54,79.55,55.34,0.96,8.14,-68.3,-3.5,-5.6,-2025,50.1,2.77,13.2,
25.91270205,-80.13780829,48:53.9,9/2/21,11,1.726,61.36,-7.114278177,0.88,57.5,53.18,1.98,13.2,33.4,0,2.81,2.81,89,40,478.4,16,-2.5,D,782.7,1,11.169,2,1.63,176,141.36,-80.13773856,25.9126236,0,0,1,N,1.681852,69,69,11,250,250,137.6856,0,9999.99,2.83,2.957,2,9,31.1,0,31.10000038,55.32,1568.79196,9/2/21,11:25:39,30.52,79.52,55.32,0.96,8.13,-67.6,-2.8,-2.6,-3768,49.9,2.76,13.1,
25.91270857,-80.1378017,48:54.9,9/2/21,11,1.74,50.96,-7.114278177,0.88,65.4,60.94,1.49,-2.8,33.3,0,2.83,2.83,89,40,478.4,16,-2.5,D,782.7,1,11.364,2,1.66,176,146.24,-80.13773856,25.9126236,0,0,1,N,0.763576,64,64,11,250,250,144.1052,0,9999.99,2.84,2.971187,2,9,31.1,0,31.10000038,55.31,1568.78143,9/2/21,11:25:40,30.49,79.51,55.31,0.978,8.12,-67,-3.2,-1.9,-1797,49.6,2.75,13.3,
25.91271305,-80.13779467,48:55.9,9/2/21,11,1.635,50.92,-7.114278177,0.88,72.9,68.23,2.02,4.04,33.3,0,2.96,2.96,89,40,478.4,16,-2.5,D,782.7,1,11.421,2,1.67,176,150.57,-80.13773856,25.9126236,0,0,1,N,0.0948999,69,69,11,250,250,150.2369,0,9999.99,2.97,3.097,2,9,31.1,0,31.10000038,55.4,1568.87485,9/2/21,11:25:41,30.46,79.62,55.4,0.994,8.1,-66.2,-2.9,0,-3122,49.3,2.73,13.3,
25.91271666,-80.13778846,48:57.0,9/2/21,11,1.628,53.17,-7.114278177,0.88,81.5,76.48,3.37,1.99,33.3,0,3.05,3.05,89,40,478.3,16,-2.5,D,788.6,1,11.489,2,1.65,177,154.25,-80.13773856,25.9126236,0,0,1,N,0.8504947,77,77,11,250,250,155.6258,0,9999.99,3.07,3.197,2,9,31.1,0,31.10000038,55.29,1568.76044,9/2/21,11:25:42,30.44,79.48,55.29,0.968,8.1,-65.8,-2.2,0.6,-1969,48.7,2.7,13.3,
25.91272012,-80.13778151,48:57.9,9/2/21,11,1.536,57.91,-7.114278177,0.83,92.4,86.8,3.87,4.11,33.3,0.01,3.07,3.08,89,40,478.3,16,-2.5,D,788.6,1,11.56,2,1.62,177,158.19,-80.13773856,25.9126236,0,0,1,N,1.6406,79,79,11,250,250,161.1461,0,9999.99,3.1,3.227,2,9,31.1,0,31.10000038,55.28,1568.75076,9/2/21,11:25:43,30.43,79.47,55.28,0.947,8.08,-65,-2.3,-3.4,-3008,48.1,2.67,12.9,
25.9127218,-80.1377739,48:59.0,9/2/21,11,1.556,69.99,-7.114278177,0.83,102.3,96.05,3.71,3.06,33.3,0.01,3.05,3.06,89,40,478.3,16,-2.5,D,788.6,1,11.477,2,1.6,178,162.06,-80.13773856,25.9126236,0,0,1,N,2.401666,79,79,11,250,250,166.2675,0,9999.99,3.08,3.207,2,9,31.1,0,31.10000038,55.32,1568.79249,9/2/21,11:25:44,30.41,79.51,55.32,0.954,8.08,-64.8,-3.4,-8.1,-2950,47.4,2.63,13.2,
25.91272174,-80.137767,48:59.9,9/2/21,11,1.526,78.72,-7.114278177,0.83,112.2,105.24,3.4,3.73,33.3,0.01,3.07,3.07,89,40,478.3,16,-2.5,D,788.6,1,11.278,2,1.62,178,165.39,-80.13773856,25.9126236,0,0,1,N,3.013382,77,77,11,250,250,170.1964,0,9999.99,3.1,3.227,2,9,31.1,0,31.10000038,55.27,1568.74039,9/2/21,11:25:45,30.41,79.46,55.27,0.968,8.1,-65.8,-1.8,-2.6,-2995,46.6,2.58,13.3,
25.91272074,-80.13775934,49:01.0,9/2/21,11,1.613,88.14,-7.114278177,0.83,122.2,114.49,3.77,3.27,33.3,0,3.08,3.08,89,43,478.3,15.9,-2.7,D,732.8,1,10.999,2,1.61,179,169.11,-80.13773856,25.9126236,0,0,1,N,3.630099,80,80,11,250,250,173.9637,0,9999.99,3.11,3.237,2,9,31.1,0,31.10000038,55.31,1568.78194,9/2/21,11:25:46,30.4,79.5,55.31,0.999,8.1,-66,-2.4,-8.9,-2348,45.8,2.54,13.1,
25.9127183,-80.13775133,49:02.0,9/2/21,11,1.565,95.5,-7.114278177,0.83,134,125.43,3.5,3.58,33.3,0,3.06,3.06,89,43,478.3,15.9,-2.7,D,732.8,1,10.608,2,1.57,179,173.08,-80.13773856,25.9126236,0,0,1,N,4.194003,78,78,11,250,250,177.2231,0,9999.99,3.09,3.217,2,9,31.1,0,31.10000038,55.26,1568.7296,9/2/21,11:25:47,30.39,79.44,55.26,0.982,8.09,-65.5,-2.1,-8.2,-3151,45,2.5,13.1,
25.91271494,-80.13774508,49:03.0,9/2/21,11,1.515,108.26,-7.114278177,0.83,144.1,134.89,3.79,4.62,33.3,0,3.08,3.08,89,43,478.3,15.9,-2.7,D,732.8,1,10.177,2,1.59,179,176.33,-80.13773856,25.9126236,0,0,1,N,4.559797,80,80,11,250,250,179.2388,0,9999.99,3.11,3.237,2,9,31.1,0,31.10000038,55.24,1568.70863,9/2/21,11:25:48,30.38,79.41,55.24,0.971,8.09,-65.4,-2,-1.9,-2300,44.3,2.46,13.1,
25.91271069,-80.13773988,49:04.0,9/2/21,11,1.525,115.76,-7.114278177,0.83,154.6,144.85,3.68,3.92,33.3,0,3.09,3.09,89,43,478.3,15.9,-2.7,D,732.8,1,9.685,2,1.61,180,179.22,-80.13773856,25.9126236,0,0,1,N,4.787737,79,79,11,250,250,180.4553,0,9999.99,3.12,3.247,2,9,31.1,0,31.10000038,55.26,1568.72942,9/2/21,11:25:49,30.37,79.44,55.26,0.968,8.09,-65.5,-2.5,-0.6,-4677,43.5,2.41,13.1,
25.91270435,-80.1377356,49:05.0,9/2/21,11,1.601,130.06,-7.114278177,0.83,165,154.89,3.54,4.74,33.3,0,3.09,3.09,89,45,478.3,15.9,-2.8,D,699.3,1,8.985,2,1.63,180,181.89,-80.13773856,25.9126236,0,0,1,N,4.818232,78,78,11,230,230,180.6167,0,9999.99,3.12,3.247,2,9,31.1,0,31.10000038,55.25,1568.71901,9/2/21,11:25:50,30.36,79.42,55.25,0.981,8.09,-65.2,-1.7,-5.4,-1735,42.7,2.37,13.2,
25.91269757,-80.13773236,49:06.0,9/2/21,11,1.595,139.85,-7.114278177,0.83,176.1,165.82,3.56,2.35,33.3,0,3.09,3.1,89,45,478.3,15.9,-2.8,D,699.3,1,8.248,2,1.61,181,184.31,-80.13773856,25.9126236,0,0,1,N,4.729946,81,81,11,190,190,180.1513,0,9999.99,3.13,3.257,2,9,31.1,0,31.10000038,55.25,1568.719,9/2/21,11:25:51,30.35,79.43,55.25,0.968,8.08,-65.1,-2.3,-10.5,-372,41.9,2.33,13.2,
25.91269048,-80.13773134,49:07.0,9/2/21,11,1.549,152.21,-7.114278177,0.83,183.2,172.92,3.43,0.68,33.3,0,3.09,3.09,89,45,478.3,15.9,-2.8,D,699.3,1,7.472,2,1.65,181,185.54,-80.13773856,25.9126236,0,0,1,N,4.429138,78,78,11,151,151,178.5274,0,9999.99,3.12,3.247,2,9,31.1,0,31.10000038,55.28,1568.75023,9/2/21,11:25:52,30.34,79.47,55.28,0.974,8.08,-64.9,-2.1,-3.1,-2073,41.2,2.29,13.2,
25.91268198,-80.13773149,49:08.0,9/2/21,11,1.812,166.57,-7.114278177,0.83,186.6,176.36,2.54,2.42,33.3,0,3.09,3.09,89,47,478.3,15.9,-2.9,D,674.6,1,6.531,2,1.73,182,186.21,-80.13773856,25.9126236,0,0,1,N,3.94557,72,72,11,125,125,175.8078,0,9999.99,3.12,3.247,2,9,31.1,0,31.10000038,55.29,1568.76056,9/2/21,11:25:53,30.34,79.48,55.29,0.974,8.08,-64.7,-3.2,-3.5,-954,40.5,2.25,13.2,
25.91267245,-80.13773211,49:09.0,9/2/21,11,2.012,175.62,-7.114278177,0.83,187,176.76,1.25,1.37,33.4,0,3.09,3.1,89,47,478.3,15.9,-2.9,D,674.6,2,21.137,2,1.82,182,152.09,-80.13763318,25.91250447,0,0,1,N,3.95849,65,65,11,58,58,159.6229,0,9999.99,3.12,3.247,2,9,31.1,0,31.10000038,55.3,1568.77076,9/2/21,11:25:54,30.33,79.49,55.3,0.98,8.08,-64.7,-1.9,-4.8,-2117,39.8,2.21,13.2,
25.91266281,-80.13773347,49:10.0,9/2/21,11,2.056,180.87,-7.114278177,0.83,182.7,172.42,0.99,4.49,33.4,0,3.08,3.08,89,47,478.3,15.9,-2.9,D,674.6,2,20.263,2,1.88,182,150.33,-80.13763318,25.91250447,0,0,1,N,3.180184,63,63,11,66,66,157.1803,0,9999.99,3.09,3.217,2,9,31.1,0,31.10000038,55.31,1568.78132,9/2/21,11:25:55,30.33,79.5,55.31,1.022,8.08,-64.6,-2.3,-6.5,-1398,39.1,2.17,13.1,
25.91265232,-80.13773293,49:11.0,9/2/21,11,2.149,182.36,-7.114278177,0.83,179.9,169.61,0.53,5.18,33.3,0,3.08,3.08,89,47,478.3,15.9,-2.9,D,674.6,2,19.231,2,1.99,182,148.75,-80.13763318,25.91250447,0,0,1,N,2.486098,60,60,11,69,69,155.0091,0,9999.99,3.09,3.217,2,9,31.1,0,31.10000038,55.33,1568.80214,9/2/21,11:25:56,30.33,79.53,55.33,1.053,8.08,-64.5,-2.8,-0.6,-1866,38.5,2.14,13.2,
25.91264138,-80.13773143,49:12.0,9/2/21,11,2.165,180.51,-7.114278177,0.83,175.8,165.52,0.45,5.83,33.3,0,3.08,3.08,89,49,478.3,15.9,-3.1,D,639.5,2,18.12,2,2.09,182,147.16,-80.13763318,25.91250447,0,0,1,N,1.846993,60,60,11,76,76,152.7452,0,9999.99,3.09,3.217,2,9,31.1,0,31.10000038,55.34,1568.81239,9/2/21,11:25:57,30.34,79.54,55.34,1.06,8.08,-64.6,-2.1,-2,-2839,37.9,2.1,13.1,
25.91263093,-80.13773059,49:13.0,9/2/21,11,2.131,177.58,-7.114278177,0.83,171.9,161.65,0.49,3.75,33.4,0,3.08,3.08,89,49,478.3,15.9,-3.1,D,639.5,2,17.108,2,2.12,182,145.28,-80.13763318,25.91250447,0,0,1,N,1.181507,60,60,11,79,79,149.6016,0,9999.99,3.08,3.207,2,9,31,0,31,55.33,1568.61624,9/2/21,11:25:58,30.34,79.52,55.33,1.054,8.07,-64.4,-2,-0.1,-2415,37.3,2.07,13.2,
25.91262284,-80.13772938,49:14.0,9/2/21,11,2.093,174.5,-7.114278177,0.83,168.5,158.31,1.01,5.39,33.4,0,3.05,3.05,89,49,478.3,15.9,-3.1,D,639.5,2,16.304,2,2.12,182,143.84,-80.13763318,25.91250447,0,0,1,N,0.7043356,63,63,11,80,80,146.5229,0,9999.99,3.06,3.187,2,9,31,0,31,55.29,1568.57459,9/2/21,11:25:59,30.34,79.47,55.29,1.039,8.07,-64.3,-2.5,-0.7,-1706,36.8,2.04,13,
25.91261273,-80.1377272,49:15.0,9/2/21,10,2.075,170.04,-7.114278177,0.92,166.3,156.16,0.91,4.38,33.4,0,3.05,3.05,89,49,478.3,15.9,-3,D,645.8,2,15.275,2,2.11,182,142,-80.13763318,25.91250447,0,0,1,N,0.1694891,61,61,11,72,72,142.7063,0,9999.99,3.07,3.197,2,9,31,0,31,55.28,1568.56418,9/2/21,11:26:00,30.33,79.47,55.28,1.049,8.07,-64,-2.4,-8.6,-2536,36.2,2.01,13.2,
25.91260278,-80.13772438,49:16.1,9/2/21,11,2.021,166.86,-7.114278177,0.92,162.5,152.46,1.39,3.32,33.3,0,3.05,3.05,89,49,478.3,15.9,-3,D,645.8,2,14.238,2,2.12,181,140.16,-80.13763318,25.91250447,0,0,1,N,0.3021656,65,65,11,74,74,139.3296,0,9999.99,3.06,3.187,2,9,31,0,31,55.5,1568.79332,9/2/21,11:26:01,30.34,79.73,55.5,1.052,8.08,-64.9,-3.6,-1.7,-791,35.7,1.98,13.2,
25.91259396,-80.13772112,49:17.1,9/2/21,11,2.059,163.79,-7.114278177,0.83,159,149.07,1.14,4.58,33.4,0,3.04,3.04,89,49,478.3,15.9,-3,D,645.8,2,13.281,2,2.13,181,138.53,-80.13763318,25.91250447,0,0,1,N,0.6670795,64,64,11,78,78,136.7259,0,9999.99,3.05,3.177,2,9,31,0,31,55.42,1568.71003,9/2/21,11:26:03,30.46,79.64,55.42,1.022,8.11,-66.4,-2.8,-0.6,-2251,35,1.94,13,
25.91258532,-80.13771689,49:18.1,9/2/21,11,1.984,160.11,-7.114278177,0.83,155.5,145.71,1.32,4.15,33.3,0,3.02,3.02,89,49,478.3,15.9,-3,D,645.8,2,12.285,2,2.11,181,137.04,-80.13763318,25.91250447,0,0,1,N,0.945767,65,65,11,83,83,134.7506,0,9999.99,3.03,3.157,2,9,31,0,31,55.42,1568.71003,9/2/21,11:26:03,30.46,79.64,55.42,1.022,8.11,-66.4,-2.8,-0.6,-2251,35,1.94,13,
25.91257709,-80.13771205,49:19.1,9/2/21,11,1.979,156.12,-7.114278177,0.83,152.2,142.56,1.41,4.38,33.3,0,3.04,3.04,89,47,478.2,15.9,-2.9,D,671.7,2,11.288,2,2.11,181,135.67,-80.13763318,25.91250447,0,0,1,N,1.14224,65,65,11,90,90,133.367,0,9999.99,3.05,3.177,2,9,31,0,31,55.36,1568.64766,9/2/21,11:26:04,30.49,79.57,55.36,1.02,8.11,-66.9,-3.5,-6.6,-3396,34.8,1.93,13.2,
25.91256964,-80.1377076,49:20.1,9/2/21,10,1.96,153.36,-7.114278177,0.92,149.3,139.8,1.27,5.54,33.3,0,3.05,3.05,89,47,478.2,15.9,-2.9,D,671.7,2,10.389,2,2.09,181,134.24,-80.13763318,25.91250447,0,0,1,N,1.315246,65,65,11,96,96,132.1564,0,9999.99,3.06,3.187,2,9,31,0,31,55.36,1568.64755,9/2/21,11:26:06,30.52,79.57,55.36,1.042,8.13,-67.9,-3.7,-6.3,-910,34.8,1.93,13.2,
25.91256192,-80.13770211,49:21.1,9/2/21,11,2.003,149.22,-7.114278177,0.92,147.6,138.19,1.03,4.12,33.4,0,3.06,3.06,89,47,478.2,15.9,-2.9,D,671.7,2,9.398,2,2.1,181,132.82,-80.13763318,25.91250447,0,0,1,N,1.425317,63,63,11,100,100,131.3909,0,9999.99,3.07,3.197,2,9,31,0,31,55.36,1568.64755,9/2/21,11:26:06,30.52,79.57,55.36,1.042,8.13,-67.9,-3.7,-6.3,-910,34.8,1.93,13.2,
25.91255402,-80.13769569,49:22.1,9/2/21,11,2.004,145.41,-7.114278177,0.92,145.7,136.39,0.85,6.15,33.3,0,3.07,3.07,89,47,478.2,15.9,-2.9,D,673,2,8.334,2,2.09,181,131.39,-80.13763318,25.91250447,0,0,1,N,1.471866,62,62,11,106,106,131.0682,0,9999.99,3.08,3.207,2,9,31,0,31,55.29,1568.57459,9/2/21,11:26:07,30.53,79.49,55.29,1.022,8.13,-68,-4.8,2,-2502,34.8,1.93,13.1,
25.91254689,-80.13768913,49:23.1,9/2/21,11,1.99,142.66,-7.114278177,0.92,144.4,135.17,0.87,4.76,33.4,0,3.09,3.09,89,47,478.2,15.9,-2.9,D,673,2,7.319,2,2.08,181,130.13,-80.13763318,25.91250447,0,0,1,N,1.455999,62,62,11,111,111,131.1776,0,9999.99,3.1,3.227,2,9,31.1,0,31.10000038,55.35,1568.82281,9/2/21,11:26:09,30.53,79.57,55.35,1.032,8.14,-68.6,-3.5,-3.5,-3312,35.1,1.94,13.1,
25.9125397,-80.13768258,49:24.1,9/2/21,11,1.988,141.38,-7.114278177,0.83,143.5,134.32,0.72,5.46,33.3,0,3.1,3.1,89,47,478.2,15.9,-2.9,D,673,2,6.305,2,2.06,181,128.41,-80.13763318,25.91250447,0,0,1,N,1.444293,61,61,11,115,115,131.259,0,9999.99,3.11,3.237,2,9,31.1,0,31.10000038,55.35,1568.82281,9/2/21,11:26:09,30.53,79.57,55.35,1.032,8.14,-68.6,-3.5,-3.5,-3312,35.1,1.94,13.1,
25.9125308,-80.13767608,49:25.2,9/2/21,10,1.983,139.64,-7.114278177,0.92,142.9,133.76,0.68,4.36,33.3,0,3.12,3.12,89,47,478.2,15.9,-2.9,D,673,2,5.195,2,2.1,181,124.31,-80.13763318,25.91250447,0,0,1,N,1.550361,61,61,11,114,114,130.5253,0,9999.99,3.13,3.257,2,9,31,0,31,55.35,1568.63707,9/2/21,11:26:10,30.55,79.56,55.35,1.028,8.15,-68.9,-3.8,-7.7,-4450,35.3,1.95,13.1,
25.91252334,-80.13767068,49:26.2,9/2/21,11,1.94,138.35,-7.114278177,0.92,143.6,134.42,0.32,3.79,33.3,0,3.12,3.12,89,47,478.2,15.9,-2.9,D,675,3,24.037,2,2.1,181,149.18,-80.13754756,25.91233769,0,0,1,N,2.574345,60,60,11,164,164,143.2806,0,9999.99,3.13,3.257,2,9,31.1,0,31.10000038,55.29,1568.76036,9/2/21,11:26:12,30.57,79.49,55.29,1.058,8.16,-69.4,-5.6,-4.7,-2025,35.7,1.97,13.2,
25.91251606,-80.1376643,49:27.2,9/2/21,11,2.064,138.28,-7.114278177,0.84,145.7,136.39,0.25,7.79,33.3,0,3.16,3.16,89,47,478.2,15.9,-2.9,D,675,3,23.015,2,2.09,181,149.52,-80.13754756,25.91233769,0,0,1,N,2.329204,59,59,11,155,155,143.3122,0,9999.99,3.16,3.287,2,9,31.1,0,31.10000038,55.29,1568.76036,9/2/21,11:26:13,30.56,79.49,55.29,1.05,8.16,-69.5,-3.9,-7.2,-2962,35.9,1.99,13.2,
25.91250957,-80.1376584,49:28.2,9/2/21,11,2.017,136.76,-7.114278177,0.84,147.1,137.72,0.56,3.68,33.3,0,3.18,3.18,89,47,478.2,15.9,-2.9,D,675,3,22.094,2,2.08,181,149.89,-80.13754756,25.91233769,0,0,1,N,2.08693,60,60,11,150,150,143.4238,0,9999.99,3.18,3.307,2,9,31.1,0,31.10000038,55.29,1568.76036,9/2/21,11:26:13,30.56,79.49,55.29,1.05,8.16,-69.5,-3.9,-7.2,-2962,35.9,1.99,13.2,
25.91250339,-80.1376544,49:29.2,9/2/21,11,1.988,139.35,-7.114278177,0.84,150.6,141.03,0.44,3.19,33.3,0,3.18,3.18,89,45,478.2,15.9,-2.8,D,693.1,3,21.299,2,2.05,181,149.89,-80.13754756,25.91233769,0,0,1,N,2.005665,60,60,11,134,134,142.746,0,9999.99,3.18,3.307,2,9,31.1,0,31.10000038,55.32,1568.79167,9/2/21,11:26:14,30.54,79.52,55.32,1.053,8.16,-69.4,-4.6,-3.7,-2463,36.1,2,13.2,
25.91249659,-80.13764867,49:30.2,9/2/21,11,1.984,140.76,-7.114278177,0.84,152.4,142.75,0.01,2.8,33.3,0,3.18,3.18,89,45,478.2,15.9,-2.8,D,693.1,3,20.358,2,2.04,181,150.22,-80.13754756,25.91233769,0,0,1,N,1.805212,58,58,11,130,130,142.5392,0,9999.99,3.18,3.307,2,9,31.1,0,31.10000038,55.32,1568.79159,9/2/21,11:26:16,30.55,79.52,55.32,1.069,8.16,-69.9,-4.1,-5.6,-4390,36.5,2.02,13.2,
25.91248915,-80.13764296,49:31.2,9/2/21,11,2,143.13,-7.114278177,0.84,153.4,143.7,0.37,2.49,33.3,0,3.2,3.2,89,45,478.2,15.9,-2.8,D,693.1,3,19.356,2,2.05,181,150.47,-80.13754756,25.91233769,0,0,1,N,1.631428,60,60,11,128,128,143.688,0,9999.99,3.2,3.327,2,9,31.1,0,31.10000038,55.32,1568.79159,9/2/21,11:26:16,30.55,79.52,55.32,1.069,8.16,-69.9,-4.1,-5.6,-4390,36.5,2.02,13.2,
25.91248106,-80.13763714,49:32.2,9/2/21,11,1.997,145.66,-7.114278177,0.84,154.5,144.75,0.66,4.12,33.3,0,3.21,3.21,89,45,478.2,15.9,-2.8,D,693.1,3,18.287,2,2.04,181,150.66,-80.13754756,25.91233769,0,0,1,N,1.475643,61,61,11,127,127,144.7633,0,9999.99,3.21,3.337,2,9,31.1,0,31.10000038,55.31,1568.78118,9/2/21,11:26:17,30.54,79.52,55.31,1.066,8.16,-69.6,-4,-2,-2918,36.6,2.03,13.1,
25.91247279,-80.13763184,49:33.2,9/2/21,11,1.995,147.18,-7.114278177,0.84,155.7,145.9,0.54,3.49,33.3,0,3.2,3.21,89,46,478.1,15.9,-2.9,D,684.9,3,17.226,2,2.03,181,150.7,-80.13754756,25.91233769,0,0,1,N,1.376255,60,60,11,125,125,145.4535,0,9999.99,3.21,3.337,2,9,31.1,0,31.10000038,55.31,1568.78143,9/2/21,11:26:19,30.56,79.51,55.31,1.065,8.17,-70,-3.9,1.6,-3948,36.9,2.04,12.9,
25.91246496,-80.1376272,49:34.2,9/2/21,11,2.034,148.31,-7.114278177,0.84,157.6,147.73,0.1,3.41,33.3,0,3.23,3.23,89,46,478.1,15.9,-2.9,D,684.9,3,16.24,2,2.03,181,150.63,-80.13754756,25.91233769,0,0,1,N,1.318836,60,60,11,122,122,145.8534,0,9999.99,3.23,3.357,2,9,31.1,0,31.10000038,55.31,1568.78143,9/2/21,11:26:19,30.56,79.51,55.31,1.065,8.17,-70,-3.9,1.6,-3948,36.9,2.04,12.9,
25.91245647,-80.13762212,49:35.2,9/2/21,11,1.992,150.34,-7.114278177,0.84,157.5,147.63,0.45,4.22,33.3,0,3.24,3.24,89,46,478.1,15.9,-2.9,D,684.9,3,15.167,2,2.06,181,150.55,-80.13754756,25.91233769,0,0,1,N,1.248571,60,60,11,122,122,146.3439,0,9999.99,3.24,3.367,2,9,31.1,0,31.10000038,55.31,1568.78121,9/2/21,11:26:20,30.56,79.52,55.31,1.058,8.17,-70.4,-4.9,-5.9,-2775,37,2.05,13.2,
25.91244792,-80.13761713,49:36.2,9/2/21,11,1.985,151.55,-7.114278177,0.84,158.1,148.21,0.68,3.99,33.3,0,3.27,3.27,89,46,478.1,15.9,-2.8,D,689.1,3,14.094,2,2.04,181,150.42,-80.13754756,25.91233769,0,0,1,N,1.192869,61,61,11,121,121,146.7337,0,9999.99,3.27,3.397,2,9,31.1,0,31.10000038,55.33,1568.80221,9/2/21,11:26:22,30.61,79.54,55.33,1.062,8.19,-71.4,-4.3,-5.1,-1395,37.3,2.06,13.3,
25.9124389,-80.13761227,49:37.2,9/2/21,11,1.997,153.23,-7.114278177,0.84,159.1,149.17,0.49,4.63,33.3,0,3.25,3.26,89,46,478.1,15.9,-2.8,D,689.1,3,12.983,2,2.05,181,150.1,-80.13754756,25.91233769,0,0,1,N,1.173311,60,60,11,117,117,146.8707,0,9999.99,3.26,3.387,2,9,31.1,0,31.10000038,55.33,1568.80221,9/2/21,11:26:22,30.61,79.54,55.33,1.062,8.19,-71.4,-4.3,-5.1,-1395,37.3,2.06,13.3,
25.91243056,-80.13760733,49:38.2,9/2/21,11,1.97,153.64,-7.114278177,0.84,159.7,149.75,0.71,3.84,33.3,0,3.26,3.26,89,46,478.1,15.9,-2.8,D,689.1,3,11.933,2,2.02,181,149.93,-80.13754756,25.91233769,0,0,1,N,1.11407,61,61,11,117,117,147.2866,0,9999.99,3.26,3.387,2,9,31.1,0,31.10000038,55.29,1568.76047,9/2/21,11:26:24,30.65,79.49,55.29,1.062,8.2,-72.3,-5,-3.3,921,37.7,2.08,13.1,
25.91242244,-80.13760339,49:39.2,9/2/21,11,1.929,154.85,-7.114278177,0.84,160.4,150.42,0.52,3.98,33.3,0,3.26,3.26,89,46,478.1,15.9,-2.8,D,689.1,3,10.954,2,2.02,181,149.35,-80.13754756,25.91233769,0,0,1,N,1.128983,60,60,11,114,114,147.1819,0,9999.99,3.27,3.397,2,9,31.1,0,31.10000038,55.29,1568.76047,9/2/21,11:26:24,30.65,79.49,55.29,1.062,8.2,-72.3,-5,-3.3,921,37.7,2.08,13.1,
25.91241311,-80.13759848,49:40.2,9/2/21,11,1.957,154.86,-7.114278177,0.84,160.7,150.71,0.4,3.82,33.3,0,3.27,3.27,89,46,478.1,15.9,-2.9,D,682.2,3,9.812,2,2.03,181,148.73,-80.13754756,25.91233769,0,0,1,N,1.118058,57,57,11,113,113,147.2585,0,9999.99,3.27,3.397,2,9,31.1,0,31.10000038,55.27,1568.73965,9/2/21,11:26:25,30.66,79.46,55.27,1.042,8.19,-71.7,-4.7,-6.6,-1488,38,2.1,13.1,
25.91240505,-80.13759399,49:41.2,9/2/21,11,2.02,154.91,-7.114278177,0.84,160.4,150.42,0.26,3.81,33.3,0,3.28,3.28,89,46,478.1,15.9,-2.9,D,682.2,3,8.813,2,2.02,181,148.2,-80.13754756,25.91233769,0,0,1,N,1.085793,59,59,11,115,115,147.4854,0,9999.99,3.28,3.407,2,9,31.1,0,31.10000038,55.23,1568.69802,9/2/21,11:26:26,30.67,79.42,55.23,1.048,8.19,-71.4,-3.8,-9,-402,38.2,2.11,13.1,
25.91239631,-80.13758944,49:42.2,9/2/21,11,2.029,156.36,-7.114278177,0.84,161.1,151.1,0.57,3.91,33.3,0,3.25,3.26,89,47,478.1,15.9,-2.9,D,674.8,3,7.748,2,2.04,181,147.28,-80.13754756,25.91233769,0,0,1,N,1.078388,60,60,11,113,113,147.5371,0,9999.99,3.26,3.387,2,9,31.1,0,31.10000038,55.21,1568.67722,9/2/21,11:26:27,30.68,79.39,55.21,1.058,8.19,-71.4,-5.8,-2.4,-2745,38.6,2.13,13.1,
25.91238734,-80.13758513,49:43.2,9/2/21,11,1.996,156.69,-7.114278177,0.84,161.1,151.1,0.81,4.2,33.3,0,3.24,3.25,89,47,478.1,15.9,-2.9,D,674.8,3,6.678,2,2.03,181,145.76,-80.13754756,25.91233769,0,0,1,N,1.105347,61,61,11,112,112,147.3483,0,9999.99,3.25,3.377,2,9,31.1,0,31.10000038,55.16,1568.62518,9/2/21,11:26:29,30.69,79.34,55.16,1.042,8.22,-73.5,-3.1,-5.4,-3481,39.3,2.17,13.2,
25.91237886,-80.13758144,49:44.2,9/2/21,11,2,156.96,-7.114278177,0.84,162.4,152.36,1.08,3.25,33.3,0,3.24,3.24,89,47,478.1,15.9,-2.9,D,674.8,3,5.696,2,2.03,181,143.49,-80.13754756,25.91233769,0,0,1,N,1.16522,63,63,11,108,108,146.9281,0,9999.99,3.25,3.377,2,9,31.1,0,31.10000038,55.16,1568.62518,9/2/21,11:26:29,30.69,79.34,55.16,1.042,8.22,-73.5,-3.1,-5.4,-3481,39.3,2.17,13.2,
25.91237,-80.13757742,49:45.3,9/2/21,11,2.027,157.61,-7.114278177,0.84,162.3,152.26,0.15,3.62,33.3,0,3.27,3.27,89,47,478,15.9,-2.9,D,675.2,3,4.673,2,2,181,140.26,-80.13754756,25.91233769,0,0,1,N,1.211981,58,58,11,104,104,146.5998,0,9999.99,3.27,3.397,2,9,31.1,0,31.10000038,55.13,1568.59417,9/2/21,11:26:30,30.7,79.3,55.13,1.041,8.23,-73.8,-4.6,-6.3,-2295,39.6,2.19,13.1,
25.91236172,-80.13757398,49:46.3,9/2/21,11,2.001,157.94,-7.114278177,0.84,161.7,151.68,0.86,3.31,33.3,0,3.26,3.26,89,47,478,15.9,-2.9,D,675.2,4,23.315,2,2.01,181,145.57,-80.13744218,25.91218878,0,0,1,N,0.785644,60,60,11,95,95,143.8645,0,9999.99,3.26,3.387,2,9,31.1,0,31.10000038,55.08,1568.54195,9/2/21,11:26:32,30.7,79.24,55.08,1.038,8.24,-74.6,-3.8,-4,-2557,40.4,2.24,13.1,
25.91235242,-80.13756899,49:47.3,9/2/21,11,2.056,157.1,-7.114278177,0.84,160.7,150.71,0.69,3.81,33.3,0,3.22,3.22,89,47,478,15.9,-2.9,D,675.2,4,22.18,2,2.03,181,145.12,-80.13744218,25.91218878,0,0,1,N,0.9230458,61,61,11,97,97,142.7398,0,9999.99,3.23,3.357,2,9,31.1,0,31.10000038,55.08,1568.54195,9/2/21,11:26:32,30.7,79.24,55.08,1.038,8.24,-74.6,-3.8,-4,-2557,40.4,2.24,13.1,
25.91234284,-80.13756393,49:48.3,9/2/21,11,2.045,156.72,-7.114278177,0.84,159.7,149.75,0.89,3.55,33.3,0,3.23,3.23,89,47,478,15.9,-2.9,D,675.2,4,21.018,2,2.06,181,144.59,-80.13744218,25.91218878,0,0,1,N,1.069035,62,62,11,93,93,141.2554,0,9999.99,3.24,3.367,2,9,31.1,0,31.10000038,55.07,1568.53149,9/2/21,11:26:33,30.71,79.22,55.07,1.053,8.25,-74.9,-5.4,-7.2,-3087,40.9,2.26,13.2,
25.9123343,-80.13755942,49:49.3,9/2/21,11,2.02,156.46,-7.114278177,0.84,158.4,148.5,0.93,3.57,33.3,0,3.23,3.24,89,47,478,15.9,-2.9,D,667.6,4,19.983,2,2.08,181,144.07,-80.13744218,25.91218878,0,0,1,N,1.201532,63,63,11,91,91,139.493,0,9999.99,3.24,3.367,2,9,31.1,0,31.10000038,55.04,1568.50034,9/2/21,11:26:35,30.71,79.18,55.04,1.051,8.26,-75.4,-4.7,-2.9,-2517,41.7,2.31,13.1,
25.91232555,-80.13755479,49:50.3,9/2/21,11,2.039,155.94,-7.114278177,0.84,156.2,146.38,0.86,4.82,33.3,0,3.24,3.25,89,47,478,15.9,-2.9,D,667.6,4,18.925,2,2.09,181,143.48,-80.13744218,25.91218878,0,0,1,N,1.335903,62,62,11,94,94,138.0397,0,9999.99,3.25,3.377,2,9,31.1,0,31.10000038,55.04,1568.50034,9/2/21,11:26:35,30.71,79.18,55.04,1.051,8.26,-75.4,-4.7,-2.9,-2517,41.7,2.31,13.1,
25.91231733,-80.1375499,49:51.3,9/2/21,11,1.998,154.8,-7.114278177,0.84,155.3,145.52,1.12,4.28,33.3,0,3.24,3.24,89,47,478,15.9,-2.9,D,667.6,4,17.9,2,2.09,181,142.99,-80.13744218,25.91218878,0,0,1,N,1.418969,64,64,11,95,95,137.4633,0,9999.99,3.25,3.377,2,9,31.2,0,31.10000038,55.04,1568.50036,9/2/21,11:26:36,30.71,79.19,55.04,1.041,8.26,-75.5,-5.2,-6.7,-2269,42.1,2.33,13.2,
25.91230984,-80.13754485,49:52.3,9/2/21,11,2.025,152.58,-7.114278177,0.84,152.5,142.84,1.55,4.48,33.3,0,3.22,3.22,89,47,478,15.9,-2.9,D,663.4,4,16.931,2,2.09,181,142.66,-80.13744218,25.91218878,0,0,1,N,1.44858,64,64,11,104,104,137.2588,0,9999.99,3.23,3.357,2,9,31.2,0,31.20000076,55.06,1568.70667,9/2/21,11:26:37,30.71,79.21,55.06,1.038,8.26,-75.7,-4.2,-4.2,-2224,42.6,2.35,13.2,
25.91230154,-80.13753907,49:53.3,9/2/21,11,2.044,150.79,-7.114278177,0.84,151.2,141.61,0.76,5.13,33.3,0,3.26,3.26,89,47,478,15.9,-2.9,D,663.4,4,15.846,2,2.05,181,142.3,-80.13744218,25.91218878,0,0,1,N,1.457002,62,62,11,109,109,137.2001,0,9999.99,3.27,3.397,2,9,31.1,0,31.20000076,55.07,1568.71701,9/2/21,11:26:38,30.72,79.22,55.07,1.039,8.26,-75.9,-4.6,-5.2,-1153,42.9,2.37,13.2,
25.91229395,-80.13753341,49:54.3,9/2/21,11,2.049,148.9,-7.114278177,0.84,150,140.46,1.13,5.48,33.3,0,3.25,3.25,89,47,478,15.9,-2.9,D,663.4,4,14.833,2,2.06,181,142.04,-80.13744218,25.91218878,0,0,1,N,1.434071,64,64,11,115,115,137.3594,0,9999.99,3.26,3.387,2,9,31.2,0,31.10000038,55.12,1568.58354,9/2/21,11:26:40,30.73,79.29,55.12,1.039,8.2,-72.1,-4.2,-5.4,-1345,43.6,2.41,13.2,
25.91228537,-80.13752657,49:55.3,9/2/21,11,2.048,147.01,-7.114278177,0.84,149.3,139.8,0.97,5.71,33.3,0,3.26,3.26,89,47,478,15.9,-2.9,D,663.4,4,13.66,2,2.08,181,141.84,-80.13744218,25.91218878,0,0,1,N,1.375381,63,63,11,119,119,137.7669,0,9999.99,3.27,3.397,2,9,31.2,0,31.10000038,55.12,1568.58354,9/2/21,11:26:40,30.73,79.29,55.12,1.039,8.2,-72.1,-4.2,-5.4,-1345,43.6,2.41,13.2,
25.912279,-80.13752095,49:56.3,9/2/21,11,2.024,144.87,-7.114278177,0.84,148.5,139.04,1.08,5.19,33.3,0,3.27,3.27,89,47,477.9,15.9,-2.9,D,670.7,4,12.756,2,2.05,181,141.86,-80.13744218,25.91218878,0,0,1,N,1.282025,61,61,11,123,123,138.4176,0,9999.99,3.28,3.407,2,9,31.2,0,31.20000076,55.13,1568.77921,9/2/21,11:26:41,30.73,79.3,55.13,1.042,8.2,-71.9,-4.9,-3.2,-2820,44,2.43,13.1,
25.91227079,-80.13751385,49:57.3,9/2/21,11,1.982,143.51,-7.114278177,0.84,148.6,139.14,0.4,5.71,33.3,0,3.27,3.27,89,47,477.9,15.9,-2.9,D,670.7,4,11.599,2,2,181,141.83,-80.13744218,25.91218878,0,0,1,N,1.17204,61,61,11,129,129,139.1873,0,9999.99,3.28,3.407,2,9,31.2,0,31.20000076,55.11,1568.75839,9/2/21,11:26:43,30.73,79.28,55.11,1.037,8.19,-71.7,-4.4,-5.5,-2032,44.6,2.47,12.9,
25.91226421,-80.13750786,49:58.3,9/2/21,11,1.966,141.58,-7.114278177,0.84,148.9,139.42,0.69,3.28,33.3,0,3.3,3.3,89,47,477.9,15.9,-2.9,D,670.7,4,10.654,2,2.02,181,141.93,-80.13744218,25.91218878,0,0,1,N,1.060375,61,61,11,129,129,139.9715,0,9999.99,3.31,3.437,2,9,31.2,0,31.20000076,55.11,1568.75839,9/2/21,11:26:43,30.73,79.28,55.11,1.037,8.19,-71.7,-4.4,-5.5,-2032,44.6,2.47,12.9,
25.91225662,-80.1375014,49:59.3,9/2/21,11,1.951,141.71,-7.114278177,0.84,150.4,140.84,0.6,3.37,33.3,0,3.28,3.28,89,47,477.9,15.9,-2.9,D,674,4,9.591,2,2,181,141.86,-80.13744218,25.91218878,0,0,1,N,0.9647163,61,61,11,126,126,140.646,0,9999.99,3.29,3.417,2,9,31.2,0,31.20000076,55.1,1568.74794,9/2/21,11:26:44,30.73,79.27,55.1,1.044,8.19,-71.7,-4.4,-5.9,-1973,44.9,2.48,13.2,
25.91224988,-80.13749554,50:00.3,9/2/21,11,1.963,142.06,-7.114278177,0.84,151.2,141.61,0.11,3.23,33.4,0,3.33,3.33,89,47,477.9,15.9,-2.9,D,674,4,8.64,2,2.04,181,141.85,-80.13744218,25.91218878,0,0,1,N,0.8698967,60,60,11,128,128,141.3164,0,9999.99,3.33,3.457,2,9,31.2,0,31.20000076,55.23,1568.88314,9/2/21,11:26:46,30.72,79.42,55.23,1.042,8.2,-71.8,-4.1,-8.1,-1598,45.5,2.51,13.2,
25.91224275,-80.1374902,50:01.3,9/2/21,11,2.004,143.84,-7.114278177,0.84,152.2,142.56,0.35,2.53,33.4,0,3.33,3.33,89,47,477.9,15.9,-2.9,D,674,4,7.687,2,2.04,181,141.33,-80.13744218,25.91218878,0,0,1,N,0.8422112,61,61,11,126,126,141.5125,0,9999.99,3.34,3.467,2,9,31.2,0,31.20000076,55.23,1568.88314,9/2/21,11:26:46,30.72,79.42,55.23,1.042,8.2,-71.8,-4.1,-8.1,-1598,45.5,2.51,13.2,
25.91223536,-80.13748521,50:02.3,9/2/21,11,1.949,145.38,-7.114278177,0.84,152.8,143.13,0.57,3.04,33.3,0,3.35,3.35,89,47,477.9,15.9,-2.9,D,674,4,6.734,2,2.04,181,140.28,-80.13744218,25.91218878,0,0,1,N,0.8616542,61,61,11,121,121,141.3746,0,9999.99,3.36,3.487,2,9,31.2,0,31.20000076,55.22,1568.87278,9/2/21,11:26:47,30.72,79.41,55.22,1.043,8.22,-73.1,-3.8,-5.2,-4841,45.8,2.53,13,
25.91222731,-80.13748044,50:03.3,9/2/21,11,1.958,147.83,-7.114278177,0.84,152.7,143.03,0.64,4.11,33.4,0,3.34,3.34,89,46,477.9,15.9,-2.9,D,683.7,4,5.744,2,2.04,181,138.23,-80.13744218,25.91218878,0,0,1,N,0.9392927,60,60,11,117,117,140.8259,0,9999.99,3.34,3.467,2,9,31.2,0,31.20000076,55.21,1568.86234,9/2/21,11:26:49,30.72,79.4,55.21,1.057,8.22,-73.2,-3.4,-4,-1221,46.1,2.55,13.3,
25.91221904,-80.13747533,50:04.3,9/2/21,11,1.976,147.87,-7.114278177,0.84,153.6,143.89,0.53,3.26,33.4,0,3.34,3.34,89,46,477.9,15.9,-2.9,D,683.7,5,25.969,1,2.06,176,142.44,-80.13731704,25.91203391,0,0,1,N,0.7028999,58,58,11,116,116,141.0332,0,9999.99,3.34,3.467,2,9,31.2,0,31.20000076,55.24,1568.89354,9/2/21,11:26:50,30.72,79.43,55.24,1.034,8.22,-73.2,-5,-7.6,-3351,46.3,2.55,13.3,
25.91221064,-80.13747039,50:05.3,9/2/21,11,2.001,148.15,-7.114278177,0.84,154.8,145.04,0.3,1.8,33.3,0,3.35,3.35,89,46,477.9,15.9,-2.9,D,683.7,5,24.928,1,2.08,172,142.03,-80.13731704,25.91203391,0,0,1,N,0.8512512,59,59,11,107,107,140.0787,0,9999.99,3.35,3.477,2,9,31.2,0,31.20000076,55.21,1568.86234,9/2/21,11:26:51,30.72,79.4,55.21,1.042,8.22,-73.3,-3.9,-4.4,-673,46.4,2.56,13.1,
25.91220229,-80.13746497,50:06.3,9/2/21,11,1.95,148.56,-7.114278177,0.84,154.3,144.56,0.43,2.14,33.3,0,3.38,3.38,89,46,477.9,15.9,-2.9,D,683.7,5,23.863,1,2.04,167,141.68,-80.13731704,25.91203391,0,0,1,N,0.9590386,60,60,11,105,105,139.1051,0,9999.99,3.38,3.507,2,9,31.2,0,31.20000076,55.21,1568.86234,9/2/21,11:26:51,30.72,79.4,55.21,1.042,8.22,-73.3,-3.9,-4.4,-673,46.4,2.56,13.1,
25.91219515,-80.13746083,50:07.3,9/2/21,11,1.875,149.93,-7.114278177,0.84,153.7,143.99,0.15,0.83,33.3,0,3.38,3.38,89,37,477.8,15.9,-2.3,D,845.5,5,22.984,1,1.96,167,141.27,-80.13731704,25.91203391,0,0,1,N,1.09194,59,59,11,101,101,137.8558,0,9999.99,3.38,3.507,2,9,31.2,0,31.20000076,55.24,1568.89376,9/2/21,11:26:52,30.72,79.43,55.24,1.042,8.22,-73.2,-4.1,-2.2,-1467,46.4,2.56,13.3,
25.91218845,-80.13745669,50:08.3,9/2/21,11,1.811,150.68,-7.114278177,0.84,152.7,143.03,0.4,0.34,33.3,0,3.37,3.37,89,37,477.8,15.9,-2.3,D,845.5,5,22.144,1,1.92,163,140.9,-80.13731704,25.91203391,0,0,1,N,1.199376,59,59,11,101,101,136.5186,0,9999.99,3.37,3.497,2,9,31.2,0,31.20000076,55.21,1568.86242,9/2/21,11:26:54,30.72,79.4,55.21,1.033,8.22,-73,-3.7,-7.1,-307,46.5,2.57,13.2,
25.91218124,-80.13745257,50:09.3,9/2/21,11,1.668,151.19,-7.114278177,0.84,152.1,142.46,1.08,-0.32,33.3,0,3.38,3.38,89,37,477.8,15.9,-2.3,D,845.5,5,21.263,1,1.82,160,140.39,-80.13731704,25.91203391,0,0,1,N,1.337266,63,63,11,96,96,134.5887,0,9999.99,3.39,3.517,2,9,31.2,0,31.20000076,55.18,1568.83117,9/2/21,11:26:55,30.72,79.37,55.18,1.023,8.22,-73.1,-3.5,-1.9,-2420,46.5,2.57,13,
25.91217561,-80.13744908,50:10.3,9/2/21,11,1.583,150.51,-7.114278177,0.84,150.7,141.13,1.62,-0.54,33.3,0,3.38,3.38,89,28,477.8,16,-1.7,D,1104.8,5,20.559,1,1.72,156,140.03,-80.13731704,25.91203391,0,0,1,N,1.425563,67,67,11,98,98,133.8911,0,9999.99,3.39,3.517,2,9,31.2,0,31.20000076,55.18,1568.83117,9/2/21,11:26:55,30.72,79.37,55.18,1.023,8.22,-73.1,-3.5,-1.9,-2420,46.5,2.57,13,
25.91217101,-80.13744587,50:11.3,9/2/21,11,1.337,149.89,-7.114278177,0.84,148.1,138.66,1.39,-1.36,33.3,0.01,3.38,3.39,89,28,477.8,16,-1.7,D,1104.8,5,19.961,1,1.57,154,139.8,-80.13731704,25.91203391,0,0,1,N,1.468774,65,65,11,105,105,133.5897,0,9999.99,3.39,3.517,2,9,31.2,0,31.20000076,55.22,1568.87357,9/2/21,11:26:56,30.72,79.41,55.22,1.003,8.21,-73,-5,-3.1,-1642,46.5,2.57,13.3,
25.91216633,-80.13744246,50:12.3,9/2/21,11,1.249,148.13,-7.114278177,0.84,146.4,137.06,1.14,-1.7,33.3,0,3.41,3.41,89,28,477.8,16,-1.7,D,1104.8,5,19.343,1,1.45,153,139.57,-80.13731704,25.91203391,0,0,1,N,1.503423,65,65,11,113,113,133.3472,0,9999.99,3.42,3.547,2,9,31.2,0,31.20000076,55.2,1568.85256,9/2/21,11:26:58,30.72,79.39,55.2,0.969,8.22,-73.1,-4.6,-4.9,-1434,46.6,2.57,13.2,
25.91216186,-80.13743865,50:13.3,9/2/21,11,1.15,146.28,-7.114278177,0.84,144.8,135.55,1.62,-1.59,33.3,0,3.4,3.4,89,28,477.8,16,-1.7,D,1104.8,5,18.718,1,1.32,153,139.47,-80.13731704,25.91203391,0,0,1,N,1.487355,67,67,11,119,119,133.4592,0,9999.99,3.41,3.537,2,9,31.2,0,31.20000076,55.2,1568.85256,9/2/21,11:26:58,30.72,79.39,55.2,0.969,8.22,-73.1,-4.6,-4.9,-1434,46.6,2.57,13.2,
25.91215816,-80.13743521,50:14.3,9/2/21,11,1.135,143.06,-7.114278177,0.84,143.9,134.7,1.42,-2.05,33.3,0,3.4,3.4,89,25,477.8,16,-1.5,D,1242.8,5,18.182,1,1.24,152,139.45,-80.13731704,25.91203391,0,0,1,N,1.451201,66,66,11,123,123,133.709,0,9999.99,3.41,3.537,2,9,31.2,0,31.20000076,55.2,1568.85237,9/2/21,11:27:00,30.72,79.38,55.2,0.982,8.22,-73.1,-2.8,-4,-3161,46.6,2.57,13.2,
25.91215503,-80.13743212,50:15.3,9/2/21,11,0.988,141.31,-7.114278177,0.84,143.3,134.13,1.08,-1.93,33.4,0,3.42,3.42,89,25,477.8,16,-1.5,D,1242.8,5,17.716,1,1.17,152,139.48,-80.13731704,25.91203391,0,0,1,N,1.404846,63,63,11,126,126,134.0306,0,9999.99,3.43,3.557,2,9,31.2,0,31.20000076,55.2,1568.85237,9/2/21,11:27:00,30.72,79.38,55.2,0.982,8.22,-73.1,-2.8,-4,-3161,46.6,2.57,13.2,
25.91215162,-80.13742844,50:16.3,9/2/21,11,0.934,138.16,-7.114278177,0.84,142.5,133.38,1.15,-2.71,33.3,0,3.42,3.42,89,25,477.8,16,-1.5,D,1242.8,5,17.189,1,1.12,152,139.59,-80.13731704,25.91203391,0,0,1,N,1.334002,64,64,11,132,132,134.524,0,9999.99,3.43,3.557,2,9,31.2,0,31.20000076,55.19,1568.84162,9/2/21,11:27:01,30.72,79.37,55.19,0.98,8.22,-73.3,-2.8,-4.1,-2735,46.6,2.57,13.1,
25.91214837,-80.13742474,50:17.3,9/2/21,11,0.987,138.43,-7.114278177,0.84,142.9,133.76,1.2,-1.96,33.3,0,3.45,3.45,89,25,477.7,16,-1.5,D,1254.5,5,16.674,1,1.06,152,139.76,-80.13731704,25.91203391,0,0,1,N,1.245324,64,64,11,133,133,135.1423,0,9999.99,3.46,3.587,2,9,31.2,0,31.20000076,55.18,1568.83127,9/2/21,11:27:03,30.72,79.36,55.18,0.969,8.22,-73.2,-3.8,-9.3,-2167,46.6,2.57,13.1,
25.91214544,-80.13742188,50:18.3,9/2/21,11,0.958,135.91,-7.114278177,0.84,142.2,133.1,1.24,-2,33.3,0,3.46,3.46,89,25,477.7,16,-1.5,D,1254.5,5,16.24,1,1.06,152,139.79,-80.13731704,25.91203391,0,0,1,N,1.204262,64,64,11,135,135,135.4298,0,9999.99,3.47,3.597,2,9,31.2,0,31.20000076,55.18,1568.83127,9/2/21,11:27:03,30.72,79.36,55.18,0.969,8.22,-73.2,-3.8,-9.3,-2167,46.6,2.57,13.1,
25.91214205,-80.13741892,50:19.3,9/2/21,11,0.922,137.84,-7.114278177,0.84,142.5,133.38,1.35,-2.92,33.3,0,3.46,3.46,89,25,477.7,16,-1.5,D,1254.5,5,15.762,1,1.02,152,139.72,-80.13731704,25.91203391,0,0,1,N,1.18728,65,65,11,136,136,135.5489,0,9999.99,3.47,3.597,2,9,31.2,0,31.20000076,55.21,1568.86258,9/2/21,11:27:04,30.72,79.39,55.21,0.973,8.22,-73.1,-4.3,-6.2,-2239,46.6,2.57,13.2,
25.91213885,-80.13741596,50:20.3,9/2/21,11,0.926,138.2,-7.114278177,0.84,142.3,133.19,1.34,-2.37,33.3,0,3.44,3.44,89,25,477.7,16,-1.5,D,1254.5,5,15.299,1,1,152,139.71,-80.13731704,25.91203391,0,0,1,N,1.156474,65,65,11,138,138,135.765,0,9999.99,3.45,3.577,2,9,31.2,0,31.20000076,55.19,1568.84187,9/2/21,11:27:06,30.72,79.37,55.19,0.984,8.22,-73.4,-4.8,-1,-1861,46.6,2.57,13.2,
25.91213559,-80.13741275,50:21.3,9/2/21,11,0.944,136.64,-7.114278177,0.84,142.1,133.01,1.2,-2.22,33.3,0,3.44,3.44,89,25,477.7,16,-1.5,D,1248.9,5,14.815,1,0.98,152,139.74,-80.13731704,25.91203391,0,0,1,N,1.108111,64,64,11,139,139,136.1046,0,9999.99,3.45,3.577,2,9,31.2,0,31.20000076,55.19,1568.84187,9/2/21,11:27:06,30.72,79.37,55.19,0.984,8.22,-73.4,-4.8,-1,-1861,46.6,2.57,13.2,
25.91213239,-80.13740918,50:22.3,9/2/21,11,0.958,134.61,-7.114278177,0.84,142,132.91,1.35,-2.07,33.3,0,3.49,3.49,89,25,477.7,16,-1.5,D,1248.9,5,14.312,1,0.96,152,139.92,-80.13731704,25.91203391,0,0,1,N,1.027736,65,65,11,142,142,136.6701,0,9999.99,3.5,3.627,2,9,31.2,0,31.20000076,55.18,1568.8312,9/2/21,11:27:07,30.72,79.36,55.18,0.994,8.22,-73.4,-3,-2.6,-2276,46.5,2.57,13.1,
25.91212888,-80.13740577,50:23.3,9/2/21,11,0.92,134.49,-7.114278177,0.84,142.8,133.66,1.2,-2.66,33.3,0,3.54,3.54,89,25,477.7,16,-1.5,D,1248.9,5,13.794,1,0.95,152,139.96,-80.13731704,25.91203391,0,0,1,N,0.9839518,64,64,11,140,140,136.9786,0,9999.99,3.55,3.677,2,9,31.2,0,31.20000076,55.16,1568.81036,9/2/21,11:27:09,30.71,79.33,55.16,0.98,8.23,-73.8,-3.4,-2,-3794,46.4,2.56,13.1,
25.91212547,-80.13740231,50:24.3,9/2/21,11,0.901,135.72,-7.114278177,0.84,143.5,134.32,1.11,-2.75,33.2,0,3.48,3.48,89,25,477.7,16,-1.5,D,1249.7,5,13.281,1,0.93,152,140.05,-80.13731704,25.91203391,0,0,1,N,0.9257758,64,64,11,139,139,137.3895,0,9999.99,3.49,3.617,2,9,31.2,0,31.20000076,55.17,1568.82075,9/2/21,11:27:10,30.71,79.34,55.17,0.988,8.23,-73.6,-2.1,-5.7,-774,46.4,2.56,13.2,
25.91212248,-80.13739961,50:25.3,9/2/21,11,0.857,137.34,-7.114278177,0.84,144.1,134.89,1.23,-2.64,33.2,0,3.49,3.49,89,25,477.7,16,-1.5,D,1249.7,5,12.852,1,0.93,152,140.02,-80.13731704,25.91203391,0,0,1,N,0.9007925,64,64,11,138,138,137.5658,0,9999.99,3.5,3.627,2,9,31.2,0,31.20000076,55.17,1568.82075,9/2/21,11:27:10,30.71,79.34,55.17,0.988,8.23,-73.6,-2.1,-5.7,-774,46.4,2.56,13.2,
25.91211905,-80.13739643,50:26.3,9/2/21,11,0.885,139.09,-7.114278177,0.84,144.3,135.07,1.25,-2.57,33.2,0,3.52,3.52,89,25,477.7,16,-1.5,D,1249.7,5,12.356,1,0.91,152,140.01,-80.13731704,25.91203391,0,0,1,N,0.8672972,65,65,11,138,138,137.803,0,9999.99,3.53,3.657,2,9,31.2,0,31.20000076,55.16,1568.81053,9/2/21,11:27:11,30.7,79.33,55.16,0.992,8.22,-73.3,-3.3,0,-3941,46.3,2.56,13,
25.91211579,-80.13739345,50:27.4,9/2/21,11,0.915,138.45,-7.114278177,0.84,145.3,136.02,1.29,-2.57,33.3,0,3.49,3.49,89,25,477.7,16,-1.5,D,1249.7,5,11.887,1,0.91,152,139.99,-80.13731704,25.91203391,0,0,1,N,0.8371632,65,65,11,135,135,138.0165,0,9999.99,3.5,3.627,2,9,31.2,0,31.20000076,55.16,1568.8105,9/2/21,11:27:12,30.7,79.33,55.16,1.002,8.2,-72,-3.8,-1.7,-2068,46.2,2.55,13.2,
25.9121122,-80.13739013,50:28.4,9/2/21,11,0.878,136.33,-7.114278177,0.84,145.6,136.3,1.39,-2.98,33.3,0,3.51,3.51,89,25,477.7,16,-1.5,D,1244.9,5,11.368,1,0.91,152,139.98,-80.13731704,25.91203391,0,0,1,N,0.8021185,65,65,11,135,135,138.2647,0,9999.99,3.52,3.647,2,9,31.2,0,31.20000076,55.15,1568.79998,9/2/21,11:27:13,30.7,79.32,55.15,0.988,8.19,-71.5,-3.9,-3.4,-3989,46.1,2.54,13.2,
25.91210918,-80.13738733,50:29.4,9/2/21,11,0.832,138.74,-7.114278177,0.84,146.4,137.06,1.21,-2.43,33.3,0,3.53,3.53,89,25,477.7,16,-1.5,D,1244.9,5,10.93,1,0.91,152,139.97,-80.13731704,25.91203391,0,0,1,N,0.7723501,64,64,11,133,133,138.4758,0,9999.99,3.54,3.667,2,9,31.2,0,31.20000076,55.15,1568.80017,9/2/21,11:27:15,30.69,79.32,55.15,0.98,8.2,-72.3,-3.3,-6,-2547,45.7,2.52,13.1,
25.91210556,-80.1373841,50:30.4,9/2/21,11,0.918,139.23,-7.114278177,0.84,146.3,136.96,1.32,-2.49,33.3,0,3.51,3.51,89,25,477.7,16,-1.5,D,1244.9,5,10.415,1,0.91,152,139.91,-80.13731704,25.91203391,0,0,1,N,0.7501571,65,65,11,134,134,138.6334,0,9999.99,3.52,3.647,2,9,31.2,0,31.20000076,55.15,1568.80017,9/2/21,11:27:15,30.69,79.32,55.15,0.98,8.2,-72.3,-3.3,-6,-2547,45.7,2.52,13.1,
25.91210242,-80.13738096,50:31.4,9/2/21,11,0.917,139.59,-7.114278177,0.84,146.8,137.43,0.98,-3.16,33.3,0,3.52,3.52,89,25,477.6,16,-1.5,D,1243.3,5,9.945,1,0.92,152,140,-80.13731704,25.91203391,0,0,1,N,0.7001187,63,63,11,133,133,138.9888,0,9999.99,3.53,3.657,2,9,31.2,0,31.20000076,55.13,1568.77915,9/2/21,11:27:16,30.68,79.3,55.13,0.955,8.21,-72.4,-3.7,-2.8,-400,45.5,2.51,13.2,
25.91209969,-80.13737891,50:32.4,9/2/21,11,0.881,140.95,-7.114278177,0.84,147.5,138.09,1.27,-2.67,33.3,0,3.55,3.55,89,25,477.6,16,-1.5,D,1243.3,5,9.581,1,0.93,152,139.77,-80.13731704,25.91203391,0,0,1,N,0.7116305,65,65,11,131,131,138.9071,0,9999.99,3.56,3.687,2,9,31.2,0,31.20000076,55.15,1568.80008,9/2/21,11:27:17,30.68,79.32,55.15,0.986,8.21,-72.6,-3.2,-6.8,-3136,45.3,2.5,13.2,
25.91209582,-80.13737527,50:33.4,9/2/21,11,0.91,138.51,-7.114278177,0.84,147.5,138.09,1.28,-3.13,33.3,0,3.53,3.53,89,25,477.6,16,-1.5,D,1243.3,5,9.016,1,0.92,152,139.77,-80.13731704,25.91203391,0,0,1,N,0.6708455,65,65,11,131,131,139.1969,0,9999.99,3.54,3.667,2,9,31.2,0,31.20000076,55.14,1568.78965,9/2/21,11:27:19,30.67,79.3,55.14,0.984,8.21,-72.5,-4.2,-3,-1817,45,2.49,13.1,
25.91209256,-80.13737286,50:34.5,9/2/21,11,0.901,141.62,-7.114278177,0.84,148.2,138.76,1.4,-2.62,33.3,0,3.54,3.54,89,25,477.6,16,-1.5,D,1243.3,5,8.584,1,0.91,152,139.44,-80.13731704,25.91203391,0,0,1,N,0.6875213,64,64,11,129,129,139.0784,0,9999.99,3.55,3.677,2,9,31.2,0,31.20000076,55.13,1568.77947,9/2/21,11:27:20,30.67,79.3,55.13,0.993,8.21,-72.9,-2.9,-7.1,-2033,44.8,2.48,13.2,
25.9120892,-80.13737019,50:35.4,9/2/21,11,0.858,141.81,-7.114278177,0.84,148.6,139.14,1.03,-2.81,33.3,0,3.55,3.55,89,25,477.6,16,-1.5,D,1267.8,5,8.127,1,0.92,152,139.15,-80.13731704,25.91203391,0,0,1,N,0.6919091,63,63,11,127,127,139.0474,0,9999.99,3.56,3.687,2,9,31.2,0,31.20000076,55.13,1568.77947,9/2/21,11:27:20,30.67,79.3,55.13,0.993,8.21,-72.9,-2.9,-7.1,-2033,44.8,2.48,13.2,
25.91208571,-80.13736757,50:36.4,9/2/21,11,0.926,143.48,-7.114278177,0.84,149,139.52,1.25,-2.81,33.4,0,3.55,3.55,89,25,477.6,16,-1.5,D,1267.8,5,7.663,1,0.92,152,138.74,-80.13731704,25.91203391,0,0,1,N,0.7062143,65,65,11,125,125,138.9457,0,9999.99,3.56,3.687,2,9,31.2,0,31.20000076,55.13,1568.77915,9/2/21,11:27:22,30.66,79.29,55.13,0.979,8.21,-72.4,-3.7,-4.7,-3094,44.4,2.45,13.1,
25.91208175,-80.13736486,50:37.5,9/2/21,11,0.914,145.3,-7.114278177,0.84,149.6,140.08,1.5,-2.3,33.3,0,3.54,3.54,89,25,477.6,16,-1.5,D,1267.8,5,7.154,1,0.93,152,138.04,-80.13731704,25.91203391,0,0,1,N,0.7474386,65,65,11,121,121,138.6532,0,9999.99,3.55,3.677,2,9,31.2,0,31.20000076,55.13,1568.77915,9/2/21,11:27:22,30.66,79.29,55.13,0.979,8.21,-72.4,-3.7,-4.7,-3094,44.4,2.45,13.1,
25.91207811,-80.13736255,50:38.5,9/2/21,11,0.981,145.58,-7.114278177,0.84,149.8,140.27,1.06,-2.63,33.4,0,3.55,3.55,89,25,477.6,16,-1.5,D,1267.8,5,6.698,1,0.92,152,137.19,-80.13731704,25.91203391,0,0,1,N,0.7971421,63,63,11,119,119,138.2997,0,9999.99,3.56,3.687,2,9,31.2,0,31.20000076,55.12,1568.7688,9/2/21,11:27:23,30.66,79.29,55.12,0.995,8.2,-72,-3.3,1,-2725,44.2,2.44,13,
25.91207446,-80.13736023,50:39.5,9/2/21,11,0.935,147.1,-7.114278177,0.84,149.7,140.18,1.19,-2.32,33.3,0,3.57,3.57,89,25,477.6,16,-1.5,D,1244.7,6,28.38,1,0.95,152,192.66,-80.13742242,25.91182544,0,0,1,N,5.84804,64,64,11,250,250,176.6091,0,9999.99,3.58,3.707,2,9,31.2,0,31.20000076,55.15,1568.80005,9/2/21,11:27:25,30.66,79.32,55.15,1.01,8.17,-70.1,-3.3,-4,-2471,43.8,2.42,13.2,
25.91207068,-80.13735757,50:40.5,9/2/21,11,0.888,146.38,-7.114278177,0.84,152.7,143.03,1.34,-0.69,33.2,0,3.58,3.58,89,25,477.6,16,-1.5,D,1244.7,6,28.03,1,0.94,152,193.38,-80.13742242,25.91182544,0,0,1,N,5.429042,65,65,11,250,250,177.6126,0,9999.99,3.59,3.717,2,9,31.2,0,31.20000076,55.15,1568.80005,9/2/21,11:27:25,30.66,79.32,55.15,1.01,8.17,-70.1,-3.3,-4,-2471,43.8,2.42,13.2,
25.91206749,-80.13735486,50:41.5,9/2/21,11,0.886,140.83,-7.114278177,0.84,156.6,146.77,1.45,-2.9,33.3,0,3.58,3.58,89,25,477.6,16,-1.5,D,1244.7,6,27.75,1,0.91,152,194.09,-80.13742242,25.91182544,0,0,1,N,5.038598,66,66,11,250,250,178.7465,0,9999.99,3.59,3.717,2,9,31.2,0,31.20000076,55.14,1568.78956,9/2/21,11:27:26,30.66,79.31,55.14,0.988,8.17,-70.1,-4.2,-1.7,-1408,43.6,2.41,13.2,
25.91206452,-80.13735287,50:42.5,9/2/21,11,0.84,144.85,-7.114278177,0.84,161,151,1.81,-2.85,33.3,0,3.57,3.58,89,25,477.5,16,-1.6,D,1236.2,6,27.479,1,0.86,152,194.66,-80.13742242,25.91182544,0,0,1,N,4.721547,68,68,11,244,244,179.5991,0,9999.99,3.59,3.717,2,9,31.2,0,31.20000076,55.14,1568.78971,9/2/21,11:27:28,30.67,79.31,55.14,0.984,8.17,-70,-3.4,-5.9,-4299,43.3,2.39,13.2,
25.9120605,-80.13735054,50:43.5,9/2/21,11,0.856,146.05,-7.114278177,0.84,165.5,155.38,1.49,-3.52,33.3,0,3.57,3.57,89,25,477.5,16,-1.6,D,1236.2,6,27.108,1,0.82,152,195.38,-80.13742242,25.91182544,0,0,1,N,4.308099,66,66,11,228,228,180.6853,0,9999.99,3.58,3.707,2,9,31.2,0,31.20000076,55.14,1568.78971,9/2/21,11:27:28,30.67,79.31,55.14,0.984,8.17,-70,-3.4,-5.9,-4299,43.3,2.39,13.2,
25.91205783,-80.13734967,50:44.5,9/2/21,11,0.803,155.16,-7.114278177,0.84,170.6,160.37,1.61,-3.37,33.3,0,3.55,3.56,89,25,477.5,16,-1.6,D,1236.2,6,26.859,1,0.78,152,195.78,-80.13742242,25.91182544,0,0,1,N,4.08416,67,67,11,214,214,181.2046,0,9999.99,3.57,3.697,2,9,31.2,0,31.20000076,55.14,1568.78973,9/2/21,11:27:29,30.67,79.31,55.14,0.979,8.16,-69.9,-2.5,-3.1,-2757,43.1,2.38,13,
25.91205417,-80.13734867,50:45.5,9/2/21,10,0.795,161.93,-7.114278177,1.09,174.5,164.23,1.35,-3.02,33.3,0,3.57,3.57,89,25,477.5,16,-1.6,D,1236.2,6,26.506,1,0.78,152,196.19,-80.13742242,25.91182544,0,0,1,N,3.841362,65,65,11,199,199,181.525,0,9999.99,3.58,3.707,2,9,31.2,0,31.20000076,55.12,1568.76894,9/2/21,11:27:31,30.67,79.28,55.12,0.961,8.16,-69.6,-2.9,-0.6,-541,42.9,2.37,13.1,
25.91205045,-80.13734758,50:46.5,9/2/21,11,0.823,164.55,-7.114278177,0.84,177.8,167.51,1.59,-3.67,33.3,0,3.54,3.55,89,26,477.5,16,-1.6,D,1217.2,6,26.116,1,0.78,152,196.66,-80.13742242,25.91182544,0,0,1,N,3.578661,67,67,11,184,184,181.7742,0,9999.99,3.56,3.687,2,9,31.2,0,31.20000076,55.1,1568.74844,9/2/21,11:27:32,30.67,79.26,55.1,0.968,8.16,-69.6,-3.1,-4.6,-4059,42.8,2.37,13.2,
25.91204711,-80.13734695,50:47.5,9/2/21,11,0.855,167.85,-7.114278177,0.84,181.3,171.01,1.42,-2.73,33.3,0,3.56,3.56,89,26,477.5,16,-1.6,D,1217.2,6,25.779,1,0.78,153,197.03,-80.13742242,25.91182544,0,0,1,N,3.343781,66,66,11,173,173,182.4016,0,9999.99,3.57,3.697,2,9,31.2,0,31.20000076,55.1,1568.74844,9/2/21,11:27:32,30.67,79.26,55.1,0.968,8.16,-69.6,-3.1,-4.6,-4059,42.8,2.37,13.2,
25.91204383,-80.1373465,50:48.5,9/2/21,11,0.829,171.31,-7.114278177,0.84,184.6,174.33,1.43,-2.98,33.3,0,3.55,3.55,89,26,477.5,16,-1.6,D,1217.2,6,25.405,1,0.82,153,197.36,-80.13742242,25.91182544,0,0,1,N,3.158643,66,66,11,161,161,182.8773,0,9999.99,3.56,3.687,2,9,31.2,0,31.20000076,55.12,1568.76874,9/2/21,11:27:33,30.66,79.28,55.12,0.978,8.16,-69.4,-3.5,-5.9,-4421,42.6,2.36,13.2,
25.91204017,-80.13734633,50:49.5,9/2/21,11,0.788,171.31,-7.114278177,0.84,186.5,176.26,1.43,-2.59,33.3,0,3.55,3.55,89,26,477.5,16,-1.6,D,1211.9,6,25.045,1,0.82,153,197.68,-80.13742242,25.91182544,0,0,1,N,2.973882,66,66,11,158,158,184.0542,0,9999.99,3.56,3.687,2,9,31.2,0,31.20000076,55.13,1568.77918,9/2/21,11:27:35,30.65,79.3,55.13,0.961,8.15,-69.2,-2.4,-1.8,-2523,42.3,2.34,13,
25.91203637,-80.13734635,50:50.5,9/2/21,11,0.788,171.31,-7.114278177,0.84,189.1,178.89,1.55,-2.55,33.3,0,3.55,3.55,89,26,477.5,16,-1.6,D,1211.9,6,24.657,1,0.85,153,197.97,-80.13742242,25.91182544,0,0,1,N,2.801081,66,66,11,152,152,185.1561,0,9999.99,3.56,3.687,2,9,31.2,0,31.20000076,55.13,1568.77918,9/2/21,11:27:35,30.65,79.3,55.13,0.961,8.15,-69.2,-2.4,-1.8,-2523,42.3,2.34,13,
25.91203288,-80.13734693,50:51.5,9/2/21,11,0.884,171.31,-7.114278177,0.84,190.5,180.32,0.96,-2.41,33.3,0,3.54,3.54,89,26,477.5,16,-1.6,D,1211.9,6,24.271,1,0.84,153,198.12,-80.13742242,25.91182544,0,0,1,N,2.694791,63,63,11,151,151,185.8357,0,9999.99,3.55,3.677,2,9,31.2,0,31.20000076,55.11,1568.75851,9/2/21,11:27:36,30.65,79.27,55.11,0.975,8.15,-68.9,-4.1,-7.4,-2336,42.2,2.33,13.2,
25.91202858,-80.13734725,50:52.5,9/2/21,11,0.852,179.14,-7.114278177,0.84,192,181.85,0.95,-2.26,33.3,0,3.54,3.54,89,26,477.5,16,-1.6,D,1211.9,6,23.806,1,0.86,153,198.41,-80.13742242,25.91182544,0,0,1,N,2.524347,64,64,11,150,150,186.9364,0,9999.99,3.55,3.677,2,9,31.2,0,31.20000076,55.12,1568.76889,9/2/21,11:27:38,30.65,79.29,55.12,0.969,8.14,-68.4,-3.3,0.4,-1205,41.9,2.32,13.3,
25.9120242,-80.1373478,50:53.5,9/2/21,11,0.876,184.4,-7.114278177,0.84,192.8,182.67,1.37,-1.99,33.3,0,3.53,3.53,89,26,477.5,16,-1.6,D,1216.3,6,23.327,1,0.88,153,198.66,-80.13742242,25.91182544,0,0,1,N,2.369103,65,65,11,148,148,187.9536,0,9999.99,3.54,3.667,2,9,31.2,0,31.20000076,55.1,1568.74794,9/2/21,11:27:39,30.66,79.26,55.1,0.979,8.14,-68.4,-4.2,-0.9,-3474,41.8,2.31,13,
25.91202064,-80.13734838,50:54.5,9/2/21,11,0.878,184.67,-7.114278177,0.84,194.1,184,1.19,-2.07,33.3,0,3.51,3.51,89,26,477.5,16,-1.6,D,1216.3,6,22.933,1,0.9,153,198.84,-80.13742242,25.91182544,0,0,1,N,2.25809,64,64,11,146,146,188.6869,0,9999.99,3.52,3.647,2,9,31.2,0,31.20000076,55.1,1568.74794,9/2/21,11:27:39,30.66,79.26,55.1,0.979,8.14,-68.4,-4.2,-0.9,-3474,41.8,2.31,13,
25.91201672,-80.13734893,50:55.5,9/2/21,11,0.886,186.43,-7.114278177,0.84,196.1,186.05,1.28,-1.73,33.2,0,3.5,3.5,89,26,477.5,16,-1.6,D,1216.3,6,22.504,1,0.92,153,199.06,-80.13742242,25.91182544,0,0,1,N,2.130031,65,65,11,144,144,189.5404,0,9999.99,3.51,3.637,2,9,31.2,0,31.20000076,55.12,1568.76874,9/2/21,11:27:40,30.65,79.28,55.12,0.972,8.13,-68,-3.4,-2.3,-688,41.7,2.31,13.2,
25.91201267,-80.13734983,50:56.5,9/2/21,11,0.901,192.77,-7.114278177,0.84,196.6,186.57,1.25,-2.68,33.2,0,3.5,3.5,89,25,477.4,16,-1.6,D,1229,6,22.05,1,0.94,153,199.31,-80.13742242,25.91182544,0,0,1,N,1.992052,64,64,11,143,143,190.4675,0,9999.99,3.51,3.637,2,9,31.2,0,31.20000076,55.11,1568.75836,9/2/21,11:27:42,30.67,79.27,55.11,0.989,8.13,-67.8,-2.1,-6.9,-4416,41.5,2.3,13.2,
25.91200817,-80.137351,50:57.5,9/2/21,11,0.965,193.84,-7.114278177,0.84,197.5,187.49,1.25,-1.88,33.3,0,3.47,3.47,89,25,477.4,16,-1.6,D,1229,6,21.562,1,0.94,153,199.43,-80.13742242,25.91182544,0,0,1,N,1.897832,65,65,11,141,141,191.1048,0,9999.99,3.48,3.607,2,9,31.2,0,31.20000076,55.11,1568.75836,9/2/21,11:27:42,30.67,79.27,55.11,0.989,8.13,-67.8,-2.1,-6.9,-4416,41.5,2.3,13.2,
25.91200329,-80.13735246,50:58.5,9/2/21,11,0.966,195.53,-7.114278177,0.84,199.2,189.25,1.3,-2.1,33.3,0,3.45,3.45,89,25,477.4,16,-1.6,D,1229,6,20.978,1,0.95,153,199.49,-80.13742242,25.91182544,0,0,1,N,1.806678,65,65,11,136,136,191.5767,0,9999.99,3.46,3.587,2,9,31.2,0,31.20000076,55.09,1568.7376,9/2/21,11:27:43,30.66,79.25,55.09,0.965,8.13,-67.7,-3.6,-4,-2268,41.4,2.29,13,
25.91199913,-80.13735397,50:59.5,9/2/21,11,0.928,196.42,-7.114278177,0.84,200.1,190.18,1.21,-2.62,33.3,0,3.44,3.44,89,25,477.4,16,-1.6,D,1229,6,20.491,1,0.94,153,199.52,-80.13742242,25.91182544,0,0,1,N,1.72098,64,64,11,134,134,191.9577,0,9999.99,3.45,3.577,2,9,31.2,0,31.20000076,55.1,1568.74794,9/2/21,11:27:45,30.66,79.26,55.1,0.965,8.12,-67.5,-3.9,-1.1,-3163,41.3,2.28,13.2,
25.911996,-80.13735533,51:00.6,9/2/21,11,0.912,197.73,-7.114278177,0.84,200.6,190.69,1.34,-1.75,33.3,0,3.43,3.43,89,26,477.4,16,-1.6,D,1220.7,6,20.021,1,0.95,153,199.67,-80.13742242,25.91182544,0,0,1,N,1.678498,65,65,11,135,135,192.6005,0,9999.99,3.44,3.567,2,9,31.2,0,31.20000076,55.1,1568.74794,9/2/21,11:27:45,30.66,79.26,55.1,0.965,8.12,-67.5,-3.9,-1.1,-3163,41.3,2.28,13.2,
25.9119925,-80.13735717,51:01.6,9/2/21,11,0.909,197.73,-7.114278177,0.84,201.7,191.83,1.08,-1.29,33.3,0,3.43,3.43,89,26,477.4,16,-1.6,D,1220.7,6,19.636,1,0.96,153,199.62,-80.13742242,25.91182544,0,0,1,N,1.66134,63,63,11,132,132,192.7187,0,9999.99,3.44,3.567,2,9,31.2,0,31.20000076,55.12,1568.76876,9/2/21,11:27:46,30.66,79.28,55.12,0.973,8.13,-67.8,-3.5,-1.9,-2149,41.2,2.28,13.1,
25.9119883,-80.13735882,51:02.6,9/2/21,11,0.877,199.54,-7.114278177,0.84,201.6,191.73,1.17,-2,33.3,0,3.41,3.41,89,26,477.4,16,-1.6,D,1220.7,6,19.194,1,0.95,153,199.36,-80.13742242,25.91182544,0,0,1,N,1.66366,64,64,11,129,129,192.3526,0,9999.99,3.42,3.547,2,9,31.2,0,31.20000076,55.07,1568.71674,9/2/21,11:27:48,30.67,79.22,55.07,0.97,8.16,-69.8,-3.6,-5.9,-1843,41.1,2.27,13.2,
25.91198464,-80.13736032,51:03.6,9/2/21,11,0.879,200.52,-7.114278177,0.84,202.4,192.56,1.42,-1.08,33.3,0,3.39,3.39,89,25,477.4,16,-1.6,D,1225.1,6,18.761,1,0.93,153,199.33,-80.13742242,25.91182544,0,0,1,N,1.630389,66,66,11,127,127,192.5722,0,9999.99,3.4,3.527,2,9,31.2,0,31.20000076,55.07,1568.71674,9/2/21,11:27:48,30.67,79.22,55.07,0.97,8.16,-69.8,-3.6,-5.9,-1843,41.1,2.27,13.2,
25.91198054,-80.13736163,51:04.6,9/2/21,11,0.938,201.62,-7.114278177,0.84,201.8,191.93,1.05,-2.05,33.3,0,3.38,3.38,89,25,477.4,16,-1.6,D,1225.1,6,18.286,1,0.95,153,199.42,-80.13742242,25.91182544,0,0,1,N,1.596747,63,63,11,131,131,193.0529,0,9999.99,3.39,3.517,2,9,31.2,0,31.20000076,55.11,1568.75855,9/2/21,11:27:49,30.66,79.27,55.11,0.978,8.16,-69.7,-4,-3.6,-2289,41.1,2.27,13.1,
25.91197717,-80.13736333,51:05.6,9/2/21,11,0.982,202.66,-7.114278177,0.84,203.5,193.7,1.23,-1.91,33.2,0,3.37,3.37,89,25,477.4,16,-1.6,D,1225.1,6,17.846,1,0.94,153,199.54,-80.13742242,25.91182544,0,0,1,N,1.537798,64,64,11,129,129,193.5692,0,9999.99,3.38,3.507,2,9,31.2,0,31.20000076,55.09,1568.73761,9/2/21,11:27:51,30.66,79.24,55.09,0.97,8.16,-69.7,-3.7,-7.4,-2255,41,2.27,13.2,
25.9119735,-80.13736533,51:06.6,9/2/21,11,0.93,203.36,-7.114278177,0.84,202.5,192.66,1.22,-1.56,33.3,0,3.33,3.33,89,25,477.4,16,-1.6,D,1225.1,6,17.39,1,0.96,153,199.4,-80.13742242,25.91182544,0,0,1,N,1.541216,64,64,11,131,131,193.5453,0,9999.99,3.34,3.467,2,9,31.2,0,31.20000076,55.09,1568.73761,9/2/21,11:27:51,30.66,79.24,55.09,0.97,8.16,-69.7,-3.7,-7.4,-2255,41,2.27,13.2,
25.91196937,-80.13736765,51:07.6,9/2/21,11,0.923,203.36,-7.114278177,0.84,202.3,192.45,1.34,-0.97,33.3,0,3.32,3.32,89,26,477.3,16,-1.6,D,1217.6,6,16.916,1,0.95,153,198.9,-80.13742242,25.91182544,0,0,1,N,1.544836,65,65,11,129,129,192.8296,0,9999.99,3.33,3.457,2,9,31.2,0,31.20000076,55.07,1568.71681,9/2/21,11:27:52,30.65,79.22,55.07,0.965,8.16,-69.9,-3.4,0.2,-3737,41,2.27,13.2,
25.91196552,-80.13736964,51:08.6,9/2/21,11,0.926,203.36,-7.114278177,0.84,202.9,193.07,1.05,-1.91,33.3,0,3.29,3.29,89,26,477.3,16,-1.6,D,1217.6,6,16.446,1,0.98,153,198.72,-80.13742242,25.91182544,0,0,1,N,1.573165,63,63,11,127,127,192.7896,0,9999.99,3.3,3.427,2,9,31.2,0,31.20000076,55.1,1568.74796,9/2/21,11:27:54,30.65,79.25,55.1,0.979,8.17,-70.1,-4.3,-0.7,-1269,40.9,2.26,13.2,
25.91196162,-80.13737149,51:09.6,9/2/21,11,0.889,203.36,-7.114278177,0.84,203.4,193.59,1.06,-0.9,33.3,0,3.27,3.27,89,26,477.3,16,-1.6,D,1217.6,6,15.976,1,0.98,153,198.59,-80.13742242,25.91182544,0,0,1,N,1.565719,63,63,11,127,127,192.854,0,9999.99,3.28,3.407,2,9,31.2,0,31.20000076,55.1,1568.74796,9/2/21,11:27:54,30.65,79.25,55.1,0.979,8.17,-70.1,-4.3,-0.7,-1269,40.9,2.26,13.2,
25.91195746,-80.1373735,51:10.6,9/2/21,11,0.909,203.36,-7.114278177,0.84,202.7,192.87,1.36,-2.23,33.3,0,3.24,3.24,89,26,477.3,16,-1.6,D,1223.6,6,15.474,1,0.96,153,198.43,-80.13742242,25.91182544,0,0,1,N,1.558451,65,65,11,127,127,192.9193,0,9999.99,3.25,3.377,2,9,31.2,0,31.20000076,55.09,1568.73754,9/2/21,11:27:55,30.65,79.25,55.09,0.984,8.17,-70,-4.5,1.4,-1775,40.8,2.26,13,
25.91195386,-80.13737516,51:11.6,9/2/21,11,0.914,203.84,-7.114278177,0.84,202.8,192.97,1.08,-1.47,33.3,0,3.21,3.21,89,25,477.3,16,-1.6,D,1232.6,6,15.041,1,0.97,153,198.32,-80.13742242,25.91182544,0,0,1,N,1.553389,63,63,11,127,127,193.0362,0,9999.99,3.22,3.347,2,9,31.2,0,31.20000076,55.08,1568.72716,9/2/21,11:27:57,30.65,79.23,55.08,0.967,8.17,-70,-5,0.9,-1229,40.7,2.25,13.2,
25.91195002,-80.137377,51:12.6,9/2/21,11,0.947,202.8,-7.114278177,0.84,202.7,192.87,1.18,-1.32,33.2,0,3.2,3.2,89,25,477.3,16,-1.6,D,1232.6,6,14.579,1,0.98,153,198.16,-80.13742242,25.91182544,0,0,1,N,1.545558,64,64,11,128,128,193.1011,0,9999.99,3.21,3.337,2,9,31.2,0,31.20000076,55.08,1568.72716,9/2/21,11:27:57,30.65,79.23,55.08,0.967,8.17,-70,-5,0.9,-1229,40.7,2.25,13.2,
25.9119463,-80.13737901,51:13.6,9/2/21,11,0.89,203.55,-7.114278177,0.84,202.6,192.76,1.3,-1.47,33.2,0,3.19,3.19,89,25,477.3,16,-1.6,D,1232.6,6,14.123,1,0.96,153,197.91,-80.13742242,25.91182544,0,0,1,N,1.53961,65,65,11,128,128,193.0069,0,9999.99,3.2,3.327,2,9,31.2,0,31.20000076,55.08,1568.72721,9/2/21,11:27:58,30.64,79.23,55.08,0.979,8.17,-70.5,-4.2,-3.9,-1846,40.7,2.25,13.2,
25.91194253,-80.13738131,51:14.6,9/2/21,11,0.912,204.08,-7.114278177,0.84,201.9,192.04,1.21,-1.07,33.2,0,3.16,3.16,89,26,477.3,16,-1.6,D,1221.9,6,13.654,1,0.95,153,197.53,-80.13742242,25.91182544,0,0,1,N,1.544654,64,64,11,130,130,192.7554,0,9999.99,3.17,3.297,2,9,31.2,0,31.20000076,55.09,1568.73772,9/2/21,11:28:00,30.65,79.25,55.09,0.973,8.19,-71.2,-5.5,-5.6,-2449,40.8,2.26,13.3,
