Latitude,Longitude,Time,Date,Number of Sats,GPS Speed (Kn),GPS True Heading,GPS Magnetic Variation,HDOP,C Magnetic Heading,C True Heading,Pitch Angle,Roll Angle,C Inside Temp (c),DFS Depth (m),DTB Height (m),Total Water Column (m),Batt Percent,Power Watts,Watt-Hours,Batt Volts,Batt Ampers,Batt State,Time to Empty,Current Step,Dist To Next (m),Next Speed (kn),Vehicle Speed (kn),Motor Speed CMD,Next Heading,Next Long,Next Lat,Next Depth (m),Depth Goal (m),Vehicle State,Error State,Distance to Track (m),Fin Pitch R,Fin Pitch L,Pitch Goal,Fin Yaw T,Fin Yaw B,Yaw Goal,Fin Roll,DVL-Depth (m),DVL -Altitude (m),DVL -Water Column (m),DVL-FixType,DVL-FixQuality,DVL-Temperature,Conductivity (mmhos/cm),Temperature (c),Salinity (ppt),Sound Speed (m/s),Date m/d/y   ,Time hh:mm:ss,Temp C,SpCond mS/cm,Sal ppt,Depth feet,pH,pH mV,Turbid+ NTU,Chl ug/L,BGA-PC cells/mL,ODOsat %,ODO mg/L,Battery volts,ROSEM Command Type
25.91270483,-80.1379595,05:23.2,9/2/21,10,0.18,179.15,-7.114231111,0.93,100.4,94.28,0.47,-4.23,34.8,0,0.41,0.42,92,22,497.5,16.1,-1.3,D,1515.4,0,14.624,2,0,128,67.75,-80.13782418,25.91275464,0,0,1,N,10.9531,60,60,11,32,32,70.42893,0,9999.99,0.42,0.547,2,9,32.6,0,32.59999847,47.4,1563.3527,9/2/21,10:42:09,30.81,69.58,47.4,0.914,8.16,-69.6,-1.9,-4.5,-5060,63.5,3.66,12.8,
25.91270433,-80.13795867,05:24.2,9/2/21,10,0.318,179.15,-7.114231111,0.93,100.8,94.66,0.95,-5.04,34.8,0,0.41,0.41,92,22,497.5,16.1,-1.3,D,1515.4,0,14.568,2,0,128,67.42,-80.13782418,25.91275464,0,0,1,N,10.96607,64,64,11,28,28,69.99713,0,9999.99,0.42,0.547,2,9,32.6,0,32.59999847,47.4,1563.3527,9/2/21,10:42:09,30.81,69.58,47.4,0.914,8.16,-69.6,-1.9,-4.5,-5060,63.5,3.66,12.8,
25.91270355,-80.13795815,05:25.2,9/2/21,10,0.12,179.15,-7.114231111,0.93,100.1,94,2.02,-1.17,34.8,0.02,0.41,0.43,92,22,497.5,16.1,-1.3,D,1515.4,0,14.553,2,0.03,174,67.03,-80.13782418,25.91275464,0,0,1,N,10.96607,69,69,11,19,19,67.03371,0,9999.99,0.42,0.547,2,9,32.6,0,32.59999847,47.28,1563.23031,9/2/21,10:42:10,30.8,69.43,47.28,0.872,8.16,-69.4,-2.2,-5.4,-3612,63.3,3.65,12.9,
25.91270203,-80.13795673,05:26.2,9/2/21,10,0.261,179.15,-7.114231111,0.93,101.1,94.94,0.22,-3.98,34.8,0.01,0.42,0.43,92,27,497.5,16.1,-1.6,D,1227.8,0,14.491,2,0.09,174,66.19,-80.13782418,25.91275464,0,0,1,N,10.96607,58,58,11,12,12,66.20743,0,9999.99,0.44,0.567,2,9,32.6,0,32.59999847,51.11,1567.17204,9/2/21,10:42:12,30.82,74.28,51.11,0.916,8.16,-69.4,-2.5,-2.9,-2455,63,3.55,12.8,
25.91270117,-80.1379519,05:27.2,9/2/21,10,0.772,179.15,-7.114231111,0.93,101,94.84,1.39,-1.73,34.8,0,0.43,0.43,92,27,497.5,16.1,-1.6,D,1227.8,0,14.091,2,0.37,174,65.04,-80.13782418,25.91275464,0,0,1,N,10.96607,65,65,11,8,8,65.03751,0,9999.99,0.44,0.567,2,9,32.6,0,32.59999847,51.11,1567.17204,9/2/21,10:42:12,30.82,74.28,51.11,0.916,8.16,-69.4,-2.5,-2.9,-2455,63,3.55,12.8,
25.91269863,-80.13794506,05:28.2,9/2/21,10,1.2,179.15,-7.114231111,0.93,99.8,93.73,0.7,-1.58,34.8,0.01,0.48,0.49,92,27,497.5,16.1,-1.6,D,1227.8,0,13.6,2,0.53,174,62.75,-80.13782418,25.91275464,0,0,1,N,10.96607,61,61,11,5,5,62.82551,0,9999.99,0.49,0.617,2,9,32.6,0,32.59999847,51.02,1567.07889,9/2/21,10:42:13,30.82,74.18,51.02,0.916,8.15,-69.2,-3.6,-1.6,-3494,62.7,3.54,12.9,
25.91269351,-80.13793635,05:29.2,9/2/21,9,1.447,179.15,-7.114231111,0.98,95.3,89.52,0.75,1.09,34.8,0,0.53,0.53,92,41,497.4,16.1,-2.5,D,798.1,0,13.117,2,0.91,174,58.79,-80.13782418,25.91275464,0,0,1,N,10.96607,61,61,11,5,5,58.94042,0,9999.99,0.54,0.667,2,9,32.6,0,32.59999847,51.8,1567.88225,9/2/21,10:42:15,30.69,75.14,51.8,0.908,8.15,-69,-2.1,-1.2,-2299,62.4,3.51,12.8,
25.9126918,-80.13792887,05:30.2,9/2/21,9,1.64,179.15,-7.114231111,1.08,88.1,82.75,1.54,2.65,34.8,0.01,0.61,0.62,92,41,497.4,16.1,-2.5,D,798.1,0,12.588,2,1.14,174,56.28,-80.13782418,25.91275464,0,0,1,N,10.96607,65,65,11,18,18,56.45357,0,9999.99,0.62,0.747,2,9,32.6,0,32.59999847,51.8,1567.88225,9/2/21,10:42:15,30.69,75.14,51.8,0.908,8.15,-69,-2.1,-1.2,-2299,62.4,3.51,12.8,
25.91269201,-80.13792035,05:31.2,9/2/21,9,1.611,179.15,-7.114231111,1.08,80.7,75.72,2.17,1,34.7,0.01,0.74,0.75,92,41,497.4,16.1,-2.5,D,798.1,0,11.875,2,1.15,174,54.09,-80.13782418,25.91275464,0,0,1,N,10.96607,70,70,11,41,41,54.21462,0,9999.99,0.76,0.887,2,9,32.5,0,32.5,51.95,1567.85762,9/2/21,10:42:16,30.65,75.34,51.95,0.942,8.15,-68.9,-3.5,-1.9,-3539,62.1,3.49,12.9,
25.91269372,-80.1379133,05:32.2,9/2/21,9,1.27,179.15,-7.114231111,1.08,75.3,70.54,2.52,2.04,34.8,0.01,0.85,0.86,92,41,497.4,16.1,-2.5,D,798.1,0,11.196,2,1.44,174,52.77,-80.13782418,25.91275464,0,0,1,N,10.96607,72,72,11,56,56,52.9016,0,9999.99,0.88,1.007,2,9,32.5,0,32.5,51.97,1567.87854,9/2/21,10:42:18,30.59,75.36,51.97,0.881,8.15,-68.8,-3,-1.3,-870,61.7,3.47,12.9,
25.91269507,-80.1379055,05:33.2,9/2/21,9,1.614,179.15,-7.114231111,1.08,68.5,63.96,1.78,2.24,34.8,0.01,1.08,1.09,92,39,497.4,16.1,-2.4,D,846,0,10.49,2,1.62,174,50.84,-80.13782418,25.91275464,0,0,1,N,10.96607,68,68,11,71,71,50.95258,0,9999.99,1.1,1.227,2,9,32.5,0,32.5,51.97,1567.87854,9/2/21,10:42:18,30.59,75.36,51.97,0.881,8.15,-68.8,-3,-1.3,-870,61.7,3.47,12.9,
25.91270351,-80.1378991,05:34.2,9/2/21,9,1.517,179.15,-7.114231111,1.08,64,59.57,1.14,5.94,34.7,0,1.64,1.65,92,39,497.4,16.1,-2.4,D,846,0,9.406,2,1.63,174,52.81,-80.13782418,25.91275464,0,0,1,N,10.96607,65,65,11,99,99,52.86603,0,9999.99,1.66,1.787,2,9,32.5,0,32.5,52.1,1568.01188,9/2/21,10:42:19,30.59,75.52,52.1,0.891,8.15,-68.8,-4.4,-3.9,-1645,61.4,3.46,12.7,
25.91270886,-80.13789337,05:35.2,9/2/21,10,1.587,179.15,-7.114231111,1.08,61.8,57.42,0.76,3.12,34.8,0,2.01,2.01,92,39,497.4,16.1,-2.4,D,846,0,8.591,2,1.7,174,53.66,-80.13782418,25.91275464,0,0,1,N,1.53E-02,62,62,11,112,112,53.69899,0,9999.99,2.02,2.147,2,9,32.4,0,32.40000153,51.91,1567.6362,9/2/21,10:42:20,30.59,75.28,51.91,0.909,8.15,-69.1,-4.4,-2.2,-1927,61.2,3.44,12.9,
25.9127117,-80.13788829,05:36.2,9/2/21,9,1.481,179.15,-7.114231111,0.98,60.1,55.74,0.98,3.84,34.7,0,2.13,2.14,92,39,497.4,16.1,-2.4,D,847,0,7.994,2,1.77,174,53.33,-80.13782418,25.91275464,0,0,1,N,6.21E-02,63,63,11,116,116,53.36391,0,9999.99,2.14,2.267,2,9,32.4,0,32.40000153,52.15,1567.88366,9/2/21,10:42:21,30.59,75.58,52.15,0.965,8.16,-69.4,-5.5,1.1,-935,60.9,3.43,12.7,
25.9127179,-80.13788288,05:37.2,9/2/21,9,1.703,179.15,-7.114231111,1.24,59.5,55.15,1.13,2.84,34.8,0,2.3,2.3,92,39,497.4,16.1,-2.4,D,847,0,7.152,2,1.83,175,55.17,-80.13782418,25.91275464,0,0,1,N,0.1733784,64,64,11,126,126,55.04968,0,9999.99,2.31,2.437,2,9,32.4,0,32.40000153,52.24,1567.97618,9/2/21,10:42:23,30.64,75.69,52.24,0.944,8.16,-69.5,-3.1,0.5,-2194,60.4,3.4,12.6,
25.91272435,-80.13787666,05:38.2,9/2/21,10,1.807,179.15,-7.114231111,1.24,60.6,56.24,0.81,3.56,34.8,0,2.34,2.34,92,39,497.4,16.1,-2.4,D,847,0,6.237,2,1.86,175,57.32,-80.13782418,25.91275464,0,0,1,N,0.3857242,62,62,11,128,128,56.56884,0,9999.99,2.35,2.477,2,9,32.4,0,32.40000153,52.24,1567.97618,9/2/21,10:42:23,30.64,75.69,52.24,0.944,8.16,-69.5,-3.1,0.5,-2194,60.4,3.4,12.6,
25.91273222,-80.13787074,05:39.2,9/2/21,9,1.884,179.15,-7.114231111,1.24,62,57.61,0.45,7.29,34.8,0,2.33,2.33,92,39,497.4,16.1,-2.4,D,847,1,17.907,2,1.9,175,132.42,-80.13773856,25.9126236,0,0,1,N,5.400193,60,60,11,250,250,116.2673,0,9999.99,2.34,2.467,2,9,32.3,0,32.29999924,52.31,1567.86804,9/2/21,10:42:24,30.64,75.78,52.31,0.937,8.16,-69.8,-3.5,-3.4,-1064,60.3,3.39,12.9,
25.91273787,-80.13786387,05:40.2,9/2/21,10,1.823,179.15,-7.114231111,1.04,68.1,63.57,1.33,0.13,34.7,0,2.42,2.42,92,39,497.4,16.1,-2.4,D,835.6,1,17.847,2,1.94,175,135.39,-80.13773856,25.9126236,0,0,1,N,4.491804,65,65,11,250,250,121.5082,0,9999.99,2.42,2.547,2,9,32.3,0,32.29999924,52.49,1568.05379,9/2/21,10:42:26,30.65,76.01,52.49,0.923,8.17,-70.5,-3.9,-6.6,-2842,60.1,3.37,12.9,
25.91274352,-80.13785671,05:41.2,9/2/21,10,1.825,139.09,-7.114231111,1.04,76,71.22,2.99,3.04,34.7,0,2.46,2.47,92,39,497.4,16.1,-2.4,D,835.6,1,17.817,2,1.89,175,138.45,-80.13773856,25.9126236,0,0,1,N,3.536726,74,74,11,250,250,127.2782,0,9999.99,2.48,2.607,2,9,32.3,0,32.29999924,52.49,1568.05379,9/2/21,10:42:26,30.65,76.01,52.49,0.923,8.17,-70.5,-3.9,-6.6,-2842,60.1,3.37,12.9,
25.91275098,-80.13784886,05:42.2,9/2/21,10,1.783,95.63,-7.114231111,1.04,84.8,79.62,3.5,2.17,34.7,0.01,2.66,2.67,92,39,497.4,16.1,-2.4,D,835.6,1,17.953,2,1.84,175,142.09,-80.13773856,25.9126236,0,0,1,N,2.444565,78,78,11,250,250,134.3411,0,9999.99,2.69,2.817,2,9,32.3,0,32.29999924,52.41,1567.97235,9/2/21,10:42:27,30.65,75.91,52.41,0.863,8.18,-70.6,-3.6,-7.4,-2009,60.1,3.37,12.7,
25.91275433,-80.13784322,05:43.3,9/2/21,10,1.639,78.26,-7.114231111,1.04,96.4,90.55,3.53,3.27,34.8,0.02,2.94,2.95,92,39,497.4,16.1,-2.4,D,835.6,1,17.913,2,1.7,175,144.24,-80.13773856,25.9126236,0,0,1,N,1.755107,79,79,11,250,250,138.564,0,9999.99,2.97,3.097,2,9,32.3,0,32.29999924,52.47,1568.03478,9/2/21,10:42:29,30.61,75.98,52.47,0.897,8.18,-70.8,-4.6,-4.4,-2723,59.9,3.36,12.9,
25.91275609,-80.13783618,05:44.3,9/2/21,11,1.522,83.12,-7.114231111,1.04,103,96.71,3.18,2.53,34.8,0.01,3.11,3.12,92,40,497.4,16.1,-2.5,D,816.5,1,17.674,2,1.67,176,146.47,-80.13773856,25.9126236,0,0,1,N,1.039485,76,76,11,250,250,142.8591,0,9999.99,3.14,3.267,2,9,32.3,0,32.29999924,52.47,1568.03478,9/2/21,10:42:29,30.61,75.98,52.47,0.897,8.18,-70.8,-4.6,-4.4,-2723,59.9,3.36,12.9,
25.91275669,-80.13782765,05:45.3,9/2/21,10,1.532,88.52,-7.114231111,1.04,108.4,101.72,4.5,3.32,34.8,0.01,3.11,3.12,92,40,497.4,16.1,-2.5,D,816.5,1,17.274,2,1.63,176,148.95,-80.13773856,25.9126236,0,0,1,N,0.2539387,84,84,11,250,250,147.8358,0,9999.99,3.14,3.267,2,9,32.2,0,32.20000076,52.89,1568.28691,9/2/21,10:42:31,30.57,76.51,52.89,0.867,8.17,-70.2,-4.9,-2.4,-2220,59.8,3.35,12.7,
25.91275592,-80.13781964,05:46.3,9/2/21,10,1.587,88.33,-7.114231111,0.85,119.7,112.17,3.86,1.2,34.7,0.01,3.14,3.14,92,40,497.4,16.1,-2.5,D,816.5,1,16.8,2,1.62,176,151.14,-80.13773856,25.9126236,0,0,1,N,0.39441,81,81,11,250,250,151.8531,0,9999.99,3.17,3.297,2,9,32.2,0,32.20000076,52.89,1568.28691,9/2/21,10:42:31,30.57,76.51,52.89,0.867,8.17,-70.2,-4.9,-2.4,-2220,59.8,3.35,12.7,
25.91275433,-80.13781274,05:47.3,9/2/21,10,1.552,94.04,-7.114231111,0.85,129.4,121.16,4.11,2.51,34.7,0.01,3.14,3.15,92,40,497.3,16.1,-2.5,D,825.2,1,16.321,2,1.6,177,152.96,-80.13773856,25.9126236,0,0,1,N,0.9140429,82,82,11,250,250,156.0753,0,9999.99,3.18,3.307,2,9,32.2,0,32.20000076,53.06,1568.46277,9/2/21,10:42:32,30.57,76.71,53.06,0.912,8.16,-69.7,-5.8,-3.9,-2203,59.7,3.34,12.9,
25.9127506,-80.13780488,05:48.3,9/2/21,10,1.662,106.69,-7.114231111,0.85,139.9,130.94,3.55,3.23,34.8,0.01,3.16,3.17,92,40,497.3,16.1,-2.5,D,825.2,1,15.603,2,1.58,178,154.84,-80.13773856,25.9126236,0,0,1,N,1.400732,78,78,11,241,241,159.4876,0,9999.99,3.19,3.317,2,9,32.2,0,32.20000076,52.34,1567.71922,9/2/21,10:42:34,30.57,75.82,52.34,0.935,8.16,-69.8,-4.3,-1.2,-3930,59.2,3.33,12.9,
25.91274605,-80.13779756,05:49.3,9/2/21,10,1.588,113.6,-7.114231111,0.85,151.3,141.7,2.8,2.1,34.8,0,3.12,3.12,92,42,497.3,16.1,-2.6,D,792.6,1,14.84,2,1.58,178,156.57,-80.13773856,25.9126236,0,0,1,N,1.789683,76,76,11,216,216,162.1687,0,9999.99,3.15,3.277,2,9,32.2,0,32.20000076,51.85,1567.21249,9/2/21,10:42:35,30.55,75.2,51.85,0.901,8.17,-70,-3.7,-2.2,-2784,58.9,3.32,12.8,
25.9127391,-80.13779084,05:50.3,9/2/21,10,1.633,124.87,-7.114231111,0.85,159.5,149.56,3.15,1.28,34.8,0,3.1,3.1,92,42,497.3,16.1,-2.6,D,792.6,1,13.867,2,1.59,178,157.85,-80.13773856,25.9126236,0,0,1,N,1.996804,76,76,11,183,183,163.5726,0,9999.99,3.12,3.247,2,9,32.2,0,32.20000076,51.85,1567.21249,9/2/21,10:42:35,30.55,75.2,51.85,0.901,8.17,-70,-3.7,-2.2,-2784,58.9,3.32,12.8,
25.91273187,-80.1377863,05:51.3,9/2/21,10,1.631,135.25,-7.114231111,0.85,165.5,155.38,2.86,1.25,34.8,0,3.1,3.11,92,42,497.3,16.1,-2.6,D,792.6,1,12.952,2,1.61,179,158.37,-80.13773856,25.9126236,0,0,1,N,1.991475,74,74,11,160,160,163.5362,0,9999.99,3.13,3.257,2,9,32.2,0,32.20000076,52.16,1567.53238,9/2/21,10:42:36,30.49,75.58,52.16,0.877,8.17,-70.4,-5.8,2.2,-2982,58.6,3.3,12.9,
25.91272381,-80.13778219,05:52.3,9/2/21,10,1.659,146.43,-7.114231111,0.85,169,158.8,1.72,2.11,34.8,0,3.12,3.12,92,44,497.3,16.1,-2.7,D,756.1,1,11.968,2,1.65,179,158.61,-80.13773856,25.9126236,0,0,1,N,1.895636,67,67,11,143,143,162.8882,0,9999.99,3.14,3.267,2,9,32.2,0,32.20000076,52.87,1568.26577,9/2/21,10:42:38,30.43,76.47,52.87,0.917,8.18,-70.9,-5.2,-2.1,-1050,58.4,3.28,12.9,
25.91271446,-80.13777815,05:53.3,9/2/21,10,1.755,152.47,-7.114231111,0.85,171.4,161.16,0.99,2.88,34.8,0,3.14,3.14,92,44,497.3,16.1,-2.7,D,756.1,1,10.851,2,1.69,180,158.6,-80.13773856,25.9126236,0,0,1,N,1.725062,63,63,11,126,126,161.7253,0,9999.99,3.15,3.277,2,9,32.2,0,32.20000076,53.12,1568.52383,9/2/21,10:42:39,30.5,76.78,53.12,0.95,8.18,-70.8,-5.2,-4.3,-2120,58.5,3.28,12.7,
25.91270503,-80.13777539,05:54.3,9/2/21,10,1.952,163.69,-7.114231111,1.04,171.8,161.56,1,4.39,34.7,0,3.12,3.12,92,44,497.3,16.1,-2.7,D,756.1,1,9.776,2,1.76,180,157.86,-80.13773856,25.9126236,0,0,1,N,1.433864,62,62,11,117,117,159.7188,0,9999.99,3.13,3.257,2,9,32.1,0,32.09999847,53.16,1568.38424,9/2/21,10:42:40,30.54,76.84,53.16,0.951,8.17,-70.3,-4.5,-3.9,-2401,58.5,3.27,12.9,
25.91269546,-80.13777302,05:55.3,9/2/21,10,1.918,166.17,-7.114231111,1.04,171.1,160.87,1.68,5.03,34.8,0,3.11,3.11,92,44,497.3,16.1,-2.7,D,756.1,1,8.703,2,1.87,180,156.67,-80.13773856,25.9126236,0,0,1,N,1.097497,67,67,11,113,113,157.3687,0,9999.99,3.12,3.247,2,9,32.1,0,32.09999847,53.16,1568.38424,9/2/21,10:42:40,30.54,76.84,53.16,0.951,8.17,-70.3,-4.5,-3.9,-2401,58.5,3.27,12.9,
25.91268601,-80.13776961,05:56.3,9/2/21,10,1.996,165.53,-7.114231111,1.04,171.9,161.65,-0.13,2.1,34.7,0,3.11,3.11,92,45,497.3,16.1,-2.8,D,729.4,1,7.603,2,1.94,180,155.89,-80.13773856,25.9126236,0,0,1,N,0.8630209,56,56,11,103,103,155.7144,0,9999.99,3.11,3.237,2,9,32.1,0,32.09999847,53.23,1568.45664,9/2/21,10:42:41,30.55,76.93,53.23,0.929,8.16,-69.8,-5,-6.1,-3863,58.4,3.27,12.8,
25.91267724,-80.13776669,05:57.3,9/2/21,10,1.991,166.37,-7.114231111,1.04,172.5,162.25,0.49,3.56,34.8,0,3.09,3.09,92,45,497.3,16.1,-2.8,D,729.4,1,6.595,2,1.97,180,154.75,-80.13773856,25.9126236,0,0,1,N,0.620205,59,59,11,98,98,153.9901,0,9999.99,3.09,3.217,2,9,32.1,0,32.09999847,53.65,1568.89078,9/2/21,10:42:43,30.52,77.46,53.65,0.998,8.15,-69,-4.9,-3.8,-2714,57.9,3.23,12.8,
25.9126677,-80.13776336,05:58.3,9/2/21,10,1.985,169,-7.114231111,1.04,170.7,160.47,1.1,2.76,34.8,0,3.08,3.08,92,45,497.3,16.1,-2.8,D,729.4,2,22.338,2,2.02,180,144.35,-80.13763318,25.91250447,0,0,1,N,1.148527,64,64,11,70,70,146.2941,0,9999.99,3.09,3.217,2,9,32.1,0,32.09999847,53.65,1568.89078,9/2/21,10:42:43,30.52,77.46,53.65,0.998,8.15,-69,-4.9,-3.8,-2714,57.9,3.23,12.8,
25.91265821,-80.137761,05:59.3,9/2/21,10,2.067,168.43,-7.114231111,0.85,169.3,159.09,1.16,1.5,34.8,0,3.08,3.08,92,45,497.3,16.1,-2.8,D,729.4,2,21.346,2,2.06,180,143.21,-80.13763318,25.91250447,0,0,1,N,0.6726803,64,64,11,69,69,144.5291,0,9999.99,3.09,3.217,2,9,32.1,0,32.09999847,53.71,1568.95288,9/2/21,10:42:44,30.53,77.52,53.71,0.951,8.14,-68.5,-4,-2.9,-1093,57.5,3.21,12.9,
25.91264844,-80.1377575,06:00.3,9/2/21,10,2.135,165.27,-7.114231111,0.85,166.6,156.45,0.5,4.58,34.8,0,3.08,3.08,92,46,497.2,16.1,-2.8,D,720.9,2,20.27,2,2.07,180,142.16,-80.13763318,25.91250447,0,0,1,N,0.2698547,59,59,11,73,73,142.8247,0,9999.99,3.09,3.217,2,9,32.1,0,32.09999847,53.73,1568.97346,9/2/21,10:42:46,30.52,77.54,53.73,0.964,8.13,-68.1,-3.8,-7.9,-2414,56.4,3.15,12.9,
25.91263937,-80.13775347,06:01.3,9/2/21,10,2.086,166.01,-7.114231111,0.85,163.7,153.62,0.72,4.37,34.8,0,3.07,3.07,92,46,497.2,16.1,-2.8,D,720.9,2,19.229,2,2.1,180,141.27,-80.13763318,25.91250447,0,0,1,N,4.97E-02,61,61,11,77,77,141.2223,0,9999.99,3.08,3.207,2,9,32.1,0,32.09999847,53.78,1569.02511,9/2/21,10:42:47,30.51,77.61,53.78,0.941,8.13,-67.9,-3.6,-6.5,-785,55.9,3.12,12.7,
25.91263102,-80.1377498,06:02.3,9/2/21,10,2.16,165.66,-7.114231111,0.85,158.2,148.3,1.77,3.57,34.8,0,3.07,3.07,92,46,497.2,16.1,-2.8,D,720.9,2,18.277,2,2.11,180,140.35,-80.13763318,25.91250447,0,0,1,N,0.3541021,68,68,11,91,91,139.3652,0,9999.99,3.09,3.217,2,9,32.1,0,32.09999847,53.78,1569.02511,9/2/21,10:42:47,30.51,77.61,53.78,0.941,8.13,-67.9,-3.6,-6.5,-785,55.9,3.12,12.7,
25.91262207,-80.13774597,06:03.3,9/2/21,10,2.174,163.25,-7.114231111,0.85,157.5,147.63,0.84,5.77,34.7,0,3.07,3.07,92,46,497.2,16.1,-2.9,D,711.5,2,17.271,2,2.11,180,139.22,-80.13763318,25.91250447,0,0,1,N,0.6748043,62,62,11,84,84,136.9356,0,9999.99,3.08,3.207,2,9,32.1,0,32.09999847,53.82,1569.06662,9/2/21,10:42:48,30.5,77.66,53.82,0.982,8.12,-67.5,-3.2,-4,1374,55.2,3.08,12.8,
25.9126142,-80.13774166,06:04.3,9/2/21,10,2.01,157.02,-7.114231111,0.85,153.5,143.8,1.07,4.06,34.8,0,3.1,3.1,92,46,497.2,16.1,-2.9,D,711.5,2,16.328,2,2.1,180,138.36,-80.13763318,25.91250447,0,0,1,N,0.8882098,65,65,11,92,92,135.1569,0,9999.99,3.11,3.237,2,9,32,0,32,53.91,1568.97874,9/2/21,10:42:50,30.49,77.77,53.91,0.973,8.12,-67.3,-2.2,-6.4,-779,53.8,3,12.8,
25.9126063,-80.13773653,06:05.3,9/2/21,10,2.054,154.25,-7.114231111,0.85,151,141.41,0.57,4.52,34.7,0,3.1,3.1,92,46,497.2,16.1,-2.9,D,711.5,2,15.332,2,2.15,180,137.61,-80.13763318,25.91250447,0,0,1,N,1.040092,62,62,11,98,98,134.0857,0,9999.99,3.11,3.237,2,9,32,0,32,53.91,1568.97874,9/2/21,10:42:50,30.49,77.77,53.91,0.973,8.12,-67.3,-2.2,-6.4,-779,53.8,3,12.8,
25.91259798,-80.13773018,06:06.3,9/2/21,10,1.909,152.85,-7.114231111,0.85,148.9,139.42,0.73,4.82,34.7,0,3.1,3.11,92,46,497.2,16.1,-2.9,D,711.5,2,14.221,2,2.16,180,136.98,-80.13763318,25.91250447,0,0,1,N,1.122333,61,61,11,103,103,133.5065,0,9999.99,3.11,3.237,2,9,32,0,32,53.96,1569.03029,9/2/21,10:42:51,30.49,77.83,53.96,0.971,8.12,-67.3,-4.7,1.4,-4740,53.2,2.97,12.7,
25.91258965,-80.13772329,06:07.3,9/2/21,10,1.932,150.22,-7.114231111,0.85,147.4,138,0.94,4.65,34.8,0,3.1,3.11,92,46,497.2,16.1,-2.8,D,717.6,2,13.074,2,2.18,180,136.42,-80.13763318,25.91250447,0,0,1,N,1.164923,63,63,11,108,108,133.2081,0,9999.99,3.11,3.237,2,9,32,0,32,54,1569.07175,9/2/21,10:42:52,30.5,77.89,54,0.985,8.12,-67.4,-3.2,-2.2,-2257,52.5,2.93,12.9,
25.91258222,-80.13771695,06:08.3,9/2/21,10,2.023,146.29,-7.114231111,0.85,146.2,136.87,0.77,4.01,34.7,0,3.11,3.11,92,46,497.2,16.1,-2.8,D,717.6,2,12.039,2,2.19,180,135.9,-80.13763318,25.91250447,0,0,1,N,1.184735,60,60,11,112,112,133.0687,0,9999.99,3.11,3.237,2,9,32,0,32,54.05,1569.12374,9/2/21,10:42:54,30.52,77.94,54.05,0.964,8.12,-67.5,-3.8,-4.7,-3067,51.2,2.86,12.9,
25.91257476,-80.13771071,06:09.3,9/2/21,10,2.114,144.92,-7.114231111,0.85,145.9,136.58,0.23,3.95,34.8,0,3.12,3.12,92,46,497.2,16.1,-2.8,D,717.6,2,11.01,2,2.18,180,135.23,-80.13763318,25.91250447,0,0,1,N,1.210452,58,58,11,113,113,132.8887,0,9999.99,3.13,3.257,2,9,32,0,32,54.05,1569.12374,9/2/21,10:42:54,30.52,77.94,54.05,0.964,8.12,-67.5,-3.8,-4.7,-3067,51.2,2.86,12.9,
25.91256615,-80.13770305,06:10.3,9/2/21,10,2.138,143.16,-7.114231111,0.85,145.8,136.49,0.51,3.15,34.7,0.01,3.12,3.13,92,45,497.2,16.1,-2.8,D,729.9,2,9.792,2,2.15,179,134.46,-80.13763318,25.91250447,0,0,1,N,1.207518,60,60,11,113,113,132.9087,0,9999.99,3.13,3.257,2,9,32,0,32,54.06,1569.1342,9/2/21,10:42:55,30.53,77.96,54.06,0.977,8.13,-67.6,-4.2,-3.6,-2148,50.7,2.82,12.8,
25.91255889,-80.13769691,06:11.3,9/2/21,10,1.88,143.43,-7.114231111,0.85,145.3,136.02,1.08,3.78,34.7,0,3.15,3.15,92,45,497.2,16.1,-2.8,D,729.9,2,8.789,2,2.16,179,133.51,-80.13763318,25.91250447,0,0,1,N,1.233126,60,60,11,114,114,132.7299,0,9999.99,3.15,3.277,2,9,32,0,32,54.09,1569.16503,9/2/21,10:42:57,30.52,77.99,54.09,0.97,8.12,-67.5,-3,-4.7,-482,49.6,2.76,12.9,
25.91255174,-80.1376911,06:12.3,9/2/21,10,1.946,143.41,-7.114231111,0.85,145.4,136.11,0.8,4.01,34.7,0,3.16,3.16,92,45,497.2,16.1,-2.8,D,729.9,2,7.822,2,2.16,179,132.21,-80.13763318,25.91250447,0,0,1,N,1.272191,60,60,11,111,111,132.4574,0,9999.99,3.17,3.297,2,9,32,0,32,54.09,1569.16496,9/2/21,10:42:58,30.52,78,54.09,0.972,8.13,-67.6,-4.2,-5,-773,49.1,2.74,12.9,
25.9125439,-80.13768458,06:13.3,9/2/21,10,2.174,141.69,-7.114231111,0.85,144.7,135.45,-0.19,3.64,34.7,0,3.18,3.18,92,45,497.2,16.1,-2.8,D,729.9,2,6.757,2,2.18,179,130.46,-80.13763318,25.91250447,0,0,1,N,1.303783,57,57,11,113,113,132.2364,0,9999.99,3.18,3.307,2,9,32,0,32,54.09,1569.16496,9/2/21,10:42:58,30.52,78,54.09,0.972,8.13,-67.6,-4.2,-5,-773,49.1,2.74,12.9,
25.91253568,-80.13767724,06:14.3,9/2/21,10,2.062,141.99,-7.114231111,0.85,145.2,135.92,0.78,3.18,34.7,0,3.19,3.19,92,44,497.1,16.1,-2.7,D,748.6,2,5.61,2,2.18,179,128.22,-80.13763318,25.91250447,0,0,1,N,1.299579,62,62,11,112,112,132.2654,0,9999.99,3.19,3.317,2,9,32,0,32,54.1,1569.1754,9/2/21,10:42:59,30.52,78.01,54.1,0.992,8.12,-67.5,-4,-6.2,-2646,48.6,2.71,12.8,
25.91252831,-80.13767107,06:15.3,9/2/21,10,2.043,142.82,-7.114231111,0.85,145.6,136.3,0.95,3.46,34.7,0,3.17,3.18,92,44,497.1,16.1,-2.7,D,748.6,2,4.625,2,2.18,179,124.97,-80.13763318,25.91250447,0,0,1,N,1.326847,64,64,11,110,110,132.0751,0,9999.99,3.18,3.307,2,9,32,0,32,54.14,1569.21654,9/2/21,10:43:01,30.5,78.05,54.14,0.964,8.12,-67.4,-2.8,-4.6,-3489,47.8,2.66,12.9,
25.91252117,-80.13766505,06:16.3,9/2/21,10,1.933,143.61,-7.114231111,0.85,144.3,135.07,0.5,4.66,34.7,0,3.22,3.22,92,44,497.1,16.1,-2.7,D,748.6,3,23.544,2,2.14,179,150.06,-80.13754756,25.91233769,0,0,1,N,2.154487,60,60,11,166,166,144.7418,0,9999.99,3.22,3.347,2,9,32,0,32,54.14,1569.21654,9/2/21,10:43:01,30.5,78.05,54.14,0.964,8.12,-67.4,-2.8,-4.6,-3489,47.8,2.66,12.9,
25.91251326,-80.13765859,06:17.3,9/2/21,10,2.058,143.74,-7.114231111,0.85,147,137.62,-0.2,6.35,34.7,0,3.23,3.23,92,44,497.1,16.1,-2.7,D,748.3,3,22.46,2,2.14,179,150.37,-80.13754756,25.91233769,0,0,1,N,1.933726,56,56,11,156,156,144.7215,0,9999.99,3.23,3.357,2,9,32,0,32,54.19,1569.26838,9/2/21,10:43:02,30.49,78.12,54.19,0.981,8.12,-67.4,-3.4,-0.9,-3173,47.4,2.64,12.9,
25.91250461,-80.13765128,06:18.3,9/2/21,10,2.224,140.8,-7.114231111,0.85,149.7,140.18,0.45,2.36,34.8,0,3.25,3.25,92,44,497.1,16.1,-2.7,D,748.3,3,21.263,2,2.16,179,150.8,-80.13754756,25.91233769,0,0,1,N,1.670366,60,60,11,145,145,144.8002,0,9999.99,3.25,3.377,2,9,32,0,32,54.28,1569.36144,9/2/21,10:43:04,30.49,78.23,54.28,0.998,8.12,-67,-2.2,-3.2,-4406,46.5,2.59,12.9,
25.91249655,-80.13764431,06:19.3,9/2/21,10,2.134,142.12,-7.114231111,0.85,151,141.41,0.76,3.59,34.8,0.01,3.25,3.26,92,44,497.1,16.1,-2.7,D,748.3,3,20.141,2,2.12,179,151.28,-80.13754756,25.91233769,0,0,1,N,1.410214,62,62,11,142,142,145.2158,0,9999.99,3.26,3.387,2,9,32,0,32,54.32,1569.40352,9/2/21,10:43:05,30.48,78.27,54.32,0.989,8.12,-67.1,-3.2,-2.5,-492,46.2,2.57,12.8,
25.91248878,-80.13763844,06:20.3,9/2/21,11,2.071,145.9,-7.114231111,0.85,153.2,143.51,0.77,3.97,34.7,0.01,3.26,3.27,92,44,497.1,16.1,-2.7,D,748.3,3,19.101,2,2.11,179,151.59,-80.13754756,25.91233769,0,0,1,N,1.231755,63,63,11,140,140,146.462,0,9999.99,3.27,3.397,2,9,31.9,0,32,54.32,1569.40352,9/2/21,10:43:05,30.48,78.27,54.32,0.989,8.12,-67.1,-3.2,-2.5,-492,46.2,2.57,12.8,
25.91248046,-80.13763295,06:21.3,9/2/21,11,2.08,147.35,-7.114231111,0.81,155.1,145.33,0.96,4.35,34.8,0,3.26,3.26,92,44,497.1,16.1,-2.7,D,757.6,3,18.027,2,2.1,179,151.72,-80.13754756,25.91233769,0,0,1,N,1.117913,63,63,11,135,135,147.2596,0,9999.99,3.27,3.397,2,9,31.9,0,31.89999962,54.32,1569.22168,9/2/21,10:43:06,30.48,78.28,54.32,0.969,8.12,-67,-3.4,-6.1,-2457,45.7,2.55,12.9,
25.91247207,-80.13762767,06:22.3,9/2/21,10,2.111,149.15,-7.114231111,0.85,155.8,146,0.42,3.92,34.7,0,3.28,3.28,92,44,497.1,16.1,-2.7,D,757.6,3,16.955,2,2.1,179,151.8,-80.13754756,25.91233769,0,0,1,N,1.03002,60,60,11,135,135,147.8778,0,9999.99,3.29,3.417,2,9,31.9,0,31.89999962,54.35,1569.25286,9/2/21,10:43:07,30.47,78.31,54.35,0.971,8.12,-67,-3.3,-2.1,-2275,45.4,2.53,12.7,
25.91246391,-80.1376239,06:23.3,9/2/21,11,2.02,151.35,-7.114231111,0.85,156.6,146.77,1.01,4.76,34.8,0.01,3.29,3.3,92,44,497.1,16.1,-2.7,D,757.6,3,15.978,2,2.11,179,151.46,-80.13754756,25.91233769,0,0,1,N,1.063175,66,66,11,131,131,147.6447,0,9999.99,3.3,3.427,2,9,31.9,0,31.89999962,54.39,1569.29453,9/2/21,10:43:09,30.47,78.37,54.39,0.991,8.11,-66.7,-2.7,-4.5,-4857,44.6,2.48,12.9,
25.91245467,-80.13761961,06:24.3,9/2/21,11,2.07,154.61,-7.114231111,0.81,158,148.11,0.43,3.23,34.7,0,3.31,3.32,92,43,497,16.1,-2.7,D,764.8,3,14.87,2,2.14,178,151.01,-80.13754756,25.91233769,0,0,1,N,1.103418,61,61,11,126,126,147.3616,0,9999.99,3.32,3.447,2,9,31.9,0,31.89999962,54.39,1569.29453,9/2/21,10:43:09,30.47,78.37,54.39,0.991,8.11,-66.7,-2.7,-4.5,-4857,44.6,2.48,12.9,
25.91244431,-80.13761369,06:25.3,9/2/21,11,2.044,156.26,-7.114231111,0.81,158.1,148.21,0.76,4.34,34.7,0,3.32,3.32,92,43,497,16.1,-2.7,D,764.8,3,13.576,2,2.14,178,150.84,-80.13754756,25.91233769,0,0,1,N,1.04958,62,62,11,125,125,147.7401,0,9999.99,3.32,3.447,2,9,31.9,0,31.89999962,54.43,1569.33562,9/2/21,10:43:10,30.46,78.41,54.43,0.953,8.11,-66.6,-2.6,0.7,-3811,44.3,2.47,12.9,
25.91243595,-80.13760988,06:26.3,9/2/21,11,2.094,155.02,-7.114231111,0.81,159,149.07,0.42,2.79,34.7,0,3.31,3.31,92,43,497,16.1,-2.7,D,764.8,3,12.579,2,2.16,178,150.3,-80.13754756,25.91233769,0,0,1,N,1.088776,58,58,11,121,121,147.4646,0,9999.99,3.31,3.437,2,9,31.9,0,31.89999962,54.47,1569.37691,9/2/21,10:43:11,30.46,78.47,54.47,0.994,8.11,-66.7,-2.4,-4.1,-2590,43.9,2.44,12.8,
25.91242767,-80.13760618,06:27.3,9/2/21,11,2.141,156.22,-7.114231111,0.81,159.5,149.56,0.35,3.98,34.7,0,3.32,3.32,92,43,497,16.1,-2.7,D,764.8,3,11.597,2,2.17,178,149.63,-80.13754756,25.91233769,0,0,1,N,1.140427,59,59,11,116,116,147.1017,0,9999.99,3.32,3.447,2,9,31.9,0,31.89999962,54.5,1569.40792,9/2/21,10:43:12,30.46,78.51,54.5,0.983,8.11,-66.7,-2.5,-5.3,-1844,43.6,2.42,12.9,
25.91241874,-80.13760232,06:28.3,9/2/21,11,1.907,156.05,-7.114231111,0.81,160.5,150.52,-0.28,2.71,34.8,0,3.32,3.32,92,43,497,16.1,-2.6,D,773.9,3,10.546,2,2.15,178,148.71,-80.13754756,25.91233769,0,0,1,N,1.206195,56,56,11,114,114,146.6407,0,9999.99,3.32,3.447,2,9,31.9,0,31.89999962,54.57,1569.48038,9/2/21,10:43:14,30.45,78.59,54.57,0.981,8.11,-66.7,-2.5,-3.4,-2605,42.9,2.39,12.9,
25.91241043,-80.13759861,06:29.3,9/2/21,11,1.989,157.89,-7.114231111,0.81,159.9,149.94,0.61,3.09,34.8,0,3.33,3.33,92,43,497,16.1,-2.6,D,773.9,3,9.565,2,2.19,178,147.73,-80.13754756,25.91233769,0,0,1,N,1.254818,61,61,11,112,112,146.3002,0,9999.99,3.33,3.457,2,9,31.9,0,31.89999962,54.57,1569.48038,9/2/21,10:43:14,30.45,78.59,54.57,0.981,8.11,-66.7,-2.5,-3.4,-2605,42.9,2.39,12.9,
25.91240063,-80.13759289,06:30.3,9/2/21,11,2.083,156.91,-7.114231111,0.81,159.7,149.75,0.4,4.29,34.8,0,3.3,3.31,92,43,497,16.1,-2.6,D,773.9,3,8.338,2,2.2,178,147.07,-80.13754756,25.91233769,0,0,1,N,1.189988,59,59,11,112,112,146.754,0,9999.99,3.31,3.437,2,9,31.9,0,31.89999962,54.59,1569.50124,9/2/21,10:43:15,30.44,78.62,54.59,0.964,8.11,-66.3,-1.6,2.1,-1817,42.5,2.36,12.7,
25.91238976,-80.13758635,06:31.3,9/2/21,11,2.37,155.27,-7.114231111,0.81,160,150.04,0.03,3.15,34.8,0,3.3,3.3,92,43,497,16.1,-2.6,D,773.9,3,6.97,2,2.19,178,146.18,-80.13754756,25.91233769,0,0,1,N,1.10421,57,57,11,116,116,147.356,0,9999.99,3.3,3.427,2,9,31.9,0,31.89999962,54.67,1569.58392,9/2/21,10:43:17,30.43,78.72,54.67,0.988,8.1,-66.3,-2.9,-1.9,-1577,41.8,2.33,12.9,
25.91238174,-80.13758264,06:32.3,9/2/21,11,2.113,156.02,-7.114231111,0.81,160.3,150.33,0.49,3.96,34.8,0,3.3,3.3,92,43,497,16.1,-2.6,D,774.1,3,6.025,2,2.21,178,144.39,-80.13754756,25.91233769,0,0,1,N,1.140628,60,60,11,114,114,147.1006,0,9999.99,3.3,3.427,2,9,31.9,0,31.89999962,54.67,1569.58392,9/2/21,10:43:17,30.43,78.72,54.67,0.988,8.1,-66.3,-2.9,-1.9,-1577,41.8,2.33,12.9,
25.91237254,-80.13757747,06:33.3,9/2/21,11,1.958,158.14,-7.114231111,0.81,159.4,149.46,0.75,3.8,34.8,0,3.3,3.3,92,43,497,16.1,-2.6,D,774.1,3,4.895,2,2.19,177,142.33,-80.13754756,25.91233769,0,0,1,N,1.104128,61,61,11,119,119,147.3557,0,9999.99,3.31,3.437,2,9,31.9,0,31.89999962,54.71,1569.62536,9/2/21,10:43:18,30.42,78.76,54.71,0.975,8.1,-66.3,-3.1,-5.8,-319,41.5,2.31,12.9,
25.91236306,-80.13757213,06:34.3,9/2/21,11,2.028,159.26,-7.114231111,0.81,159.6,149.65,0.17,3.8,34.7,0,3.31,3.31,92,43,497,16.1,-2.6,D,774.1,4,23.335,2,2.18,177,146.15,-80.13744218,25.91218878,0,0,1,N,0.5531213,58,58,11,108,108,144.9537,0,9999.99,3.31,3.437,2,9,31.9,0,31.89999962,54.75,1569.66692,9/2/21,10:43:20,30.39,78.81,54.75,0.989,8.1,-66.1,-2.7,-7.9,-2163,40.9,2.27,13,
25.91235463,-80.13756771,06:35.3,9/2/21,11,2.009,157.21,-7.114231111,0.81,159.3,149.36,0.71,3.55,34.8,0,3.31,3.31,92,42,496.9,16.1,-2.6,D,787.3,4,22.31,2,2.2,177,145.75,-80.13744218,25.91218878,0,0,1,N,0.683192,61,61,11,106,106,144.0365,0,9999.99,3.31,3.437,2,9,31.9,0,31.89999962,54.75,1569.66692,9/2/21,10:43:20,30.39,78.81,54.75,0.989,8.1,-66.1,-2.7,-7.9,-2163,40.9,2.27,13,
25.9123451,-80.13756206,06:36.3,9/2/21,11,2.145,155.65,-7.114231111,0.81,158.1,148.21,1.17,3.86,34.8,0,3.29,3.29,92,42,496.9,16.1,-2.6,D,787.3,4,21.116,2,2.18,177,145.4,-80.13744218,25.91218878,0,0,1,N,0.7791579,64,64,11,106,106,143.009,0,9999.99,3.3,3.427,2,9,31.9,0,31.89999962,54.79,1569.70817,9/2/21,10:43:21,30.38,78.86,54.79,0.975,8.1,-65.9,-2.3,-1.1,-1696,40.5,2.25,13,
25.91233679,-80.13755713,06:37.3,9/2/21,11,2.021,155.8,-7.114231111,0.81,158.1,148.21,0.01,3.27,34.8,0,3.29,3.29,92,42,496.9,16.1,-2.6,D,787.3,4,20.076,2,2.12,177,145.06,-80.13744218,25.91218878,0,0,1,N,0.8582106,58,58,11,100,100,141.8526,0,9999.99,3.29,3.417,2,9,31.9,0,31.89999962,54.84,1569.75992,9/2/21,10:43:23,30.36,78.92,54.84,0.983,8.09,-65.6,-1.4,-2.9,675,39.8,2.22,12.8,
25.91232941,-80.13755358,06:38.3,9/2/21,11,1.9,157.97,-7.114231111,0.81,157.2,147.34,0.73,3.19,34.8,0,3.3,3.3,92,42,496.9,16.1,-2.6,D,787.3,4,19.201,2,2.13,177,144.53,-80.13744218,25.91218878,0,0,1,N,1.00147,61,61,11,99,99,140.3892,0,9999.99,3.3,3.427,2,9,31.8,0,31.89999962,54.84,1569.75992,9/2/21,10:43:23,30.36,78.92,54.84,0.983,8.09,-65.6,-1.4,-2.9,675,39.8,2.22,12.8,
25.9123216,-80.1375497,06:39.3,9/2/21,11,2.064,156.17,-7.114231111,0.81,157,147.15,0.98,2.57,34.8,0,3.28,3.28,92,42,496.9,16.1,-2.6,D,784.5,4,18.27,2,2.16,177,143.94,-80.13744218,25.91218878,0,0,1,N,1.141243,63,63,11,95,95,139.4027,0,9999.99,3.29,3.417,2,9,31.8,0,31.79999924,54.86,1569.59913,9/2/21,10:43:24,30.36,78.95,54.86,0.962,8.09,-65.6,-2.1,-2.2,-4911,39.6,2.2,12.9,
25.91231317,-80.13754474,06:40.3,9/2/21,11,2.112,154.2,-7.114231111,0.81,155.3,145.52,0.2,3.78,34.8,0,3.28,3.28,92,42,496.9,16.1,-2.6,D,784.5,4,17.221,2,2.13,177,143.44,-80.13744218,25.91218878,0,0,1,N,1.230576,60,60,11,100,100,138.7783,0,9999.99,3.28,3.407,2,9,31.8,0,31.79999924,54.93,1569.67158,9/2/21,10:43:26,30.36,79.03,54.93,0.976,8.09,-65.6,-2.6,-5.3,529,38.8,2.16,12.9,
25.91230412,-80.13753812,06:41.3,9/2/21,11,2.114,151.78,-7.114231111,0.81,153.3,143.61,1.04,4.16,34.7,0,3.28,3.29,92,42,496.9,16.1,-2.6,D,784.5,4,16.018,2,2.14,177,143.19,-80.13744218,25.91218878,0,0,1,N,1.215947,61,61,11,107,107,138.8799,0,9999.99,3.29,3.417,2,9,31.8,0,31.79999924,54.93,1569.67158,9/2/21,10:43:26,30.36,79.03,54.93,0.976,8.09,-65.6,-2.6,-5.3,529,38.8,2.16,12.9,
25.91229618,-80.13753272,06:42.3,9/2/21,11,1.951,152.38,-7.114231111,0.81,153.2,143.51,0.73,3.67,34.8,0,3.3,3.31,92,42,496.9,16.1,-2.6,D,783.3,4,14.988,2,2.16,177,142.83,-80.13744218,25.91218878,0,0,1,N,1.234957,61,61,11,108,108,138.7467,0,9999.99,3.31,3.437,2,9,31.8,0,31.79999924,54.97,1569.71352,9/2/21,10:43:27,30.37,79.08,54.97,0.965,8.09,-65.5,-1.6,-4,-1678,38.6,2.14,12.8,
25.91228853,-80.13752777,06:43.3,9/2/21,11,1.94,151.51,-7.114231111,0.81,152.5,142.84,0.42,3.96,34.7,0,3.29,3.29,92,42,496.9,16.1,-2.6,D,783.3,4,14.011,2,2.19,177,142.34,-80.13744218,25.91218878,0,0,1,N,1.278865,60,60,11,109,109,138.4396,0,9999.99,3.29,3.417,2,9,31.8,0,31.79999924,54.76,1569.49565,9/2/21,10:43:29,30.38,78.82,54.76,0.98,8.1,-66.1,-2.7,-7,-367,38.1,2.12,12.9,
25.91228039,-80.13752189,06:44.3,9/2/21,11,2.17,149.16,-7.114231111,0.81,150.4,140.84,1,3.44,34.8,0,3.29,3.29,92,42,496.9,16.1,-2.6,D,783.3,4,12.936,2,2.17,177,141.95,-80.13744218,25.91218878,0,0,1,N,1.276924,63,63,11,117,117,138.4533,0,9999.99,3.3,3.427,2,9,31.8,0,31.79999924,54.76,1569.49565,9/2/21,10:43:29,30.38,78.82,54.76,0.98,8.1,-66.1,-2.7,-7,-367,38.1,2.12,12.9,
25.91227247,-80.13751536,06:45.3,9/2/21,11,2.046,147.47,-7.114231111,0.81,150.4,140.84,0.61,4.2,34.8,0,3.29,3.29,92,42,496.9,16.1,-2.6,D,783.3,4,11.84,2,2.16,177,141.82,-80.13744218,25.91218878,0,0,1,N,1.193384,63,63,11,121,121,139.0379,0,9999.99,3.3,3.427,2,9,31.8,0,31.79999924,54.79,1569.52663,9/2/21,10:43:30,30.42,78.86,54.79,0.971,8.11,-66.9,-2.5,-2.1,-3778,37.8,2.1,12.9,
25.912264,-80.13750844,06:46.3,9/2/21,11,2.038,146.6,-7.114231111,0.81,149.7,140.18,0.18,4.02,34.8,0,3.31,3.32,92,42,496.8,16.1,-2.6,D,787.7,4,10.672,2,2.15,176,141.61,-80.13744218,25.91218878,0,0,1,N,1.117154,58,58,11,125,125,139.5726,0,9999.99,3.32,3.447,2,9,31.8,0,31.79999924,54.87,1569.60972,9/2/21,10:43:31,30.45,78.96,54.87,0.971,8.13,-67.8,-4,-4.5,-3847,37.7,2.1,12.7,
25.91225673,-80.13750356,06:47.3,9/2/21,11,1.829,147.14,-7.114231111,0.81,149.4,139.9,0.34,3.93,34.8,0,3.34,3.34,92,42,496.8,16.1,-2.6,D,787.7,4,9.735,2,2.12,176,140.91,-80.13744218,25.91218878,0,0,1,N,1.138339,59,59,11,125,125,139.4236,0,9999.99,3.34,3.467,2,9,31.8,0,31.79999924,54.78,1569.51645,9/2/21,10:43:33,30.52,78.86,54.78,0.975,8.16,-69.6,-3.1,-0.4,-1281,37.8,2.1,12.9,
25.91224976,-80.13749822,06:48.3,9/2/21,11,1.998,146.32,-7.114231111,0.81,149.3,139.8,0.63,3.3,34.8,0,3.34,3.35,92,42,496.8,16.1,-2.6,D,787.7,4,8.797,2,2.08,176,140.42,-80.13744218,25.91218878,0,0,1,N,1.103162,61,61,11,126,126,139.6705,0,9999.99,3.35,3.477,2,9,31.8,0,31.79999924,54.78,1569.51645,9/2/21,10:43:33,30.52,78.86,54.78,0.975,8.16,-69.6,-3.1,-0.4,-1281,37.8,2.1,12.9,
25.91224324,-80.13749357,06:49.3,9/2/21,11,1.96,145.25,-7.114231111,0.81,149.1,139.61,0.6,3.63,34.8,0,3.35,3.35,92,41,496.8,16.1,-2.5,D,810.2,4,7.943,2,2.07,176,139.67,-80.13744218,25.91218878,0,0,1,N,1.10034,59,59,11,127,127,139.6911,0,9999.99,3.35,3.477,2,9,31.8,0,31.79999924,54.86,1569.59933,9/2/21,10:43:34,30.56,78.96,54.86,0.991,8.17,-70.1,-4,-4.9,-4573,38,2.11,12.9,
25.91223591,-80.13748696,06:50.3,9/2/21,11,1.941,145.28,-7.114231111,0.81,148.9,139.42,0.27,3.55,34.8,0,3.37,3.37,92,41,496.8,16.1,-2.5,D,810.2,4,6.894,2,2.06,176,139.48,-80.13744218,25.91218878,0,0,1,N,0.9850948,62,62,11,132,132,140.5023,0,9999.99,3.37,3.497,2,9,31.8,0,31.79999924,54.91,1569.65117,9/2/21,10:43:36,30.58,79.02,54.91,0.956,8.18,-71,-4.4,-4,-3170,38.6,2.14,12.9,
25.9122286,-80.13748146,06:51.3,9/2/21,11,1.8,146.68,-7.114231111,0.81,149.4,139.9,0.59,3.82,34.8,0,3.35,3.35,92,41,496.8,16.1,-2.5,D,810.2,4,5.92,2,2.03,176,138.42,-80.13744218,25.91218878,0,0,1,N,0.9548147,61,61,11,130,130,140.7163,0,9999.99,3.35,3.477,2,9,31.8,0,31.79999924,54.91,1569.65117,9/2/21,10:43:36,30.58,79.02,54.91,0.956,8.18,-71,-4.4,-4,-3170,38.6,2.14,12.9,
25.91222138,-80.13747637,06:52.3,9/2/21,11,1.898,146.62,-7.114231111,0.81,149.3,139.8,0.4,3.21,34.8,0,3.37,3.37,92,41,496.8,16.1,-2.5,D,810.2,4,4.984,2,2.01,176,136.67,-80.13744218,25.91218878,0,0,1,N,0.9541479,61,61,11,131,131,140.7214,0,9999.99,3.38,3.507,2,9,31.8,0,31.79999924,54.9,1569.64066,9/2/21,10:43:37,30.58,79.01,54.9,0.963,8.18,-71.1,-3.1,-4.8,-3352,39,2.16,12.9,
25.91221388,-80.13747084,06:53.3,9/2/21,11,1.892,145.9,-7.114231111,0.81,149.9,140.37,0.71,3.2,34.8,0,3.39,3.39,92,40,496.8,16.1,-2.5,D,814.9,5,25.24,1,2.02,172,142.45,-80.13731704,25.91203391,0,0,1,N,0.6872474,59,59,11,130,130,140.9182,0,9999.99,3.39,3.517,2,9,31.8,0,31.79999924,55.07,1569.81709,9/2/21,10:43:39,30.57,79.21,55.07,0.958,8.18,-71,-3.4,-4,-2754,39.8,2.2,12.6,
25.9122069,-80.13746539,06:54.3,9/2/21,11,1.888,144.63,-7.114231111,0.81,150.2,140.65,0.2,2.82,34.8,0,3.42,3.43,92,40,496.8,16.1,-2.5,D,814.9,5,24.294,1,2.02,167,142.35,-80.13731704,25.91203391,0,0,1,N,0.700577,58,58,11,127,127,140.5713,0,9999.99,3.43,3.557,2,9,31.8,0,31.79999924,55.07,1569.81709,9/2/21,10:43:39,30.57,79.21,55.07,0.958,8.18,-71,-3.4,-4,-2754,39.8,2.2,12.6,
25.91219989,-80.13746017,06:55.3,9/2/21,11,1.735,147.08,-7.114231111,0.81,149.4,139.9,0.64,1.2,34.8,0,3.42,3.42,92,40,496.8,16.1,-2.5,D,814.9,5,23.357,1,1.96,167,142.2,-80.13731704,25.91203391,0,0,1,N,0.7347512,61,61,11,128,128,140.0306,0,9999.99,3.42,3.547,2,9,31.8,0,31.79999924,55.15,1569.89976,9/2/21,10:43:40,30.57,79.31,55.15,0.962,8.18,-70.7,-2.8,-0.1,-3314,40.2,2.22,12.9,
25.91219218,-80.13745421,06:56.3,9/2/21,11,1.825,147.22,-7.114231111,0.81,149.5,139.99,0.85,0.51,34.8,0,3.42,3.42,92,40,496.8,16.1,-2.5,D,814.9,5,22.315,1,1.93,163,142.06,-80.13731704,25.91203391,0,0,1,N,0.7574307,62,62,11,125,125,139.3715,0,9999.99,3.42,3.547,2,9,31.8,0,31.79999924,55.18,1569.93077,9/2/21,10:43:41,30.56,79.35,55.18,0.972,8.17,-70.3,-3.1,-5.6,-3186,40.5,2.24,12.9,
25.9121852,-80.13744871,06:57.3,9/2/21,11,1.909,144.87,-7.114231111,0.81,149.7,140.18,1.46,-0.68,34.8,0,3.43,3.44,92,31,496.7,16.1,-1.9,D,1065.6,5,21.364,1,1.84,160,141.95,-80.13731704,25.91203391,0,0,1,N,0.7692772,64,64,11,121,121,138.6596,0,9999.99,3.44,3.567,2,9,31.8,0,31.79999924,55.25,1570.00345,9/2/21,10:43:43,30.56,79.44,55.25,0.945,8.17,-70.4,-3.1,-5.6,-3344,40.9,2.26,12.7,
25.91217918,-80.13744369,06:58.3,9/2/21,12,1.708,143.6,-7.114231111,0.81,149.1,139.61,1.35,-0.5,34.8,0.01,3.42,3.43,92,31,496.7,16.1,-1.9,D,1065.6,5,20.528,1,1.74,156,141.9,-80.13731704,25.91203391,0,0,1,N,0.7572508,66,66,11,123,123,138.5849,0,9999.99,3.44,3.567,2,9,31.8,0,31.79999924,55.25,1570.00345,9/2/21,10:43:43,30.56,79.44,55.25,0.945,8.17,-70.4,-3.1,-5.6,-3344,40.9,2.26,12.7,
25.91217335,-80.13743972,06:59.3,9/2/21,12,1.381,145.34,-7.114231111,0.81,148.4,138.95,1.51,-1.13,34.8,0.01,3.45,3.47,92,31,496.7,16.1,-1.9,D,1065.6,5,19.772,1,1.63,154,141.64,-80.13731704,25.91203391,0,0,1,N,0.8195102,66,66,11,124,124,138.1425,0,9999.99,3.47,3.597,2,9,31.8,0,31.79999924,55.24,1569.99409,9/2/21,10:43:44,30.56,79.42,55.24,0.914,8.17,-70.3,-2.8,-3.6,-7592,41.1,2.27,13,
25.91216757,-80.13743476,07:00.3,9/2/21,11,1.377,143.01,-7.114231111,0.81,148.5,139.04,1.88,-1.93,34.9,0,3.44,3.44,92,26,496.7,16.1,-1.6,D,1277.7,5,18.961,1,1.55,152,141.61,-80.13731704,25.91203391,0,0,1,N,0.7960939,68,68,11,123,123,138.3081,0,9999.99,3.45,3.577,2,9,31.8,0,31.79999924,55.26,1570.01394,9/2/21,10:43:46,30.54,79.45,55.26,0.923,8.16,-69.7,-1.8,-3.1,-2182,41.3,2.29,12.9,
25.91216311,-80.13743175,07:01.3,9/2/21,11,1.189,143.19,-7.114231111,0.81,148.8,139.33,1.18,-2.25,34.8,0,3.44,3.45,92,26,496.7,16.1,-1.6,D,1277.7,5,18.385,1,1.42,152,141.39,-80.13731704,25.91203391,0,0,1,N,0.8417711,64,64,11,122,122,137.9843,0,9999.99,3.46,3.587,2,9,31.8,0,31.79999924,55.26,1570.01394,9/2/21,10:43:46,30.54,79.45,55.26,0.923,8.16,-69.7,-1.8,-3.1,-2182,41.3,2.29,12.9,
25.91215866,-80.13742911,07:02.3,9/2/21,11,1.283,142.28,-7.114231111,0.81,148.3,138.85,1.37,-2.05,34.8,0,3.46,3.47,92,26,496.7,16.1,-1.6,D,1277.7,5,17.834,1,1.37,151,141.06,-80.13731704,25.91203391,0,0,1,N,0.9177817,65,65,11,121,121,137.4458,0,9999.99,3.48,3.607,2,9,31.8,0,31.79999924,55.32,1570.07585,9/2/21,10:43:47,30.51,79.52,55.32,0.953,8.15,-69.2,-2,-6.1,-1134,41.4,2.29,12.8,
25.91215378,-80.13742577,07:03.3,9/2/21,11,1.171,142.67,-7.114231111,0.81,148.2,138.76,1.47,-1.85,34.8,0,3.49,3.49,92,26,496.7,16.1,-1.6,D,1277.7,5,17.203,1,1.36,151,140.79,-80.13731704,25.91203391,0,0,1,N,0.9648898,66,66,11,120,120,137.1134,0,9999.99,3.5,3.627,2,9,31.8,0,31.79999924,55.4,1570.15897,9/2/21,10:43:49,30.47,79.61,55.4,0.889,8.14,-68.3,-2.1,-2.9,-999,41.3,2.28,13,
25.91214881,-80.13742181,07:04.3,9/2/21,11,1.129,145.14,-7.114231111,0.81,147.9,138.47,1.64,-2.02,34.8,0,3.51,3.51,92,25,496.7,16.1,-1.5,D,1323.5,5,16.524,1,1.28,151,140.64,-80.13731704,25.91203391,0,0,1,N,0.9720417,67,67,11,121,121,137.0627,0,9999.99,3.52,3.647,2,9,31.8,0,31.79999924,55.4,1570.15897,9/2/21,10:43:49,30.47,79.61,55.4,0.889,8.14,-68.3,-2.1,-2.9,-999,41.3,2.28,13,
25.91214545,-80.13741817,07:05.3,9/2/21,11,1.068,146.12,-7.114231111,0.81,147.9,138.47,1.32,-1.9,34.8,0,3.51,3.51,92,25,496.7,16.1,-1.5,D,1323.5,5,16.004,1,0.98,151,140.8,-80.13731704,25.91203391,0,0,1,N,0.9123861,65,65,11,123,123,137.484,0,9999.99,3.52,3.647,2,9,31.8,0,31.79999924,55.43,1570.18971,9/2/21,10:43:50,30.47,79.66,55.43,0.917,8.14,-68.2,-1.8,-1.3,-1224,41.2,2.28,13,
25.91214275,-80.13741652,07:06.3,9/2/21,11,1.03,142.33,-7.114231111,0.81,147,137.62,1.54,-2.1,34.8,0,3.49,3.49,92,25,496.7,16.1,-1.5,D,1323.5,5,15.667,1,0.91,151,140.58,-80.13731704,25.91203391,0,0,1,N,0.959353,66,66,11,125,125,137.1525,0,9999.99,3.5,3.627,2,9,31.8,0,31.79999924,55.48,1570.24178,9/2/21,10:43:52,30.47,79.71,55.48,0.898,8.13,-67.8,-1.8,-6.4,-3035,40.8,2.26,12.9,
25.91213765,-80.13741231,07:07.3,9/2/21,11,1.19,141.65,-7.114231111,0.81,147.1,137.72,1.27,-2.38,34.8,0.01,3.51,3.51,92,25,496.6,16.1,-1.5,D,1313.2,5,14.962,1,0.94,151,140.44,-80.13731704,25.91203391,0,0,1,N,0.9473648,65,65,11,125,125,137.237,0,9999.99,3.52,3.647,2,9,31.8,0,31.79999924,55.48,1570.24178,9/2/21,10:43:52,30.47,79.71,55.48,0.898,8.13,-67.8,-1.8,-6.4,-3035,40.8,2.26,12.9,
25.91213339,-80.13740938,07:08.3,9/2/21,11,0.878,143.86,-7.114231111,0.81,146.8,137.43,1.1,-1.89,34.8,0,3.5,3.5,92,25,496.6,16.1,-1.5,D,1313.2,5,14.411,1,0.98,151,140.14,-80.13731704,25.91203391,0,0,1,N,0.9843186,64,64,11,125,125,136.9762,0,9999.99,3.51,3.637,2,9,31.8,0,31.79999924,55.48,1570.24193,9/2/21,10:43:53,30.47,79.72,55.48,0.913,8.12,-67.5,-2,-3.3,-2554,40.6,2.25,12.9,
25.91212847,-80.13740526,07:09.3,9/2/21,11,1.021,144.04,-7.114231111,0.81,146,136.68,1.31,-2.12,34.8,0,3.49,3.49,92,25,496.6,16.1,-1.5,D,1319.1,5,13.727,1,1.01,151,140,-80.13731704,25.91203391,0,0,1,N,0.9699476,65,65,11,129,129,137.0776,0,9999.99,3.5,3.627,2,9,31.8,0,31.79999924,55.52,1570.28299,9/2/21,10:43:55,30.45,79.76,55.52,0.907,8.12,-67.4,-2.8,-3.1,-1701,40.1,2.22,12.8,
25.91212384,-80.13740115,07:10.3,9/2/21,11,1.155,142.46,-7.114231111,0.81,146.3,136.96,1.46,-2.38,34.8,0,3.49,3.49,92,25,496.6,16.1,-1.5,D,1319.1,5,13.067,1,1.01,151,139.93,-80.13731704,25.91203391,0,0,1,N,0.9357319,66,66,11,128,128,137.3192,0,9999.99,3.5,3.627,2,9,31.8,0,31.79999924,55.52,1570.28299,9/2/21,10:43:55,30.45,79.76,55.52,0.907,8.12,-67.4,-2.8,-3.1,-1701,40.1,2.22,12.8,
25.91211935,-80.13739674,07:11.3,9/2/21,11,1.154,140.24,-7.114231111,0.81,146.4,137.06,1.04,-2.27,34.8,0,3.55,3.55,92,25,496.6,16.1,-1.5,D,1319.1,5,12.402,1,1.01,151,140,-80.13731704,25.91203391,0,0,1,N,0.8721943,63,63,11,130,130,137.7684,0,9999.99,3.56,3.687,2,9,31.8,0,31.79999924,55.57,1570.33478,9/2/21,10:43:56,30.44,79.82,55.57,0.928,8.12,-67.2,-3.3,-0.3,-3960,39.8,2.2,12.8,
25.91211602,-80.13739389,07:12.3,9/2/21,11,1.011,140.74,-7.114231111,0.81,146.2,136.87,1.05,-2.03,34.8,0,3.55,3.55,92,25,496.6,16.1,-1.5,D,1319.1,5,11.935,1,1.01,151,139.91,-80.13731704,25.91203391,0,0,1,N,0.8602703,63,63,11,131,131,137.853,0,9999.99,3.56,3.687,2,9,31.8,0,31.79999924,55.63,1570.39717,9/2/21,10:43:58,30.46,79.9,55.63,0.913,8.12,-67,-3,-1.8,-3316,39.3,2.17,12.9,
25.91211296,-80.1373918,07:13.3,9/2/21,11,0.779,142.23,-7.114231111,0.81,146,136.68,1.47,-2.29,34.8,0,3.56,3.56,92,25,496.6,16.1,-1.5,D,1323.3,5,11.54,1,1.03,151,139.61,-80.13731704,25.91203391,0,0,1,N,0.8887563,66,66,11,131,131,137.6514,0,9999.99,3.57,3.697,2,9,31.8,0,31.79999924,55.63,1570.39717,9/2/21,10:43:58,30.46,79.9,55.63,0.913,8.12,-67,-3,-1.8,-3316,39.3,2.17,12.9,
25.91210921,-80.13738881,07:14.3,9/2/21,12,0.833,144.34,-7.114231111,0.81,146.5,137.15,0.99,-2.55,34.7,0,3.52,3.52,92,25,496.6,16.1,-1.5,D,1323.3,5,11.029,1,1.02,151,139.4,-80.13731704,25.91203391,0,0,1,N,0.892687,63,63,11,129,129,137.6235,0,9999.99,3.53,3.657,2,9,31.8,0,31.79999924,55.63,1570.39683,9/2/21,10:43:59,30.47,79.9,55.63,0.9,8.12,-67,-3.5,-8.3,-4782,39.1,2.16,12.8,
25.91210488,-80.13738519,07:15.4,9/2/21,12,0.929,142.78,-7.114231111,0.81,146.4,137.06,1.07,-1.95,34.7,0,3.53,3.53,92,25,496.6,16.1,-1.5,D,1323.3,5,10.428,1,1.01,151,139.18,-80.13731704,25.91203391,0,0,1,N,0.8825029,63,63,11,130,130,137.6952,0,9999.99,3.54,3.667,2,9,31.8,0,31.79999924,55.66,1570.42794,9/2/21,10:44:01,30.47,79.94,55.66,0.897,8.12,-67.1,-2.5,-5.9,-1248,38.6,2.13,12.9,
25.91210176,-80.13738351,07:16.4,9/2/21,12,0.896,141.78,-7.114231111,0.81,145.9,136.58,1.42,-2.43,34.8,0,3.54,3.54,92,24,496.6,16.1,-1.5,D,1338.6,5,10.056,1,1,151,138.62,-80.13731704,25.91203391,0,0,1,N,0.9504586,66,66,11,130,130,137.215,0,9999.99,3.55,3.677,2,9,31.8,0,31.79999924,55.66,1570.42794,9/2/21,10:44:01,30.47,79.94,55.66,0.897,8.12,-67.1,-2.5,-5.9,-1248,38.6,2.13,12.9,
25.91209891,-80.13738196,07:17.4,9/2/21,12,0.689,141.78,-7.114231111,0.81,146.2,136.87,1.37,-2.24,34.8,0,3.52,3.52,92,24,496.6,16.1,-1.5,D,1338.6,5,9.716,1,1.02,151,138.06,-80.13731704,25.91203391,0,0,1,N,1.011856,65,65,11,127,127,136.7818,0,9999.99,3.53,3.657,2,9,31.8,0,31.79999924,55.68,1570.4486,9/2/21,10:44:02,30.47,79.97,55.68,0.914,8.12,-67,-2.7,-5.1,-3014,38.4,2.12,12.9,
25.91209539,-80.1373786,07:18.4,9/2/21,12,0.778,144.03,-7.114231111,0.81,146.2,136.87,1.18,-2.21,34.7,0,3.55,3.55,92,24,496.6,16.1,-1.5,D,1338.6,5,9.2,1,1,151,137.99,-80.13731704,25.91203391,0,0,1,N,0.9713845,64,64,11,128,128,137.0674,0,9999.99,3.56,3.687,2,9,31.8,0,31.79999924,55.72,1570.49042,9/2/21,10:44:04,30.47,80.02,55.72,0.902,8.11,-66.9,-2.1,-4.5,-1313,37.9,2.09,12.9,
25.91209168,-80.13737517,07:19.4,9/2/21,11,0.898,142.09,-7.114231111,0.81,146.5,137.15,1.15,-2.35,34.8,0,3.55,3.55,92,24,496.6,16.1,-1.5,D,1338.6,5,8.664,1,1.01,151,137.85,-80.13731704,25.91203391,0,0,1,N,0.9361557,64,64,11,128,128,137.3157,0,9999.99,3.56,3.687,2,9,31.8,0,31.79999924,55.72,1570.49042,9/2/21,10:44:04,30.47,80.02,55.72,0.902,8.11,-66.9,-2.1,-4.5,-1313,37.9,2.09,12.9,
25.91208729,-80.1373709,07:20.4,9/2/21,12,1.216,139.98,-7.114231111,0.81,145.9,136.58,1.61,-2.52,34.8,0,3.54,3.54,92,25,496.5,16.1,-1.5,D,1327.3,5,8.016,1,1.01,151,137.77,-80.13731704,25.91203391,0,0,1,N,0.8762859,67,67,11,132,132,137.7393,0,9999.99,3.55,3.677,2,9,31.8,0,31.79999924,55.73,1570.50044,9/2/21,10:44:05,30.47,80.02,55.73,0.898,8.11,-66.8,-4.2,-4.1,-2711,37.7,2.09,12.9,
25.91208295,-80.13736683,07:21.4,9/2/21,11,0.996,140.28,-7.114231111,0.81,146.4,137.06,1.13,-2.53,34.8,0,3.55,3.55,92,25,496.5,16.1,-1.5,D,1327.3,5,7.384,1,1,151,137.59,-80.13731704,25.91203391,0,0,1,N,0.8308429,64,64,11,130,130,138.061,0,9999.99,3.56,3.687,2,9,31.8,0,31.79999924,55.79,1570.5626,9/2/21,10:44:07,30.47,80.09,55.79,0.942,8.11,-66.8,-3,-4.7,-3141,37.4,2.07,12.7,
25.91207871,-80.1373634,07:22.4,9/2/21,11,0.791,140.28,-7.114231111,0.81,146.1,136.77,0.89,-1.72,34.7,0,3.57,3.57,92,25,496.5,16.1,-1.5,D,1327.3,5,6.805,1,1,151,137.05,-80.13731704,25.91203391,0,0,1,N,0.831584,62,62,11,132,132,138.0555,0,9999.99,3.58,3.707,2,9,31.8,0,31.79999924,55.79,1570.5626,9/2/21,10:44:07,30.47,80.09,55.79,0.942,8.11,-66.8,-3,-4.7,-3141,37.4,2.07,12.7,
25.91207568,-80.13736154,07:23.4,9/2/21,11,0.868,143.84,-7.114231111,0.81,145.8,136.49,1.4,-2.17,34.8,0,3.6,3.6,92,25,496.5,16.1,-1.5,D,1323.1,6,28.484,1,0.98,151,192.34,-80.13742242,25.91182544,0,0,1,N,6.026452,65,65,11,250,250,176.0734,0,9999.99,3.61,3.737,2,9,31.8,0,31.79999924,55.81,1570.58343,9/2/21,10:44:08,30.47,80.12,55.81,0.91,8.11,-66.8,-2.2,-3.4,-2965,37.2,2.06,13,
25.91207208,-80.13735956,07:24.4,9/2/21,11,0.922,143.97,-7.114231111,0.81,147.5,138.1,1.12,0.51,34.8,0,3.62,3.62,92,25,496.5,16.1,-1.5,D,1323.1,6,28.137,1,1,151,192.91,-80.13742242,25.91182544,0,0,1,N,5.679917,64,64,11,250,250,176.7122,0,9999.99,3.63,3.757,2,9,31.8,0,31.79999924,55.82,1570.59373,9/2/21,10:44:09,30.47,80.14,55.82,0.911,8.11,-66.7,-1.6,-3.9,-1960,37.1,2.05,13,
25.91206836,-80.13735663,07:25.4,9/2/21,11,0.994,142.46,-7.114231111,0.81,150.5,140.94,1.35,-3.33,34.8,0,3.64,3.64,92,25,496.5,16.1,-1.5,D,1323.1,6,27.801,1,0.97,151,193.69,-80.13742242,25.91182544,0,0,1,N,5.246734,65,65,11,250,250,177.8596,0,9999.99,3.65,3.777,2,9,31.8,0,31.79999924,55.85,1570.6249,9/2/21,10:44:11,30.47,80.18,55.85,0.919,8.12,-67,-4.3,-5.2,-3720,36.8,2.03,12.8,
25.91206459,-80.13735398,07:26.4,9/2/21,11,0.783,142.46,-7.114231111,0.81,155.1,145.33,1.69,-2.64,34.8,0,3.63,3.63,92,25,496.5,16.1,-1.5,D,1323.1,6,27.459,1,0.96,151,194.43,-80.13742242,25.91182544,0,0,1,N,4.828812,67,67,11,250,250,178.979,0,9999.99,3.64,3.767,2,9,31.8,0,31.79999924,55.85,1570.6249,9/2/21,10:44:11,30.47,80.18,55.85,0.919,8.12,-67,-4.3,-5.2,-3720,36.8,2.03,12.8,
25.91206162,-80.13735203,07:27.4,9/2/21,11,0.501,142.46,-7.114231111,0.81,159.2,149.27,2.02,-2.64,34.8,0,3.61,3.61,92,25,496.5,16.1,-1.5,D,1318,6,27.19,1,0.93,151,195.01,-80.13742242,25.91182544,0,0,1,N,4.503674,69,69,11,250,250,179.8835,0,9999.99,3.62,3.747,2,9,31.8,0,31.79999924,55.86,1570.63534,9/2/21,10:44:12,30.49,80.18,55.86,0.908,8.13,-67.6,-2.1,-2.2,-5653,36.6,2.02,12.9,
25.91205867,-80.13734994,07:28.4,9/2/21,11,0.626,142.46,-7.114231111,0.81,163,152.94,1.8,-2.66,34.7,0,3.61,3.62,92,25,496.5,16.1,-1.5,D,1318,6,26.928,1,0.89,151,195.62,-80.13742242,25.91182544,0,0,1,N,4.173289,68,68,11,239,239,180.9027,0,9999.99,3.63,3.757,2,9,31.8,0,31.79999924,55.74,1570.51107,9/2/21,10:44:14,30.52,80.04,55.74,0.904,8.14,-68.7,-5.1,-2.6,-421,36.6,2.02,12.9,
25.91205484,-80.13734657,07:29.4,9/2/21,11,0.922,142.95,-7.114231111,0.81,166.4,156.25,1.8,-2.65,34.8,0,3.61,3.62,92,25,496.5,16.1,-1.5,D,1318,6,26.612,1,0.85,151,196.56,-80.13742242,25.91182544,0,0,1,N,3.692772,68,68,11,233,233,182.6973,0,9999.99,3.63,3.757,2,9,31.8,0,31.79999924,55.74,1570.51107,9/2/21,10:44:14,30.52,80.04,55.74,0.904,8.14,-68.7,-5.1,-2.6,-421,36.6,2.02,12.9,
25.9120506,-80.13734345,07:30.4,9/2/21,11,0.852,142.95,-7.114231111,0.81,170.7,160.47,1.79,-2.5,34.8,0,3.61,3.62,92,25,496.4,16.1,-1.5,D,1319.5,6,26.253,1,0.84,151,197.51,-80.13742242,25.91182544,0,0,1,N,3.215495,68,68,11,224,224,184.5102,0,9999.99,3.63,3.757,2,9,31.8,0,31.79999924,55.53,1570.29355,9/2/21,10:44:15,30.53,79.78,55.53,0.903,8.15,-69,-3.9,-3.8,-2821,36.6,2.02,12.8,
25.91204526,-80.13733981,07:31.4,9/2/21,11,0.751,142.95,-7.114231111,0.97,174.8,164.52,1.92,-2.51,34.8,0,3.61,3.62,92,25,496.4,16.1,-1.5,D,1319.5,6,25.802,1,0.84,151,198.68,-80.13742242,25.91182544,0,0,1,N,2.626338,68,68,11,218,218,186.9562,0,9999.99,3.63,3.757,2,9,31.8,0,31.79999924,55.65,1570.41787,9/2/21,10:44:17,30.52,79.93,55.65,0.908,8.17,-70,-3.3,-5.9,-5691,37,2.05,12.9,
25.91204023,-80.13733738,07:32.4,9/2/21,12,0.803,142.95,-7.114231111,0.97,178.2,167.91,1.46,-2.7,34.8,0,3.6,3.6,92,25,496.4,16.1,-1.5,D,1319.5,6,25.354,1,0.81,151,199.6,-80.13742242,25.91182544,0,0,1,N,2.174046,66,66,11,212,212,189.2381,0,9999.99,3.62,3.747,2,9,31.8,0,31.79999924,55.65,1570.41787,9/2/21,10:44:17,30.52,79.93,55.65,0.908,8.17,-70,-3.3,-5.9,-5691,37,2.05,12.9,
25.91203573,-80.13733558,07:33.4,9/2/21,12,0.781,142.95,-7.114231111,0.97,182.4,172.12,1.84,-3.01,34.8,0,3.61,3.61,92,25,496.4,16.1,-1.5,D,1319.5,6,24.944,1,0.82,151,200.38,-80.13742242,25.91182544,0,0,1,N,1.799215,68,68,11,206,206,191.7721,0,9999.99,3.62,3.747,2,9,31.8,0,31.79999924,55.54,1570.30355,9/2/21,10:44:19,30.52,79.8,55.54,0.907,8.18,-70.7,-5.2,-0.7,-2073,37.6,2.08,12.9,
25.91203094,-80.13733365,07:34.4,9/2/21,12,0.763,142.95,-7.114231111,0.97,186.3,176.05,1.82,-2.42,34.8,0,3.59,3.59,92,26,496.4,16.1,-1.6,D,1278.7,6,24.515,1,0.81,151,201.23,-80.13742242,25.91182544,0,0,1,N,1.396972,67,67,11,203,203,194.5438,0,9999.99,3.6,3.727,2,9,31.8,0,31.79999924,55.54,1570.30355,9/2/21,10:44:19,30.52,79.8,55.54,0.907,8.18,-70.7,-5.2,-0.7,-2073,37.6,2.08,12.9,
25.9120271,-80.13733295,07:35.4,9/2/21,12,0.762,142.95,-7.114231111,0.77,189.9,179.71,1.04,-3.37,34.9,0,3.56,3.56,92,26,496.4,16.1,-1.6,D,1278.7,6,24.143,1,0.8,151,201.75,-80.13742242,25.91182544,0,0,1,N,1.153646,63,63,11,195,195,196.2435,0,9999.99,3.58,3.707,2,9,31.8,0,31.79999924,55.73,1570.50047,9/2/21,10:44:21,30.53,80.03,55.73,0.901,8.19,-71.1,-4.8,-5.4,-3521,38.4,2.12,12.9,
25.91202258,-80.13733302,07:36.4,9/2/21,12,0.819,142.95,-7.114231111,0.77,193.5,183.39,1.78,-3.14,34.9,0,3.59,3.59,92,25,496.4,16.1,-1.5,D,1323.8,6,23.674,1,0.8,151,202.19,-80.13742242,25.91182544,0,0,1,N,0.9512113,68,68,11,185,185,197.6691,0,9999.99,3.6,3.727,2,9,31.8,0,31.79999924,55.73,1570.50047,9/2/21,10:44:21,30.53,80.03,55.73,0.901,8.19,-71.1,-4.8,-5.4,-3521,38.4,2.12,12.9,
25.91201833,-80.13733291,07:37.4,9/2/21,12,0.799,142.95,-7.114231111,0.77,196.2,186.16,1.7,-2.28,34.9,0,3.59,3.6,92,25,496.4,16.1,-1.5,D,1323.8,6,23.242,1,0.82,151,202.65,-80.13742242,25.91182544,0,0,1,N,0.7460753,67,67,11,179,179,199.1222,0,9999.99,3.61,3.737,2,9,31.7,0,31.70000076,55.74,1570.32947,9/2/21,10:44:22,30.56,80.04,55.74,0.895,8.19,-71.5,-5.6,-3.7,-2214,38.8,2.14,12.9,
25.91201441,-80.13733374,07:38.4,9/2/21,12,0.742,142.95,-7.114231111,0.77,200.9,191,1.41,-3.38,34.9,0,3.59,3.6,92,25,496.4,16.1,-1.5,D,1323.8,6,22.808,1,0.81,152,202.88,-80.13742242,25.91182544,0,0,1,N,0.6344838,66,66,11,167,167,199.9151,0,9999.99,3.61,3.737,2,9,31.8,0,31.79999924,55.77,1570.54193,9/2/21,10:44:24,30.6,80.08,55.77,0.91,8.2,-71.8,-4,1.4,-37,39.6,2.18,12.9,
25.9120106,-80.13733452,07:39.4,9/2/21,12,0.816,142.95,-7.114231111,0.77,202.3,192.45,1.34,-3.31,34.8,0,3.58,3.58,92,25,496.4,16.1,-1.5,D,1323.6,6,22.387,1,0.81,152,203.12,-80.13742242,25.91182544,0,0,1,N,0.5279701,65,65,11,160,160,200.674,0,9999.99,3.59,3.717,2,9,31.7,0,31.79999924,55.77,1570.54193,9/2/21,10:44:24,30.6,80.08,55.77,0.91,8.2,-71.8,-4,1.4,-37,39.6,2.18,12.9,
25.91200698,-80.13733559,07:40.4,9/2/21,12,0.908,142.95,-7.114231111,0.77,204.2,194.42,1.41,-2.3,34.8,0,3.56,3.56,92,25,496.4,16.1,-1.5,D,1323.6,6,21.976,1,0.81,152,203.28,-80.13742242,25.91182544,0,0,1,N,0.4577124,65,65,11,154,154,201.1756,0,9999.99,3.57,3.697,2,9,31.8,0,31.79999924,55.63,1570.39682,9/2/21,10:44:25,30.6,79.9,55.63,0.88,8.2,-71.8,-5.5,-6,-5356,39.9,2.2,12.9,
25.91200304,-80.13733689,07:41.4,9/2/21,12,0.881,142.95,-7.114231111,0.77,206.2,196.5,1.23,-2.75,34.8,0,3.57,3.57,92,25,496.4,16.1,-1.5,D,1323.6,6,21.522,1,0.83,152,203.42,-80.13742242,25.91182544,0,0,1,N,0.3923315,64,64,11,146,146,201.6424,0,9999.99,3.58,3.707,2,9,31.8,0,31.79999924,55.75,1570.52115,9/2/21,10:44:27,30.6,80.05,55.75,0.915,8.2,-72.2,-5.3,-5.5,-4230,40.6,2.24,12.7,
25.91199923,-80.13733873,07:42.4,9/2/21,12,0.868,142.95,-7.114231111,0.77,207.5,197.86,1.22,-3.1,34.8,0,3.54,3.54,92,25,496.4,16.1,-1.5,D,1323.6,6,21.06,1,0.85,152,203.42,-80.13742242,25.91182544,0,0,1,N,0.3835821,65,65,11,144,144,201.7049,0,9999.99,3.55,3.677,2,9,31.8,0,31.79999924,55.75,1570.52115,9/2/21,10:44:27,30.6,80.05,55.75,0.915,8.2,-72.2,-5.3,-5.5,-4230,40.6,2.24,12.7,
25.91199478,-80.13734022,07:43.4,9/2/21,12,0.857,142.95,-7.114231111,0.77,208.6,199,1.41,-1.31,34.8,0,3.51,3.51,92,25,496.3,16.1,-1.5,D,1301.1,6,20.547,1,0.87,152,203.59,-80.13742242,25.91182544,0,0,1,N,0.3126571,65,65,11,140,140,202.212,0,9999.99,3.52,3.647,2,9,31.8,0,31.79999924,55.76,1570.53157,9/2/21,10:44:28,30.6,80.08,55.76,0.899,8.2,-72.2,-5.5,2,-2401,40.9,2.25,12.9,
25.91199107,-80.13734202,07:44.4,9/2/21,12,0.792,142.95,-7.114231111,0.77,209.6,200.05,1.09,-2.97,34.8,0,3.51,3.51,92,25,496.3,16.1,-1.5,D,1301.1,6,20.096,1,0.88,152,203.59,-80.13742242,25.91182544,0,0,1,N,0.304782,64,64,11,136,136,202.2682,0,9999.99,3.52,3.647,2,9,31.8,0,31.79999924,55.81,1570.58336,9/2/21,10:44:30,30.6,80.14,55.81,0.901,8.2,-72.1,-5,-4.3,-1947,41.4,2.28,12.9,
25.91198766,-80.13734417,07:45.4,9/2/21,12,0.897,142.95,-7.114231111,0.77,210.6,201.09,1.1,-2.5,34.7,0,3.49,3.49,92,25,496.3,16.1,-1.5,D,1301.1,6,19.663,1,0.9,152,203.46,-80.13742242,25.91182544,0,0,1,N,0.3442031,64,64,11,133,133,201.9865,0,9999.99,3.5,3.627,2,9,31.8,0,31.79999924,55.81,1570.58336,9/2/21,10:44:30,30.6,80.14,55.81,0.901,8.2,-72.1,-5,-4.3,-1947,41.4,2.28,12.9,
25.91198447,-80.1373467,07:46.4,9/2/21,12,0.872,170.79,-7.114231111,0.77,210.7,201.2,1.16,-1.63,34.7,0,3.48,3.48,92,25,496.3,16.1,-1.5,D,1316,6,19.236,1,0.9,152,203.18,-80.13742242,25.91182544,0,0,1,N,0.4280122,63,63,11,129,129,201.3875,0,9999.99,3.49,3.617,2,9,31.8,0,31.79999924,55.88,1570.65585,9/2/21,10:44:31,30.61,80.22,55.88,0.897,8.21,-72.4,-5,-6.2,-4376,41.7,2.3,12.7,
25.91198069,-80.13734921,07:47.4,9/2/21,12,0.877,170.79,-7.114231111,0.77,210.5,200.99,1.08,-2.08,34.7,0,3.47,3.47,92,25,496.3,16.1,-1.5,D,1316,6,18.752,1,0.92,152,202.99,-80.13742242,25.91182544,0,0,1,N,0.4820802,63,63,11,127,127,201.0015,0,9999.99,3.48,3.607,2,9,31.8,0,31.79999924,55.97,1570.7491,9/2/21,10:44:33,30.63,80.33,55.97,0.914,8.21,-72.5,-5.9,-2.3,-347,42.1,2.32,12.8,
25.91197757,-80.13735173,07:48.4,9/2/21,12,0.917,194.44,-7.114231111,0.77,211.1,201.61,1.25,-2.8,34.7,0,3.44,3.44,92,25,496.3,16.1,-1.5,D,1316,6,18.334,1,0.93,152,202.68,-80.13742242,25.91182544,0,0,1,N,0.5669519,65,65,11,122,122,200.3964,0,9999.99,3.45,3.577,2,9,31.8,0,31.79999924,55.87,1570.64549,9/2/21,10:44:34,30.63,80.21,55.87,0.906,8.21,-72.4,-6,-0.3,-2590,42.3,2.33,12.9,
25.91197345,-80.13735483,07:49.4,9/2/21,12,0.994,203.01,-7.114231111,0.77,211.1,201.61,1.37,-1.58,34.8,0,3.42,3.42,92,25,496.3,16.1,-1.5,D,1316,6,17.792,1,0.96,152,202.33,-80.13742242,25.91182544,0,0,1,N,0.659848,65,65,11,119,119,199.735,0,9999.99,3.43,3.557,2,9,31.8,0,31.79999924,55.87,1570.64549,9/2/21,10:44:34,30.63,80.21,55.87,0.906,8.21,-72.4,-6,-0.3,-2590,42.3,2.33,12.9,
25.91196999,-80.13735745,07:50.4,9/2/21,12,0.924,208.41,-7.114231111,0.77,210.7,201.2,1.16,-2.09,34.8,0,3.41,3.41,92,25,496.3,16.1,-1.5,D,1322.7,6,17.337,1,0.96,152,202.01,-80.13742242,25.91182544,0,0,1,N,0.7404069,64,64,11,119,119,199.1623,0,9999.99,3.42,3.547,2,9,31.8,0,31.79999924,55.84,1570.61456,9/2/21,10:44:35,30.63,80.17,55.84,0.934,8.21,-72.5,-6.3,-5.2,-2067,42.5,2.34,12.8,
25.91196689,-80.13735974,07:51.4,9/2/21,12,0.931,208.41,-7.114231111,0.77,211.1,201.61,1.41,-2.62,34.8,0,3.38,3.38,92,25,496.3,16.1,-1.5,D,1322.7,6,16.931,1,0.96,152,201.73,-80.13742242,25.91182544,0,0,1,N,0.8056372,65,65,11,115,115,198.6995,0,9999.99,3.39,3.517,2,9,31.8,0,31.79999924,55.94,1570.71806,9/2/21,10:44:37,30.63,80.29,55.94,0.911,8.21,-72.8,-4.8,-9.9,-449,42.9,2.36,12.9,
25.91196297,-80.13736223,07:52.4,9/2/21,12,1.008,207.53,-7.114231111,0.77,209.8,200.26,1.23,-1.4,34.8,0,3.36,3.36,92,25,496.3,16.1,-1.5,D,1322.7,6,16.435,1,0.94,152,201.49,-80.13742242,25.91182544,0,0,1,N,0.8536549,64,64,11,119,119,198.3592,0,9999.99,3.37,3.497,2,9,31.8,0,31.79999924,55.94,1570.71806,9/2/21,10:44:37,30.63,80.29,55.94,0.911,8.21,-72.8,-4.8,-9.9,-449,42.9,2.36,12.9,
25.91195866,-80.13736449,07:53.5,9/2/21,12,0.982,207.53,-7.114231111,0.77,209.6,200.05,1.14,-1.83,34.8,0,3.33,3.33,92,25,496.3,16.1,-1.5,D,1327.6,6,15.906,1,0.95,152,201.36,-80.13742242,25.91182544,0,0,1,N,0.8601015,64,64,11,120,120,198.3137,0,9999.99,3.34,3.467,2,9,31.8,0,31.79999924,55.91,1570.68693,9/2/21,10:44:38,30.63,80.26,55.91,0.925,8.21,-72.9,-4.9,-1,-2827,43,2.37,13,
25.91195489,-80.13736673,07:54.4,9/2/21,12,0.96,207.96,-7.114231111,0.77,209.1,199.52,1.06,-1.95,34.8,0,3.32,3.32,92,25,496.3,16.1,-1.5,D,1327.6,6,15.434,1,0.95,152,201.15,-80.13742242,25.91182544,0,0,1,N,0.8912522,63,63,11,121,121,198.0931,0,9999.99,3.33,3.457,2,9,31.8,0,31.79999924,56.01,1570.79058,9/2/21,10:44:40,30.63,80.39,56.01,0.911,8.21,-73,-6.1,-3,-2664,43.3,2.38,12.9,
25.91195091,-80.13736857,07:55.5,9/2/21,12,0.966,207.96,-7.114231111,0.77,208.5,198.9,1.24,-1.49,34.8,0,3.28,3.28,92,25,496.2,16.1,-1.5,D,1311.6,6,14.956,1,0.95,152,201.11,-80.13742242,25.91182544,0,0,1,N,0.8770263,64,64,11,125,125,198.1938,0,9999.99,3.29,3.417,2,9,31.8,0,31.79999924,56.01,1570.79058,9/2/21,10:44:40,30.63,80.39,56.01,0.911,8.21,-73,-6.1,-3,-2664,43.3,2.38,12.9,
25.91194751,-80.13737073,07:56.5,9/2/21,12,0.929,207.96,-7.114231111,0.77,208,198.38,1.15,-1.04,34.8,0,3.27,3.27,92,25,496.2,16.1,-1.5,D,1311.6,6,14.525,1,0.93,152,200.85,-80.13742242,25.91182544,0,0,1,N,0.9169104,64,64,11,123,123,197.9118,0,9999.99,3.28,3.407,2,9,31.8,0,31.79999924,55.97,1570.74911,9/2/21,10:44:41,30.64,80.33,55.97,0.929,8.22,-73,-5.5,-0.2,-2450,43.4,2.39,12.9,
25.911944,-80.13737305,07:57.5,9/2/21,12,0.926,207.96,-7.114231111,0.77,208.1,198.48,1.28,-2.97,34.8,0,3.26,3.26,92,25,496.2,16.1,-1.5,D,1311.6,6,14.077,1,0.94,152,200.53,-80.13742242,25.91182544,0,0,1,N,0.966773,65,65,11,123,123,197.5595,0,9999.99,3.27,3.397,2,9,31.8,0,31.79999924,56.12,1570.90459,9/2/21,10:44:43,30.65,80.51,56.12,0.918,8.22,-73.3,-5.5,-2.9,-2167,43.7,2.41,12.9,
25.9119403,-80.13737506,07:58.5,9/2/21,12,0.92,207.96,-7.114231111,0.77,207.5,197.86,1.54,-1.51,34.8,0,3.23,3.23,92,25,496.2,16.1,-1.5,D,1311.6,6,13.622,1,0.95,152,200.35,-80.13742242,25.91182544,0,0,1,N,0.9805982,66,66,11,125,125,197.4619,0,9999.99,3.24,3.367,2,9,31.8,0,31.79999924,56.12,1570.90459,9/2/21,10:44:43,30.65,80.51,56.12,0.918,8.22,-73.3,-5.5,-2.9,-2167,43.7,2.41,12.9,
