Latitude,Longitude,Time,Date,Number of Sats,GPS Speed (Kn),GPS True Heading,GPS Magnetic Variation,HDOP,C Magnetic Heading,C True Heading,Pitch Angle,Roll Angle,C Inside Temp (c),DFS Depth (m),DTB Height (m),Total Water Column (m),Batt Percent,Power Watts,Watt-Hours,Batt Volts,Batt Ampers,Batt State,Time to Empty,Current Step,Dist To Next (m),Next Speed (kn),Vehicle Speed (kn),Motor Speed CMD,Next Heading,Next Long,Next Lat,Next Depth (m),Depth Goal (m),Vehicle State,Error State,Distance to Track (m),Fin Pitch R,Fin Pitch L,Pitch Goal,Fin Yaw T,Fin Yaw B,Yaw Goal,Fin Roll,DVL-Depth (m),DVL -Altitude (m),DVL -Water Column (m),DVL-FixType,DVL-FixQuality,DVL-Temperature,Conductivity (mmhos/cm),Temperature (c),Salinity (ppt),Sound Speed (m/s),Date m/d/y   ,Time hh:mm:ss,Temp C,SpCond mS/cm,Sal ppt,Depth feet,pH,pH mV,Turbid+ NTU,Chl ug/L,BGA-PC cells/mL,ODOsat %,ODO mg/L,Battery volts,ROSEM Command Type
25.91273167,-80.137877,21:02.6,10/21/21,7,0.049,249.86,-7.127399022,1.43,198.8,188.82,1.18,-4.78,35.4,0,2.91,2.91,90,22,497.3,16.1,-1.3,D,1478.9,0,3.059,1,0.17,128,60.1,-80.13785049,25.91274538,0,0,1,N,2.337049,64,64,11,117,117,186.8522,0,9999.99,2.92,3.047,2,9,29.7,0,29.70000076,44.41,1554.69366,10/21/21,11:57:17,27.4,65.57,44.41,1.093,7.78,-46.4,-3.2,-1.5,-3140,83.6,5.16,13.1,
25.91273267,-80.13787783,21:03.6,10/21/21,7,0.049,249.86,-7.127399022,1.43,198.3,188.3,0.85,-4.73,35.4,0,2.88,2.88,90,22,497.3,16.1,-1.3,D,1478.9,0,3.078,1,0.17,128,62.66,-80.13785049,25.91274538,0,0,1,N,2.337049,63,63,11,114,114,184.7746,0,9999.99,2.89,3.017,2,9,29.7,0,29.70000076,44.41,1554.69368,10/21/21,11:57:19,27.44,65.58,44.41,1.086,7.78,-46.3,-3.1,-7.7,-119,83.5,5.15,13.1,
25.91273297,-80.13787853,21:04.6,10/21/21,7,0.063,249.86,-7.127399022,1.43,198.6,188.61,1.93,-4.06,35.4,0,2.82,2.83,90,22,497.3,16.1,-1.3,D,1478.9,1,10.541,1,0.13,160,141.28,-80.13781261,25.91265901,0,0,1,N,3.111788,69,69,11,5,5,137.2121,0,9999.99,2.84,2.967,2,9,29.7,0,29.70000076,44.41,1554.69368,10/21/21,11:57:19,27.44,65.58,44.41,1.086,7.78,-46.3,-3.1,-7.7,-119,83.5,5.15,13.1,
25.91273212,-80.1378794,21:05.6,10/21/21,8,0.385,249.86,-7.127399022,1.43,197.4,187.38,1.11,-5.68,35.5,0.01,2.77,2.78,90,22,497.3,16.1,-1.3,D,1478.9,1,10.522,1,0.22,160,140.59,-80.13781261,25.91265901,0,0,1,N,3.223525,64,64,11,5,5,136.5082,0,9999.99,2.78,2.907,2,9,29.7,0,29.70000076,44.42,1554.70481,10/21/21,11:57:21,27.47,65.59,44.42,1.093,7.78,-46.4,-2.6,-5.5,-580,83.6,5.15,13.1,
25.91272985,-80.13788109,21:06.7,10/21/21,7,0.614,249.86,-7.127399022,1.43,195.9,185.83,0.82,-2.77,35.5,0,2.75,2.76,90,29,497.2,16.1,-1.8,D,1143.2,1,10.438,1,0.38,160,138.99,-80.13781261,25.91265901,0,0,1,N,3.468627,62,62,11,5,5,135.0213,0,9999.99,2.76,2.887,2,9,29.7,0,29.70000076,44.44,1554.72546,10/21/21,11:57:22,27.5,65.62,44.44,1.11,7.78,-46.4,-3.2,-5.4,-531,83.5,5.15,13.2,
25.91272649,-80.13788304,21:07.7,10/21/21,7,0.721,249.86,-7.127399022,1.43,191.3,181.12,0.92,-3.46,35.4,0,2.62,2.62,90,29,497.2,16.1,-1.8,D,1143.2,1,10.293,1,0.56,160,136.81,-80.13781261,25.91265901,0,0,1,N,3.786922,63,63,11,5,5,133.1372,0,9999.99,2.63,2.757,2,9,29.6,0,29.70000076,44.44,1554.72546,10/21/21,11:57:22,27.5,65.62,44.44,1.11,7.78,-46.4,-3.2,-5.4,-531,83.5,5.15,13.2,
25.91272289,-80.13788459,21:08.7,10/21/21,7,0.842,249.86,-7.127399022,1.43,186.1,175.84,1.09,-2.68,35.4,0,2.47,2.47,90,29,497.2,16.1,-1.8,D,1143.2,1,10.114,1,0.71,160,134.61,-80.13781261,25.91265901,0,0,1,N,4.078578,64,64,11,5,5,131.4513,0,9999.99,2.48,2.607,2,9,29.6,0,29.60000038,44.36,1554.4398,10/21/21,11:57:24,27.52,65.51,44.36,1.098,7.77,-46,-4.1,-2,-2431,83.4,5.14,13.1,
25.91271757,-80.13788643,21:09.7,10/21/21,8,1.24,221.65,-7.127399022,1.43,181.4,171.1,1.27,-0.73,35.3,0,2.18,2.18,90,29,497.2,16.1,-1.8,D,1123.2,1,9.845,1,0.83,160,131.41,-80.13781261,25.91265901,0,0,1,N,4.466908,65,65,11,5,5,129.2923,0,9999.99,2.19,2.317,2,9,29.6,0,29.60000038,44.36,1554.4398,10/21/21,11:57:24,27.52,65.51,44.36,1.098,7.77,-46,-4.1,-2,-2431,83.4,5.14,13.1,
25.91271126,-80.13788787,21:10.7,10/21/21,9,1.135,221.65,-7.127399022,1.43,173.8,163.52,1.45,-1.47,35.4,0,1.96,1.97,90,29,497.2,16.1,-1.8,D,1123.2,1,9.509,1,0.93,160,127.66,-80.13781261,25.91265901,0,0,1,N,4.863714,66,66,11,5,5,127.1721,0,9999.99,1.98,2.107,2,9,29.6,0,29.60000038,44.37,1554.45037,10/21/21,11:57:25,27.5,65.52,44.37,1.086,7.78,-46.5,-4.5,-3.3,-5767,83.4,5.14,13.1,
25.91270704,-80.13788604,21:11.8,10/21/21,9,0.778,221.65,-7.127399022,1.43,166.1,155.95,1.72,-2.18,35.4,0,1.76,1.77,90,29,497.2,16.1,-1.8,D,1123.2,1,9.081,1,1.04,160,126.03,-80.13781261,25.91265901,0,0,1,N,4.890808,67,67,11,11,11,127.0319,0,9999.99,1.78,1.907,2,9,29.6,0,29.60000038,44.4,1554.48194,10/21/21,11:57:27,27.5,65.57,44.4,1.083,7.78,-46.4,-3.3,-7.8,-2549,83.3,5.13,13,
25.91270197,-80.13788392,21:12.8,10/21/21,7,1.088,221.65,-7.127399022,1.9,158.8,148.87,1.91,-0.89,35.4,0,1.69,1.7,90,29,497.2,16.1,-1.8,D,1123.2,1,8.584,1,1.08,160,123.81,-80.13781261,25.91265901,0,0,1,N,4.8943,68,68,11,40,40,127.0149,0,9999.99,1.71,1.837,2,9,29.6,0,29.60000038,44.4,1554.48194,10/21/21,11:57:27,27.5,65.57,44.4,1.083,7.78,-46.4,-3.3,-7.8,-2549,83.3,5.13,13,
25.91269748,-80.13788171,21:13.9,10/21/21,8,1.252,221.65,-7.127399022,1.9,152,142.35,1.81,-1.14,35.4,0,1.68,1.69,90,29,497.2,16.1,-1.8,D,1130.6,1,8.127,1,1.14,160,121.75,-80.13781261,25.91265901,0,0,1,N,4.882095,68,68,11,64,64,127.078,0,9999.99,1.7,1.827,2,9,29.6,0,29.60000038,44.41,1554.49234,10/21/21,11:57:28,27.5,65.58,44.41,1.074,7.78,-46.2,-3.8,-4.2,-3491,83.3,5.13,13.1,
25.91269173,-80.13787949,21:14.9,10/21/21,8,1.308,221.65,-7.127399022,1.9,147.8,138.37,1.61,-0.98,35.4,0,1.67,1.67,90,29,497.2,16.1,-1.8,D,1130.6,1,7.614,1,1.16,160,118.55,-80.13781261,25.91265901,0,0,1,N,4.915263,67,67,11,81,81,126.9049,0,9999.99,1.68,1.807,2,9,29.6,0,29.60000038,44.42,1554.50276,10/21/21,11:57:29,27.51,65.59,44.42,1.073,7.78,-46.3,-3.9,-5.9,-3389,83.2,5.13,13,
25.91268634,-80.13787758,21:15.9,10/21/21,8,1.166,221.65,-7.127399022,1.9,143.4,134.21,1.05,-1.37,35.3,0,1.75,1.75,90,29,497.2,16.1,-1.8,D,1130.6,1,7.173,1,1.19,160,115.06,-80.13781261,25.91265901,0,0,1,N,4.958712,63,63,11,97,97,126.6769,0,9999.99,1.76,1.887,2,9,29.6,0,29.60000038,44.36,1554.43967,10/21/21,11:57:30,27.52,65.51,44.36,1.078,7.78,-46.5,-3.5,-6.5,-2850,83.3,5.14,13.3,
25.91268097,-80.13787399,21:16.9,10/21/21,7,1.311,221.65,-7.127399022,1.9,140.2,131.21,0.77,-0.13,35.3,0,1.78,1.78,90,29,497.2,16.1,-1.8,D,1147.5,1,6.607,1,1.17,160,111.69,-80.13781261,25.91265901,0,0,1,N,4.853093,62,62,11,111,111,127.2266,0,9999.99,1.79,1.917,2,9,29.6,0,29.60000038,44.35,1554.42907,10/21/21,11:57:32,27.48,65.5,44.35,1.087,7.78,-46.5,-4,-4.2,-3995,83.5,5.15,13.2,
25.91267734,-80.13786844,21:17.9,10/21/21,8,1.334,221.65,-7.127399022,1.9,138,129.15,1,-1.17,35.4,0,1.92,1.92,90,29,497.2,16.1,-1.8,D,1147.5,1,5.944,1,1.29,160,110.05,-80.13781261,25.91265901,0,0,1,N,4.492725,63,63,11,127,127,129.1509,0,9999.99,1.93,2.057,2,9,29.6,0,29.60000038,44.35,1554.42907,10/21/21,11:57:32,27.48,65.5,44.35,1.087,7.78,-46.5,-4,-4.2,-3995,83.5,5.15,13.2,
25.91267288,-80.13786359,21:18.9,10/21/21,8,1.295,221.65,-7.127399022,1.9,136.6,127.84,1.21,-1.41,35.3,0,2.07,2.07,90,28,497.2,16.1,-1.7,D,1158.3,2,15.714,1,1.32,159,105.47,-80.13771217,25.91263518,0,0,1,N,0.2152496,64,64,11,39,39,105.8073,0,9999.99,2.08,2.207,2,9,29.6,0,29.60000038,44.38,1554.46051,10/21/21,11:57:34,27.45,65.54,44.38,1.11,7.78,-46.5,-3.5,-5.5,-254,83.8,5.17,13.2,
25.91266945,-80.13785826,21:19.9,10/21/21,9,1.28,221.65,-7.127399022,1.9,133.2,124.68,1.01,-4.73,35.3,0,2.17,2.17,90,28,497.2,16.1,-1.7,D,1158.3,2,15.1,1,1.33,159,104.62,-80.13771217,25.91263518,0,0,1,N,2.01E-02,63,63,11,47,47,104.6759,0,9999.99,2.18,2.307,2,9,29.6,0,29.60000038,44.38,1554.46051,10/21/21,11:57:34,27.45,65.54,44.38,1.11,7.78,-46.5,-3.5,-5.5,-254,83.8,5.17,13.2,
25.91266655,-80.13785428,21:20.9,10/21/21,9,1.353,176.26,-7.127399022,1.9,129.6,121.33,1.08,-0.96,35.3,0,2.25,2.25,90,28,497.2,16.1,-1.7,D,1158.3,2,14.635,1,1.3,159,103.79,-80.13771217,25.91263518,0,0,1,N,0.2304089,63,63,11,56,56,103.582,0,9999.99,2.26,2.387,2,9,29.5,0,29.60000038,44.38,1554.46051,10/21/21,11:57:35,27.45,65.53,44.38,1.088,7.78,-46.4,-4.6,-6.6,-3344,83.9,5.17,13,
25.91266297,-80.13784963,21:21.9,10/21/21,9,1.201,176.26,-7.127399022,1.9,124.7,116.79,1.23,-1.34,35.3,0,2.42,2.42,90,28,497.2,16.1,-1.7,D,1158.3,2,14.091,1,1.29,158,102.67,-80.13771217,25.91263518,0,0,1,N,0.5029908,64,64,11,68,68,102.0582,0,9999.99,2.43,2.557,2,9,29.5,0,29.5,44.38,1554.25819,10/21/21,11:57:37,27.42,65.53,44.38,1.088,7.78,-46.4,-4.3,4.8,-3452,83.8,5.17,13.2,
25.9126605,-80.13784431,21:22.9,10/21/21,7,1.079,176.26,-7.127399022,1.9,119.1,111.61,1.39,-1.93,35.4,0,2.59,2.59,90,28,497.1,16.1,-1.7,D,1160.8,2,13.513,1,1.29,158,102.03,-80.13771217,25.91263518,0,0,1,N,0.6399758,65,65,11,82,82,101.1561,0,9999.99,2.6,2.727,2,9,29.5,0,29.5,44.38,1554.25819,10/21/21,11:57:37,27.42,65.53,44.38,1.088,7.78,-46.4,-4.3,4.8,-3452,83.8,5.17,13.2,
25.91265653,-80.13783959,21:23.9,10/21/21,7,1.206,176.26,-7.127399022,1.9,115.6,108.37,1.45,-1.53,35.3,0,2.76,2.76,90,28,497.1,16.1,-1.7,D,1191.6,2,12.963,1,1.29,158,100.55,-80.13771217,25.91263518,0,0,1,N,0.9512442,66,66,11,90,90,99.16435,0,9999.99,2.77,2.897,2,9,29.5,0,29.5,44.4,1554.27929,10/21/21,11:57:38,27.41,65.56,44.4,1.091,7.78,-46.5,-3.3,-6,1299,83.7,5.17,13.3,
25.91265274,-80.1378377,21:25.0,10/21/21,5,0.979,176.26,-7.127399022,1.9,112,105.04,1.16,-1.47,35.3,0,2.87,2.87,90,28,497.1,16.1,-1.7,D,1191.6,2,12.706,1,1.28,158,98.84,-80.13771217,25.91263518,0,0,1,N,1.31601,64,64,11,98,98,97.6805,0,9999.99,2.88,3.007,2,9,29.5,0,29.5,44.39,1554.26879,10/21/21,11:57:39,27.41,65.55,44.39,1.102,7.78,-46.5,-2.7,-4.2,-4659,83.9,5.18,13,
25.91265008,-80.1378323,21:26.0,10/21/21,6,1.213,176.26,-7.127399022,1.38,109.1,102.36,1.27,-1.89,35.3,0,2.96,2.96,90,28,497.1,16.1,-1.7,D,1191.6,2,12.128,1,1.26,158,97.85,-80.13771217,25.91263518,0,0,1,N,1.466386,65,65,11,102,102,96.35944,0,9999.99,2.97,3.097,2,9,29.5,0,29.5,44.42,1554.30029,10/21/21,11:57:41,27.42,65.58,44.42,1.099,7.79,-46.7,-3.6,-2.9,-4800,84,5.19,13.1,
25.91264991,-80.13782456,21:27.0,10/21/21,6,1.204,176.26,-7.127399022,1.43,107.5,100.87,0.72,-1.28,35.3,0,3.02,3.02,90,28,497.1,16.1,-1.7,D,1191.6,2,11.359,1,1.28,157,98.29,-80.13771217,25.91263518,0,0,1,N,1.291443,61,61,11,110,110,96.68371,0,9999.99,3.03,3.157,2,9,29.5,0,29.5,44.42,1554.30029,10/21/21,11:57:41,27.42,65.58,44.42,1.099,7.79,-46.7,-3.6,-2.9,-4800,84,5.19,13.1,
25.91264537,-80.13781987,21:28.0,10/21/21,7,1.09,176.26,-7.127399022,1.18,105,98.55,1.08,-3.01,35.3,0,3.09,3.09,90,27,497.1,16.1,-1.7,D,1195.7,2,10.831,1,1.25,157,96.01,-80.13771217,25.91263518,0,0,1,N,1.664501,63,63,11,107,107,93.61954,0,9999.99,3.1,3.227,2,9,29.5,0,29.5,44.41,1554.28966,10/21/21,11:57:42,27.44,65.58,44.41,1.094,7.8,-47.4,-3.6,-3.7,-1341,84,5.18,13.1,
25.91264345,-80.13781431,21:29.0,10/21/21,7,1.141,137.09,-7.127399022,1.18,103.6,97.25,0.98,-2.22,35.3,0,3.15,3.15,90,27,497.1,16.1,-1.7,D,1195.7,2,10.257,1,1.27,157,95.14,-80.13771217,25.91263518,0,0,1,N,1.731306,63,63,11,108,108,92.56738,0,9999.99,3.16,3.287,2,9,29.5,0,29.5,44.4,1554.27918,10/21/21,11:57:43,27.45,65.56,44.4,1.118,7.78,-46.5,-3.8,-4.8,-1888,84,5.18,13.1,
25.91264121,-80.1378096,21:30.0,10/21/21,7,1.214,118.24,-7.127399022,1.18,102.2,95.95,0.69,-2.51,35.3,0,3.22,3.22,90,27,497.1,16.1,-1.7,D,1195.7,2,9.767,1,1.26,157,93.93,-80.13771217,25.91263518,0,0,1,N,1.850326,61,61,11,109,109,91.75121,0,9999.99,3.23,3.357,2,9,29.5,0,29.5,44.4,1554.27921,10/21/21,11:57:44,27.46,65.56,44.4,1.121,7.78,-46.4,-3.8,-6.4,-2777,84.2,5.19,13.1,
25.91263964,-80.13780313,21:31.0,10/21/21,7,1.187,111.06,-7.127399022,1.18,100.3,94.18,0.95,-1.68,35.4,0.01,3.28,3.29,90,27,497.1,16.1,-1.7,D,1214.5,2,9.112,1,1.24,156,93.12,-80.13771217,25.91263518,0,0,1,N,1.858388,63,63,11,117,117,91.69625,0,9999.99,3.29,3.417,2,9,29.5,0,29.5,44.38,1554.2587,10/21/21,11:57:46,27.46,65.53,44.38,1.102,7.77,-45.7,-4.3,-6.3,-6143,84.1,5.19,13.1,
25.91263936,-80.13779693,21:32.0,10/21/21,6,1.172,105.82,-7.127399022,1.43,98.8,92.78,0.93,-2.45,35.3,0.01,3.42,3.43,90,27,497.1,16.1,-1.7,D,1214.5,2,8.49,1,1.22,156,93.14,-80.13771217,25.91263518,0,0,1,N,1.729787,63,63,11,126,126,92.5749,0,9999.99,3.43,3.557,2,9,29.5,0,29.5,44.38,1554.2587,10/21/21,11:57:46,27.46,65.53,44.38,1.102,7.77,-45.7,-4.3,-6.3,-6143,84.1,5.19,13.1,
25.91263887,-80.13779066,21:33.0,10/21/21,7,1.227,97.43,-7.127399022,1.18,97,91.1,0.94,-2.25,35.4,0.01,3.45,3.46,90,27,497.1,16.1,-1.7,D,1214.5,2,7.861,1,1.25,156,92.99,-80.13771217,25.91263518,0,0,1,N,1.621455,63,63,11,134,134,93.31852,0,9999.99,3.46,3.587,2,9,29.5,0,29.5,44.4,1554.27996,10/21/21,11:57:47,27.47,65.56,44.4,1.116,7.78,-46.6,-3.4,-2.4,-912,84.2,5.19,13,
25.91263861,-80.13778395,21:34.0,10/21/21,7,1.23,90.97,-7.127399022,1.18,96.6,90.72,1.18,-2.37,35.3,0.01,3.49,3.5,90,27,497.1,16.1,-1.7,D,1214.5,2,7.189,1,1.24,156,93.04,-80.13771217,25.91263518,0,0,1,N,1.479023,64,64,11,141,141,94.30233,0,9999.99,3.5,3.627,2,9,29.5,0,29.5,44.37,1554.24878,10/21/21,11:57:49,27.48,65.53,44.37,1.12,7.78,-46.5,-3.5,-2.5,-283,84.3,5.2,13.2,
25.91263834,-80.13777835,21:35.0,10/21/21,7,1.185,90.32,-7.127399022,1.18,96.1,90.26,1.11,-2.67,35.3,0.01,3.57,3.58,90,26,497.1,16.1,-1.6,D,1242.2,2,6.629,1,1.23,156,93.04,-80.13771217,25.91263518,0,0,1,N,1.368876,64,64,11,146,146,95.06666,0,9999.99,3.58,3.707,2,9,29.5,0,29.5,44.36,1554.23796,10/21/21,11:57:50,27.48,65.52,44.36,1.126,7.79,-47,-4.2,-2.5,303,84.4,5.2,13.2,
25.91263753,-80.13777208,21:36.0,10/21/21,7,1.203,90.76,-7.127399022,1.18,96.2,90.35,1.04,-1.64,35.3,0.01,3.5,3.51,90,26,497.1,16.1,-1.6,D,1242.2,2,5.998,1,1.23,155,92.49,-80.13771217,25.91263518,0,0,1,N,1.296699,63,63,11,148,148,95.56984,0,9999.99,3.51,3.637,2,9,29.5,0,29.5,44.36,1554.23798,10/21/21,11:57:51,27.48,65.51,44.36,1.117,7.78,-46.4,-3.5,-6.7,-3189,84.6,5.21,12.9,
25.91263672,-80.137766,21:37.1,10/21/21,7,1.179,91.38,-7.127399022,1.18,96.1,90.26,1.15,-3.5,35.3,0.01,3.59,3.6,90,26,497.1,16.1,-1.6,D,1251.9,3,15.635,1,1.22,155,70.85,-80.13761832,25.91268284,0,0,1,N,2.829063,64,64,11,64,64,74.42616,0,9999.99,3.6,3.727,2,9,29.5,0,29.5,44.36,1554.23798,10/21/21,11:57:51,27.48,65.51,44.36,1.117,7.78,-46.4,-3.5,-6.7,-3189,84.6,5.21,12.9,
25.9126366,-80.13775984,21:38.1,10/21/21,7,1.204,89.24,-7.127399022,1.18,94.6,88.85,1.02,-3.54,35.3,0,3.68,3.68,90,26,497.1,16.1,-1.6,D,1251.9,3,15.059,1,1.21,155,70.04,-80.13761832,25.91268284,0,0,1,N,2.514879,63,63,11,65,65,73.41881,0,9999.99,3.69,3.817,2,9,29.5,0,29.5,44.37,1554.2482,10/21/21,11:57:52,27.47,65.53,44.37,1.125,7.78,-46.4,-4.2,-4.3,-792,84.7,5.22,13.1,
25.91263521,-80.13775436,21:39.1,10/21/21,7,1.223,89.79,-7.127399022,1.18,91.1,85.56,1.02,-3.13,35.3,0.01,3.71,3.72,90,26,497.1,16.1,-1.6,D,1251.9,3,14.601,1,1.21,155,68.73,-80.13761832,25.91268284,0,0,1,N,2.108452,63,63,11,69,69,71.72476,0,9999.99,3.72,3.847,2,9,29.5,0,29.5,44.39,1554.26913,10/21/21,11:57:53,27.47,65.55,44.39,1.125,7.78,-46.3,-4.1,-1.4,-3644,84.6,5.21,13.2,
25.91263589,-80.13774793,21:40.1,10/21/21,6,1.186,88.18,-7.127399022,1.43,87.9,82.54,1.06,-2.49,35.3,0.01,3.73,3.74,90,26,497,16.1,-1.6,D,1256.4,3,13.975,1,1.2,154,68.06,-80.13761832,25.91268284,0,0,1,N,1.850349,63,63,11,80,80,70.85504,0,9999.99,3.74,3.867,2,9,29.5,0,29.5,44.38,1554.25886,10/21/21,11:57:54,27.46,65.53,44.38,1.109,7.78,-46.4,-4.8,2,-1835,84.6,5.22,13.3,
25.91263564,-80.13774177,21:41.1,10/21/21,7,1.21,88.37,-7.127399022,1.18,84.3,79.13,1.27,-1.96,35.4,0,3.76,3.76,90,26,497,16.1,-1.6,D,1256.4,3,13.416,1,1.18,154,66.97,-80.13761832,25.91268284,0,0,1,N,1.519712,65,65,11,88,88,69.39882,0,9999.99,3.77,3.897,2,9,29.5,0,29.5,44.38,1554.25856,10/21/21,11:57:56,27.45,65.54,44.38,1.111,7.78,-46.6,-4.5,-3.7,-2099,84.7,5.22,13.1,
25.91263593,-80.1377355,21:42.1,10/21/21,7,1.205,86.61,-7.127399022,1.18,80.7,75.71,1.29,-2.73,35.3,0,3.77,3.77,90,26,497,16.1,-1.6,D,1256.4,3,12.828,1,1.15,154,66.01,-80.13761832,25.91268284,0,0,1,N,1.238019,65,65,11,93,93,67.39674,0,9999.99,3.78,3.907,2,9,29.5,0,29.5,44.38,1554.25856,10/21/21,11:57:56,27.45,65.54,44.38,1.111,7.78,-46.6,-4.5,-3.7,-2099,84.7,5.22,13.1,
25.91263706,-80.13773094,21:43.1,10/21/21,7,1.114,81.03,-7.127399022,1.18,78,73.12,1.17,-2.1,35.3,0.01,3.79,3.79,90,26,497,16.1,-1.6,D,1256.4,3,12.361,1,1.15,154,65.68,-80.13761832,25.91268284,0,0,1,N,1.118925,64,64,11,103,103,67.0603,0,9999.99,3.8,3.927,2,9,29.5,0,29.5,44.39,1554.26898,10/21/21,11:57:57,27.45,65.55,44.39,1.102,7.78,-46.6,-3.2,-2.2,-2673,84.6,5.22,13.1,
25.91263738,-80.137726,21:44.1,10/21/21,8,1.116,79.29,-7.127399022,1.18,75.3,70.53,1.43,-3.47,35.3,0,3.79,3.79,90,26,497,16.1,-1.6,D,1263.2,3,11.897,1,1.17,154,64.86,-80.13761832,25.91268284,0,0,1,N,0.9008843,66,66,11,109,109,66.08296,0,9999.99,3.8,3.927,2,9,29.5,0,29.5,44.38,1554.25874,10/21/21,11:57:58,27.45,65.54,44.38,1.114,7.79,-47.1,-3.1,-7,-2406,84.6,5.22,13.1,
25.9126383,-80.13771986,21:45.2,10/21/21,8,1.05,77.18,-7.127399022,1.18,73.2,68.5,1.4,-2.87,35.2,0.01,3.81,3.82,90,26,497,16.1,-1.6,D,1263.2,3,11.299,1,1.15,154,64,-80.13761832,25.91268284,0,0,1,N,0.6853337,65,65,11,113,113,65.07851,0,9999.99,3.82,3.947,2,9,29.5,0,29.5,44.4,1554.27952,10/21/21,11:57:59,27.45,65.56,44.4,1.112,7.78,-46.4,-3.3,-3.3,-2113,84.5,5.21,13.1,
25.91263899,-80.13771491,21:46.2,10/21/21,8,1.089,73.71,-7.127399022,1.18,71.5,66.86,1.24,-3.57,35.3,0.01,3.82,3.82,90,26,497,16.1,-1.6,D,1263.2,3,10.821,1,1.13,154,63.22,-80.13761832,25.91268284,0,0,1,N,0.5068961,64,64,11,116,116,64.1208,0,9999.99,3.83,3.957,2,9,29.5,0,29.5,44.4,1554.28006,10/21/21,11:58:01,27.45,65.56,44.4,1.099,7.78,-46.1,-3.8,-7,-2794,84.5,5.21,13,
25.9126405,-80.13770967,21:47.2,10/21/21,8,1.108,70.91,-7.127399022,1.18,70.9,66.28,1.12,-2.57,35.3,0.01,3.83,3.84,90,26,497,16.1,-1.6,D,1261.7,3,10.278,1,1.15,154,62.74,-80.13761832,25.91268284,0,0,1,N,0.3960592,64,64,11,115,115,63.38586,0,9999.99,3.84,3.967,2,9,29.4,0,29.5,44.4,1554.28006,10/21/21,11:58:01,27.45,65.56,44.4,1.099,7.78,-46.1,-3.8,-7,-2794,84.5,5.21,13,
25.91264259,-80.1377039,21:48.2,10/21/21,8,1.108,68.57,-7.127399022,1.18,69.1,64.53,1.21,-4.25,35.3,0.01,3.82,3.83,90,26,497,16.1,-1.6,D,1261.7,3,9.659,1,1.12,154,62.4,-80.13761832,25.91268284,0,0,1,N,0.3121337,64,64,11,120,120,62.7853,0,9999.99,3.83,3.957,2,9,29.4,0,29.39999962,44.38,1554.05576,10/21/21,11:58:03,27.44,65.54,44.38,1.12,7.78,-46.5,-4.1,-1.6,-2114,84.4,5.21,13,
25.91264514,-80.13769849,21:49.2,10/21/21,8,1.1,65.81,-7.127399022,1.18,69.4,64.83,1.37,-2.25,35.3,0,3.82,3.82,90,26,497,16.1,-1.6,D,1261.7,3,9.047,1,1.12,154,62.4,-80.13761832,25.91268284,0,0,1,N,0.2937573,65,65,11,118,118,62.65392,0,9999.99,3.83,3.957,2,9,29.4,0,29.39999962,44.37,1554.04525,10/21/21,11:58:04,27.44,65.52,44.37,1.113,7.77,-46,-3.5,-1.1,-4093,84.4,5.21,13.1,
25.91264755,-80.13769354,21:50.2,10/21/21,8,1.102,64.78,-7.127399022,1.18,68.2,63.66,1.23,-3.39,35.3,0,3.84,3.84,90,26,497,16.1,-1.6,D,1261.7,3,8.485,1,1.13,154,62.45,-80.13761832,25.91268284,0,0,1,N,0.2816626,64,64,11,123,123,62.56741,0,9999.99,3.85,3.977,2,9,29.4,0,29.39999962,44.38,1554.05554,10/21/21,11:58:05,27.43,65.53,44.38,1.103,7.78,-46.3,-4,-4.2,-1411,84.4,5.21,13,
25.91265006,-80.13768855,21:51.2,10/21/21,8,1.121,61.19,-7.127399022,1.18,67.8,63.27,0.91,-2.58,35.3,0,3.83,3.83,90,26,497,16.1,-1.6,D,1275.6,3,7.914,1,1.12,154,62.58,-80.13761832,25.91268284,0,0,1,N,0.2787097,62,62,11,124,124,62.54627,0,9999.99,3.84,3.967,2,9,29.4,0,29.39999962,44.39,1554.06605,10/21/21,11:58:06,27.42,65.54,44.39,1.107,7.77,-45.6,-4.4,0.1,-783,84.5,5.21,13.1,
25.91265326,-80.13768274,21:52.2,10/21/21,8,1.179,58.58,-7.127399022,1.18,67.5,62.98,1.39,-4.13,35.3,0,3.83,3.83,90,26,497,16.1,-1.6,D,1275.6,3,7.234,1,1.14,153,62.95,-80.13761832,25.91268284,0,0,1,N,0.3026161,65,65,11,126,126,62.71721,0,9999.99,3.84,3.967,2,9,29.4,0,29.39999962,44.38,1554.05537,10/21/21,11:58:07,27.42,65.54,44.38,1.13,7.78,-46.4,-3.7,-3.2,-1564,84.5,5.22,12.9,
25.91265616,-80.13767858,21:53.3,10/21/21,8,1.16,57.11,-7.127399022,1.18,67.7,63.17,1.19,-3.86,35.3,0,3.82,3.82,90,26,497,16.1,-1.6,D,1275.6,3,6.717,1,1.14,153,63.8,-80.13761832,25.91268284,0,0,1,N,0.3784982,64,64,11,129,129,63.25975,0,9999.99,3.83,3.957,2,9,29.4,0,29.39999962,44.36,1554.03463,10/21/21,11:58:08,27.41,65.51,44.36,1.106,7.78,-46.6,-4.5,-4.1,-3159,84.5,5.22,13.2,
25.91265916,-80.13767362,21:54.3,10/21/21,8,1.061,57.92,-7.127399022,1.18,67.3,62.78,1.06,-3.57,35.3,0,3.81,3.81,90,25,496.9,16.1,-1.5,D,1304.5,4,14.391,1,1.13,153,29.16,-80.1376035,25.91277218,0,0,1,N,5.131201,63,63,11,16,16,35.08754,0,9999.99,3.82,3.947,2,9,29.4,0,29.39999962,44.39,1554.066,10/21/21,11:58:09,27.4,65.54,44.39,1.103,7.78,-46.6,-3.5,-4.6,54,84.5,5.22,13.1,
25.91266227,-80.13766866,21:55.3,10/21/21,8,1.14,57,-7.127399022,1.18,66.8,62.3,0.95,-6.18,35.3,0.01,3.82,3.83,90,25,496.9,16.1,-1.5,D,1304.5,4,13.85,1,1.12,153,28.07,-80.1376035,25.91277218,0,0,1,N,4.690175,63,63,11,13,13,33.78646,0,9999.99,3.83,3.957,2,9,29.4,0,29.39999962,44.38,1554.05546,10/21/21,11:58:10,27.4,65.53,44.38,1.117,7.8,-47.3,-3.1,-8.1,-2693,84.6,5.23,13.2,
25.91266557,-80.13766386,21:56.3,10/21/21,8,1.066,56.6,-7.127399022,1.17,61.7,57.3,0.95,-1.47,35.3,0.01,3.8,3.81,90,26,496.9,16.1,-1.6,D,1261.5,4,13.304,1,1.07,153,26.99,-80.1376035,25.91277218,0,0,1,N,4.271151,63,63,11,28,28,32.47173,0,9999.99,3.81,3.937,2,9,29.4,0,29.39999962,44.4,1554.07683,10/21/21,11:58:11,27.4,65.55,44.4,1.121,7.78,-46.5,-4,-1.8,-2004,84.8,5.24,12.9,
25.91266883,-80.13765917,21:57.3,10/21/21,8,1.056,58.44,-7.127399022,1.17,57.2,52.87,1.46,-2.6,35.3,0.01,3.77,3.77,90,26,496.9,16.1,-1.6,D,1261.5,4,12.795,1,1.06,153,25.8,-80.1376035,25.91277218,0,0,1,N,3.853091,66,66,11,31,31,28.77058,0,9999.99,3.78,3.907,2,9,29.4,0,29.39999962,44.4,1554.07672,10/21/21,11:58:12,27.4,65.56,44.4,1.11,7.78,-46.4,-3.7,0.4,-3364,84.9,5.24,13.2,
25.912672,-80.13765549,21:58.3,10/21/21,8,1.056,58.44,-7.127399022,1.17,51.4,47.11,1.46,-2.77,35.2,0.01,3.76,3.76,90,26,496.9,16.1,-1.6,D,1284.2,4,12.294,1,1.06,153,25.02,-80.1376035,25.91277218,0,0,1,N,3.53333,66,66,11,48,48,28.02045,0,9999.99,3.77,3.897,2,9,29.4,0,29.39999962,44.39,1554.06635,10/21/21,11:58:13,27.41,65.54,44.39,1.102,7.78,-46.2,-4.1,-3.3,-4379,84.9,5.24,13.1,
25.91267617,-80.137651,21:59.4,10/21/21,8,1.068,49.99,-7.127399022,1.17,46.9,42.62,1.64,-2.16,35.3,0,3.74,3.74,90,26,496.9,16.1,-1.6,D,1284.2,4,11.667,1,1.03,153,24.05,-80.1376035,25.91277218,0,0,1,N,3.163955,67,67,11,65,65,27.13188,0,9999.99,3.75,3.877,2,9,29.4,0,29.39999962,44.38,1554.05554,10/21/21,11:58:14,27.41,65.53,44.38,1.098,7.78,-46.6,-4.6,2.2,307,85,5.24,13.2,
25.91268083,-80.13764817,22:00.4,10/21/21,8,1.107,40.57,-7.127399022,1.17,42.2,37.89,1.61,-3.92,35.3,0,3.71,3.71,90,26,496.9,16.1,-1.6,D,1284.2,4,11.167,1,1.02,153,23.42,-80.1376035,25.91277218,0,0,1,N,2.907048,67,67,11,79,79,26.59443,0,9999.99,3.72,3.847,2,9,29.4,0,29.39999962,44.39,1554.06601,10/21/21,11:58:15,27.41,65.54,44.39,1.089,7.78,-46.5,-3.9,-6.9,-445,85.1,5.25,13.1,
25.9126855,-80.13764517,22:01.4,10/21/21,8,1.037,34.7,-7.127399022,1.17,39.5,35.17,1.27,-1.98,35.3,0,3.68,3.68,90,26,496.9,16.1,-1.6,D,1273.9,4,10.584,1,1.02,153,23.34,-80.1376035,25.91277218,0,0,1,N,2.736512,65,65,11,92,92,26.78978,0,9999.99,3.69,3.817,2,9,29.4,0,29.39999962,44.4,1554.07652,10/21/21,11:58:16,27.41,65.56,44.4,1.099,7.78,-46.3,-4,-3.6,-922,85.1,5.25,13.1,
25.91269017,-80.1376425,22:02.4,10/21/21,8,1.024,31.07,-7.127399022,1.17,37.2,32.85,1.27,-2.43,35.2,0.01,3.66,3.66,90,26,496.9,16.1,-1.6,D,1273.9,4,9.978,1,1.05,153,22.98,-80.1376035,25.91277218,0,0,1,N,2.519515,65,65,11,99,99,25.95791,0,9999.99,3.67,3.797,2,9,29.4,0,29.39999962,44.37,1554.04522,10/21/21,11:58:17,27.41,65.52,44.37,1.11,7.78,-46.5,-3.5,-9.2,-2789,85.3,5.26,13.2,
25.91269503,-80.13763933,22:03.4,10/21/21,8,1.059,29.63,-7.127399022,1.17,35.2,30.82,1.13,-3.08,35.3,0,3.6,3.6,90,25,496.9,16.1,-1.6,D,1292.1,4,9.297,1,1.06,153,22.67,-80.1376035,25.91277218,0,0,1,N,2.330173,64,64,11,100,100,24.60865,0,9999.99,3.61,3.737,2,9,29.4,0,29.39999962,44.37,1554.04514,10/21/21,11:58:18,27.39,65.52,44.37,1.101,7.79,-47,-3.2,-5.5,-3135,85.4,5.28,13.1,
25.91269989,-80.13763701,22:04.4,10/21/21,8,1.118,26.77,-7.127399022,1.17,33.1,28.69,1.2,-2.98,35.3,0,3.54,3.55,90,25,496.9,16.1,-1.6,D,1292.1,4,8.709,1,1.08,153,22.64,-80.1376035,25.91277218,0,0,1,N,2.115827,64,64,11,106,106,23.50079,0,9999.99,3.55,3.677,2,9,29.4,0,29.39999962,44.38,1554.05564,10/21/21,11:58:19,27.38,65.53,44.38,1.103,7.78,-46.4,-2.9,-5,-4474,85.6,5.28,13,
25.91270466,-80.13763457,22:05.4,10/21/21,8,1.083,25.38,-7.127399022,1.17,31.7,27.27,1.04,-3.38,35.3,0.01,3.47,3.48,90,25,496.9,16.1,-1.6,D,1288,4,8.126,1,1.08,153,22.48,-80.1376035,25.91277218,0,0,1,N,1.991156,63,63,11,108,108,22.41494,0,9999.99,3.48,3.607,2,9,29.4,0,29.39999962,44.39,1554.06618,10/21/21,11:58:20,27.38,65.54,44.39,1.118,7.78,-46.4,-3.3,-7.1,-1215,85.7,5.29,13,
25.91271033,-80.13763244,22:06.5,10/21/21,8,1.065,22.03,-7.127399022,1.17,30.8,26.35,1.15,-3.28,35.3,0,3.4,3.4,90,25,496.9,16.1,-1.6,D,1288,4,7.462,1,1.09,153,22.82,-80.1376035,25.91277218,0,0,1,N,1.867963,64,64,11,108,108,21.62831,0,9999.99,3.41,3.537,2,9,29.4,0,29.39999962,44.39,1554.06607,10/21/21,11:58:22,27.37,65.54,44.39,1.109,7.78,-46.5,-4.3,-5.2,-2900,85.8,5.3,13.2,
25.91271538,-80.13763065,22:07.5,10/21/21,8,1.068,19.65,-7.127399022,1.17,30,25.54,1.01,-2.8,35.3,0,3.32,3.32,90,25,496.9,16.1,-1.6,D,1288,4,6.875,1,1.12,153,23.27,-80.1376035,25.91277218,0,0,1,N,1.769531,63,63,11,109,109,20.95858,0,9999.99,3.33,3.457,2,9,29.4,0,29.39999962,44.39,1554.06575,10/21/21,11:58:23,27.37,65.54,44.39,1.114,7.78,-46.5,-4,-2.7,-984,85.8,5.3,13,
25.91272013,-80.13762923,22:08.5,10/21/21,8,1.072,17.56,-7.127399022,1.17,27.3,22.79,1.34,-2.18,35.3,0.01,3.22,3.23,90,25,496.9,16.1,-1.6,D,1291.3,4,6.334,1,1.1,153,23.97,-80.1376035,25.91277218,0,0,1,N,1.702911,65,65,11,116,116,20.50262,0,9999.99,3.23,3.357,2,9,29.4,0,29.39999962,44.39,1554.06575,10/21/21,11:58:23,27.37,65.54,44.39,1.114,7.78,-46.5,-4,-2.7,-984,85.8,5.3,13,
25.91272508,-80.13762745,22:09.5,10/21/21,8,1.1,17.85,-7.127399022,1.17,26,21.47,1.2,-2.86,35.3,0,3.05,3.05,90,25,496.9,16.1,-1.6,D,1291.3,4,5.76,1,1.11,153,24.57,-80.1376035,25.91277218,0,0,1,N,1.606094,64,64,11,118,118,19.83792,0,9999.99,3.06,3.187,2,9,29.4,0,29.39999962,44.4,1554.07649,10/21/21,11:58:25,27.38,65.56,44.4,1.107,7.78,-46.5,-4.4,-0.1,-5480,85.8,5.3,13,
25.91273054,-80.13762605,22:10.5,10/21/21,8,1.078,15.37,-7.127399022,1.17,25.5,20.96,1.13,-2.91,35.2,0.01,2.94,2.95,90,25,496.8,16.1,-1.6,D,1286.4,5,11.243,1,1.1,153,316.14,-80.13770394,25.91280345,0,0,1,N,5.183759,64,64,11,5,5,322.0293,0,9999.99,2.95,3.077,2,9,29.4,0,29.39999962,44.4,1554.07649,10/21/21,11:58:25,27.38,65.56,44.4,1.107,7.78,-46.5,-4.4,-0.1,-5480,85.8,5.3,13,
25.91273557,-80.13762476,22:11.5,10/21/21,8,1.044,15.11,-7.127399022,1.17,22.1,17.49,0.88,-3.75,35.2,0.01,2.81,2.82,90,25,496.8,16.1,-1.6,D,1286.4,5,10.939,1,1.11,153,313.62,-80.13770394,25.91280345,0,0,1,N,4.61379,62,62,11,5,5,319.0597,0,9999.99,2.82,2.947,2,9,29.4,0,29.39999962,44.38,1554.05597,10/21/21,11:58:26,27.38,65.54,44.38,1.11,7.79,-47.1,-3,-1.6,-3714,85.7,5.29,13.1,
25.91274043,-80.13762362,22:12.5,10/21/21,8,1.051,14.51,-7.127399022,1.17,15.8,11.05,1.42,-3.8,35.2,0.01,2.59,2.59,90,26,496.8,16.1,-1.6,D,1262,5,10.66,1,1.1,153,311.1,-80.13770394,25.91280345,0,0,1,N,4.055164,66,66,11,5,5,315.9696,0,9999.99,2.6,2.727,2,9,29.4,0,29.39999962,44.38,1554.05573,10/21/21,11:58:28,27.38,65.53,44.38,1.094,7.78,-46.4,-3.3,-4.8,-3214,85.8,5.3,13.1,
25.91274544,-80.13762254,22:13.5,10/21/21,8,1.065,12.07,-7.127399022,1.17,12,7.16,1.66,-3.69,35.3,0.01,2.42,2.42,90,26,496.8,16.1,-1.6,D,1262,5,10.387,1,1.09,153,308.39,-80.13770394,25.91280345,0,0,1,N,3.493178,66,66,11,5,5,312.6755,0,9999.99,2.43,2.557,2,9,29.4,0,29.39999962,44.38,1554.05573,10/21/21,11:58:28,27.38,65.53,44.38,1.094,7.78,-46.4,-3.3,-4.8,-3214,85.8,5.3,13.1,
25.91274979,-80.13762218,22:14.5,10/21/21,8,1.05,8.08,-7.127399022,1.17,6.4,1.42,1.4,-2.7,35.3,0,2.38,2.38,90,26,496.8,16.1,-1.6,D,1262,5,10.123,1,1.07,153,306.12,-80.13770394,25.91280345,0,0,1,N,2.963856,65,65,11,5,5,309.6127,0,9999.99,2.39,2.517,2,9,29.4,0,29.39999962,44.39,1554.06601,10/21/21,11:58:29,27.39,65.54,44.39,1.086,7.78,-46.3,-4.6,-3,140,85.9,5.31,13.1,
25.9127546,-80.13762193,22:15.5,10/21/21,8,0.98,3.89,-7.127399022,1.17,359.8,354.67,1.54,-2.86,35.3,0.01,2.37,2.37,90,25,496.8,16.1,-1.5,D,1294.3,5,9.838,1,1.04,153,303.51,-80.13770394,25.91280345,0,0,1,N,2.522755,66,66,11,5,5,306.5444,0,9999.99,2.38,2.507,2,9,29.4,0,29.39999962,44.38,1554.05568,10/21/21,11:58:31,27.41,65.53,44.38,1.096,7.78,-46.4,-3.7,-4.7,-1060,86,5.31,12.9,
25.91275984,-80.13762278,22:16.5,10/21/21,8,0.968,357.46,-7.127399022,1.17,353.6,348.34,1.74,-4.01,35.3,0.01,2.32,2.33,90,25,496.8,16.1,-1.5,D,1294.3,5,9.456,1,1.03,153,300.85,-80.13770394,25.91280345,0,0,1,N,1.975398,67,67,11,5,5,302.9618,0,9999.99,2.34,2.467,2,9,29.4,0,29.39999962,44.38,1554.05568,10/21/21,11:58:31,27.41,65.53,44.38,1.096,7.78,-46.4,-3.7,-4.7,-1060,86,5.31,12.9,
25.91276373,-80.13762405,22:17.5,10/21/21,8,1.058,350.26,-7.127399022,1.17,348.5,343.13,1.61,-3.29,35.2,0.01,2.33,2.34,90,25,496.8,16.1,-1.5,D,1294.3,5,9.13,1,1.03,153,298.93,-80.13770394,25.91280345,0,0,1,N,1.576696,67,67,11,5,5,300.4645,0,9999.99,2.35,2.477,2,9,29.4,0,29.39999962,44.35,1554.02441,10/21/21,11:58:32,27.41,65.49,44.35,1.101,7.78,-46.4,-3.1,-4.6,-2566,86.1,5.32,13.1,
25.91276941,-80.13762552,22:18.5,10/21/21,8,1.11,345.48,-7.127399022,1.17,342.8,337.33,1.8,-3.24,35.2,0.01,2.29,2.3,90,25,496.8,16.1,-1.5,D,1294.3,5,8.708,1,1.02,153,295.76,-80.13770394,25.91280345,0,0,1,N,1.05909,68,68,11,5,5,296.6332,0,9999.99,2.31,2.437,2,9,29.4,0,29.39999962,44.35,1554.02424,10/21/21,11:58:34,27.4,65.5,44.35,1.08,7.78,-46.1,-3.4,-6.7,-2700,86.2,5.32,13.2,
25.91277421,-80.13762741,22:19.5,10/21/21,8,1.011,341.39,-7.127399022,1.17,334.9,329.3,1.68,-3.16,35.2,0.01,2.33,2.34,90,26,496.8,16.1,-1.6,D,1280.7,5,8.315,1,1,153,293.02,-80.13770394,25.91280345,0,0,1,N,0.60537,67,67,11,5,5,293.4194,0,9999.99,2.35,2.477,2,9,29.4,0,29.39999962,44.35,1554.02424,10/21/21,11:58:34,27.4,65.5,44.35,1.08,7.78,-46.1,-3.4,-6.7,-2700,86.2,5.32,13.2,
25.91277864,-80.13762986,22:20.5,10/21/21,8,0.994,334.85,-7.127399022,1.17,329,323.32,1.65,-3.5,35.3,0.01,2.42,2.42,90,26,496.8,16.1,-1.6,D,1280.7,5,7.907,1,1,153,290.42,-80.13770394,25.91280345,0,0,1,N,0.2138031,67,67,11,5,5,290.6233,0,9999.99,2.43,2.557,2,9,29.4,0,29.39999962,44.33,1554.00321,10/21/21,11:58:35,27.4,65.47,44.33,1.09,7.78,-46.5,-2.6,-4.9,-3820,86.2,5.32,13,
25.91278266,-80.13763272,22:21.6,10/21/21,8,0.982,329.49,-7.127399022,1.17,323.2,317.45,1.7,-3.27,35.2,0.01,2.52,2.53,90,26,496.8,16.1,-1.6,D,1280.7,5,7.489,1,0.99,153,287.98,-80.13770394,25.91280345,0,0,1,N,0.1167951,67,67,11,10,10,288.2559,0,9999.99,2.54,2.667,2,9,29.4,0,29.39999962,44.34,1554.01388,10/21/21,11:58:37,27.4,65.48,44.34,1.098,7.78,-46.3,-3.1,-8.5,-1894,86.2,5.32,13.2,
25.91278662,-80.13763556,22:22.6,10/21/21,8,0.947,324.55,-7.127399022,1.17,315.3,309.46,1.79,-3.31,35.2,0,2.64,2.65,90,26,496.8,16.1,-1.6,D,1280.7,5,7.09,1,1,153,285.3,-80.13770394,25.91280345,0,0,1,N,0.4438873,69,69,11,28,28,285.9164,0,9999.99,2.66,2.787,2,9,29.4,0,29.39999962,44.34,1554.01388,10/21/21,11:58:37,27.4,65.48,44.34,1.098,7.78,-46.3,-3.1,-8.5,-1894,86.2,5.32,13.2,
25.91279022,-80.13763859,22:23.6,10/21/21,8,0.963,320.28,-7.127399022,1.17,309.7,303.8,1.9,-3.04,35.2,0,2.78,2.79,90,26,496.8,16.1,-1.6,D,1275.9,5,6.699,1,0.98,153,282.68,-80.13770394,25.91280345,0,0,1,N,0.7338318,68,68,11,44,44,283.8513,0,9999.99,2.8,2.927,2,9,29.4,0,29.39999962,44.34,1554.01344,10/21/21,11:58:38,27.4,65.48,44.34,1.088,7.78,-46.4,-2.5,-5.7,-3446,86.3,5.33,13.1,
25.91279336,-80.13764228,22:24.6,10/21/21,8,0.91,313.92,-7.127399022,1.17,304.9,298.95,1.52,-2.61,35.2,0,2.93,2.93,90,26,496.7,16.1,-1.6,D,1264.9,6,20.794,1,0.97,153,260.27,-80.13784719,25.91276176,0,0,1,N,3.010885,66,66,11,5,5,264.7649,0,9999.99,2.94,3.067,2,9,29.3,0,29.29999924,44.35,1553.82041,10/21/21,11:58:40,27.39,65.5,44.35,1.09,7.78,-46.1,-2.3,-2,-3883,86.5,5.34,13.1,
25.91279608,-80.13764636,22:25.6,10/21/21,8,0.957,308.88,-7.127399022,1.17,297.6,291.55,1.5,-4.23,35.2,0,3.05,3.05,90,26,496.7,16.1,-1.6,D,1264.9,6,20.445,1,1,153,259.24,-80.13784719,25.91276176,0,0,1,N,2.592359,65,65,11,9,9,263.2787,0,9999.99,3.06,3.187,2,9,29.3,0,29.29999924,44.35,1553.82041,10/21/21,11:58:40,27.39,65.5,44.35,1.09,7.78,-46.1,-2.3,-2,-3883,86.5,5.34,13.1,
25.91279843,-80.13765041,22:26.6,10/21/21,8,1.022,303.05,-7.127399022,1.17,291.3,285.15,1.5,-1.81,35.2,0.01,3.11,3.11,90,26,496.7,16.1,-1.6,D,1264.9,6,20.099,1,0.99,153,258.3,-80.13784719,25.91276176,0,0,1,N,2.209236,66,66,11,31,31,261.8767,0,9999.99,3.12,3.247,2,9,29.3,0,29.29999924,44.33,1553.79971,10/21/21,11:58:41,27.39,65.46,44.33,1.09,7.78,-46.4,-3.5,-4.6,-540,86.5,5.34,13.2,
25.91280064,-80.13765442,22:27.6,10/21/21,8,0.994,300.85,-7.127399022,1.17,285.2,278.93,1.66,-1.58,35.2,0,3.15,3.15,90,26,496.7,16.1,-1.6,D,1264.9,6,19.759,1,0.98,153,257.36,-80.13784719,25.91276176,0,0,1,N,1.845916,67,67,11,52,52,260.4807,0,9999.99,3.16,3.287,2,9,29.3,0,29.29999924,44.35,1553.82056,10/21/21,11:58:43,27.39,65.49,44.35,1.087,7.78,-46.1,-3.3,-3.8,-1330,86.6,5.35,13,
25.9128024,-80.13765925,22:28.6,10/21/21,8,0.979,293.99,-7.127399022,1.17,279.9,273.51,1.78,-2.45,35.2,0.01,3.25,3.26,90,26,496.7,16.1,-1.6,D,1264.8,6,19.332,1,0.98,153,256.48,-80.13784719,25.91276176,0,0,1,N,1.509445,68,68,11,70,70,259.1787,0,9999.99,3.27,3.397,2,9,29.3,0,29.29999924,44.35,1553.82056,10/21/21,11:58:43,27.39,65.49,44.35,1.087,7.78,-46.1,-3.3,-3.8,-1330,86.6,5.35,13,
25.91280346,-80.13766473,22:29.6,10/21/21,8,0.953,288,-7.127399022,1.17,275.1,268.58,1.58,-2.51,35.2,0.01,3.28,3.28,90,26,496.7,16.1,-1.6,D,1264.8,6,18.829,1,0.98,153,255.74,-80.13784719,25.91276176,0,0,1,N,1.223946,66,66,11,85,85,258.0758,0,9999.99,3.29,3.417,2,9,29.3,0,29.29999924,44.36,1553.83123,10/21/21,11:58:44,27.4,65.51,44.36,1.073,7.78,-46.4,-2.8,-5.2,-1356,86.6,5.35,13.1,
25.91280388,-80.13766917,22:30.6,10/21/21,8,0.922,282.05,-7.127399022,1.17,272,265.38,1.42,-1.68,35.2,0,3.31,3.31,90,26,496.7,16.1,-1.6,D,1264.8,6,18.41,1,1,153,255.26,-80.13784719,25.91276176,0,0,1,N,1.037681,66,66,11,95,95,257.3489,0,9999.99,3.32,3.447,2,9,29.3,0,29.29999924,44.34,1553.81013,10/21/21,11:58:45,27.41,65.48,44.34,1.097,7.79,-46.9,-1.9,-4.4,-2072,86.5,5.34,13.1,
25.91280409,-80.13767445,22:31.6,10/21/21,8,1.014,276.92,-7.127399022,1.17,268.5,261.77,1.31,-1.65,35.2,0,3.36,3.36,90,26,496.7,16.1,-1.6,D,1279.7,6,17.907,1,1.02,153,254.76,-80.13784719,25.91276176,0,0,1,N,0.8513319,65,65,11,106,106,256.5936,0,9999.99,3.37,3.497,2,9,29.3,0,29.29999924,44.35,1553.82047,10/21/21,11:58:47,27.43,65.49,44.35,1.104,7.78,-46.3,-3.8,-4.4,-760,86.6,5.35,13,
25.91280389,-80.1376796,22:32.6,10/21/21,8,1.029,272.18,-7.127399022,1.17,266.3,259.49,1.29,-2.93,35.2,0,3.41,3.41,90,26,496.7,16.1,-1.6,D,1279.7,6,17.404,1,1.02,153,254.38,-80.13784719,25.91276176,0,0,1,N,0.7121355,65,65,11,113,113,256.0325,0,9999.99,3.42,3.547,2,9,29.3,0,29.29999924,44.32,1553.78891,10/21/21,11:58:48,27.43,65.46,44.32,1.12,7.78,-46.2,-3,-3.4,-2621,86.6,5.35,13.2,
25.91280341,-80.13768438,22:33.7,10/21/21,8,0.997,266.34,-7.127399022,1.17,264.9,258.04,1.13,-3.61,35.2,0,3.44,3.44,90,26,496.7,16.1,-1.6,D,1279.7,6,16.93,1,1.03,153,254.13,-80.13784719,25.91276176,0,0,1,N,0.614821,64,64,11,117,117,255.6523,0,9999.99,3.45,3.577,2,9,29.3,0,29.29999924,44.32,1553.78891,10/21/21,11:58:48,27.43,65.46,44.32,1.12,7.78,-46.2,-3,-3.4,-2621,86.6,5.35,13.2,
25.91280252,-80.1376897,22:34.7,10/21/21,8,1.087,262.61,-7.127399022,1.17,263.4,256.48,1.14,-2.86,35.2,0,3.49,3.49,90,26,496.7,16.1,-1.6,D,1279.7,6,16.39,1,1.03,153,253.95,-80.13784719,25.91276176,0,0,1,N,0.543139,64,64,11,121,121,255.4102,0,9999.99,3.5,3.627,2,9,29.3,0,29.29999924,44.35,1553.82041,10/21/21,11:58:49,27.43,65.49,44.35,1.094,7.78,-46.3,-3,-2.5,-2739,86.6,5.34,13.1,
25.91280182,-80.13769521,22:35.7,10/21/21,8,1.09,262.76,-7.127399022,1.17,262.7,255.76,1.13,-2.81,35.2,0.01,3.52,3.53,90,25,496.7,16.1,-1.5,D,1303,6,15.84,1,1.04,153,253.67,-80.13784719,25.91276176,0,0,1,N,0.4484455,64,64,11,124,124,254.9904,0,9999.99,3.53,3.657,2,9,29.3,0,29.29999924,44.35,1553.82064,10/21/21,11:58:51,27.43,65.5,44.35,1.125,7.78,-46.4,-3.3,-2.8,-1963,86.7,5.35,13,
25.91280178,-80.1377008,22:36.7,10/21/21,8,1.119,265.48,-7.127399022,1.17,262.8,255.86,1.01,-1.77,35.2,0.01,3.54,3.55,90,25,496.7,16.1,-1.5,D,1303,6,15.302,1,1.05,153,253.09,-80.13784719,25.91276176,0,0,1,N,0.2800355,63,63,11,122,122,254.0056,0,9999.99,3.55,3.677,2,9,29.3,0,29.29999924,44.35,1553.82064,10/21/21,11:58:51,27.43,65.5,44.35,1.125,7.78,-46.4,-3.3,-2.8,-1963,86.7,5.35,13,
25.91280155,-80.13770665,22:37.7,10/21/21,9,1.048,265.57,-7.127399022,1.17,262.8,255.86,1.06,-2.4,35.2,0,3.56,3.57,90,26,496.7,16.1,-1.6,D,1283.6,6,14.736,1,1.06,153,252.53,-80.13784719,25.91276176,0,0,1,N,0.1243458,63,63,11,115,115,252.9623,0,9999.99,3.57,3.697,2,9,29.3,0,29.29999924,44.36,1553.8311,10/21/21,11:58:52,27.44,65.5,44.36,1.116,7.77,-46.1,-2.9,-4.6,-387,86.7,5.35,13.3,
25.9128012,-80.13771235,22:38.7,10/21/21,8,1.079,265.01,-7.127399022,1.17,262.8,255.86,1.18,-3.19,35.2,0,3.58,3.58,90,26,496.7,16.1,-1.6,D,1283.6,6,14.181,1,1.07,153,251.99,-80.13784719,25.91276176,0,0,1,N,1.15E-02,64,64,11,112,112,251.9883,0,9999.99,3.59,3.717,2,9,29.3,0,29.29999924,44.35,1553.82045,10/21/21,11:58:53,27.45,65.49,44.35,1.12,7.79,-46.7,-3.4,-3.3,-2937,86.7,5.35,13.1,
25.91280022,-80.13771739,22:39.7,10/21/21,8,1.082,261.88,-7.127399022,1.17,262.2,255.24,0.97,-3.63,35.2,0.01,3.58,3.59,90,26,496.7,16.1,-1.6,D,1283.6,6,13.669,1,1.08,153,251.77,-80.13784719,25.91276176,0,0,1,N,6.30E-02,63,63,11,111,111,251.6191,0,9999.99,3.59,3.717,2,9,29.3,0,29.29999924,44.34,1553.80996,10/21/21,11:58:54,27.46,65.49,44.34,1.109,7.78,-46.3,-2.5,-5.5,-1354,86.7,5.35,13.3,
25.91279972,-80.13772254,22:40.8,10/21/21,8,1.125,263.85,-7.127399022,1.17,261.5,254.51,0.97,-2.86,35.1,0.01,3.61,3.62,90,25,496.6,16.1,-1.6,D,1290.7,6,13.162,1,1.08,153,251.29,-80.13784719,25.91276176,0,0,1,N,0.1720421,63,63,11,112,112,250.8384,0,9999.99,3.62,3.747,2,9,29.3,0,29.29999924,44.37,1553.8421,10/21/21,11:58:56,27.47,65.52,44.37,1.115,7.78,-46.2,-3.1,-0.6,-535,86.8,5.35,13.2,
25.91279888,-80.13772775,22:41.8,10/21/21,8,1.074,260.81,-7.127399022,1.17,261.2,254.2,1.19,-4.13,35.2,0.01,3.62,3.63,90,25,496.6,16.1,-1.6,D,1290.7,6,12.639,1,1.1,153,250.94,-80.13784719,25.91276176,0,0,1,N,0.2430838,64,64,11,112,112,250.3302,0,9999.99,3.63,3.757,2,9,29.3,0,29.29999924,44.37,1553.8421,10/21/21,11:58:56,27.47,65.52,44.37,1.115,7.78,-46.2,-3.1,-0.6,-535,86.8,5.35,13.2,
25.91279828,-80.13773408,22:42.8,10/21/21,8,1.164,263.52,-7.127399022,1.17,260.2,253.16,1.08,-3.24,35.2,0,3.63,3.63,90,25,496.6,16.1,-1.6,D,1290.7,6,12.02,1,1.1,153,250.25,-80.13784719,25.91276176,0,0,1,N,0.3747683,63,63,11,112,112,249.3883,0,9999.99,3.64,3.767,2,9,29.3,0,29.29999924,44.35,1553.82105,10/21/21,11:58:57,27.47,65.5,44.35,1.107,7.77,-45.8,-2.7,-1.5,-4113,86.8,5.35,13.1,
25.91279771,-80.13773956,22:43.8,10/21/21,8,1.095,263.16,-7.127399022,1.17,259,251.91,1.08,-2.41,35.1,0,3.66,3.66,90,25,496.6,16.1,-1.6,D,1290.7,6,11.483,1,1.09,153,249.63,-80.13784719,25.91276176,0,0,1,N,0.4850841,63,63,11,114,114,248.6005,0,9999.99,3.67,3.797,2,9,29.3,0,29.29999924,44.33,1553.79946,10/21/21,11:58:59,27.45,65.46,44.33,1.101,7.78,-46.4,-3.2,-4.6,-2715,86.7,5.35,13,
25.91279674,-80.1377449,22:44.8,10/21/21,8,1.078,260.75,-7.127399022,1.17,257.2,250.03,0.96,-2.06,35.1,0,3.66,3.66,90,25,496.6,16.1,-1.5,D,1316.1,6,10.945,1,1.03,153,249.18,-80.13784719,25.91276176,0,0,1,N,0.5465159,63,63,11,120,120,248.1621,0,9999.99,3.67,3.797,2,9,29.3,0,29.29999924,44.33,1553.79946,10/21/21,11:58:59,27.45,65.46,44.33,1.101,7.78,-46.4,-3.2,-4.6,-2715,86.7,5.35,13,
25.91279409,-80.13775017,22:45.8,10/21/21,8,1.176,259.09,-7.127399022,1.17,256.4,249.2,1.12,-1.95,35.2,0.01,3.67,3.68,90,25,496.6,16.1,-1.5,D,1316.1,6,10.348,1,1.05,153,249.67,-80.13784719,25.91276176,0,0,1,N,0.4303216,64,64,11,126,126,248.9917,0,9999.99,3.68,3.807,2,9,29.3,0,29.29999924,44.33,1553.79966,10/21/21,11:59:01,27.43,65.46,44.33,1.101,7.79,-46.7,-3.4,-4.3,-3956,86.6,5.35,13.1,
25.91279226,-80.13775559,22:46.8,10/21/21,8,1.061,256.26,-7.127399022,1.17,255.7,248.46,1.12,-1.84,35.2,0.01,3.75,3.76,90,25,496.6,16.1,-1.5,D,1316.1,6,9.769,1,1.06,153,249.69,-80.13784719,25.91276176,0,0,1,N,0.4061218,64,64,11,130,130,249.1642,0,9999.99,3.76,3.887,2,9,29.3,0,29.29999924,44.33,1553.79966,10/21/21,11:59:01,27.43,65.46,44.33,1.101,7.79,-46.7,-3.4,-4.3,-3956,86.6,5.35,13.1,
25.9127906,-80.13776064,22:47.8,10/21/21,8,1.105,255.94,-7.127399022,1.17,255.1,247.84,1.25,-2.42,35.2,0,3.77,3.77,90,25,496.6,16.1,-1.6,D,1286.6,6,9.231,1,1.06,153,249.67,-80.13784719,25.91276176,0,0,1,N,0.3866493,65,65,11,133,133,249.3035,0,9999.99,3.78,3.907,2,9,29.3,0,29.29999924,44.33,1553.79964,10/21/21,11:59:02,27.43,65.47,44.33,1.099,7.78,-46.3,-3.2,-2.9,-4078,86.6,5.35,13.2,
25.91278879,-80.13776547,22:48.8,10/21/21,8,1.073,255.55,-7.127399022,1.14,254.4,247.11,1.11,-3.11,35.1,0.01,3.79,3.8,90,25,496.6,16.1,-1.6,D,1286.6,6,8.708,1,1.06,153,249.81,-80.13784719,25.91276176,0,0,1,N,0.3442945,64,64,11,136,136,249.6063,0,9999.99,3.8,3.927,2,9,29.3,0,29.29999924,44.34,1553.81004,10/21/21,11:59:03,27.42,65.48,44.34,1.111,7.78,-46.3,-3.2,-2,-2835,86.6,5.35,13.1,
25.91278668,-80.13777039,22:49.8,10/21/21,8,1.11,250.66,-7.127399022,1.14,253.9,246.58,0.88,-2.07,35.1,0.01,3.81,3.82,90,25,496.6,16.1,-1.6,D,1286.6,6,8.166,1,1.06,153,250.16,-80.13784719,25.91276176,0,0,1,N,0.2741096,62,62,11,140,140,250.1081,0,9999.99,3.82,3.947,2,9,29.3,0,29.29999924,44.31,1553.77882,10/21/21,11:59:05,27.41,65.45,44.31,1.117,7.78,-46.3,-3.5,-3.4,-3501,86.5,5.34,13,
25.91278465,-80.13777572,22:50.8,10/21/21,8,1.074,249.5,-7.127399022,1.14,253.4,246.06,0.97,-1.94,35.1,0.01,3.84,3.85,90,25,496.6,16.1,-1.6,D,1286.6,6,7.588,1,1.06,153,250.4,-80.13784719,25.91276176,0,0,1,N,0.2242835,63,63,11,145,145,250.4646,0,9999.99,3.85,3.977,2,9,29.3,0,29.29999924,44.31,1553.77882,10/21/21,11:59:05,27.41,65.45,44.31,1.117,7.78,-46.3,-3.5,-3.4,-3501,86.5,5.34,13,
25.91278285,-80.13778145,22:51.8,10/21/21,8,1.054,250.22,-7.127399022,1.14,254.3,247,1.16,-2.3,35.1,0,3.82,3.82,90,25,496.6,16.1,-1.6,D,1288.9,6,6.981,1,1.06,153,250.37,-80.13784719,25.91276176,0,0,1,N,0.2105983,64,64,11,141,141,250.5625,0,9999.99,3.83,3.957,2,9,29.3,0,29.29999924,44.31,1553.77861,10/21/21,11:59:06,27.4,65.45,44.31,1.106,7.78,-46.3,-2.9,-0.9,-2425,86.4,5.34,13.2,
25.91278128,-80.13778767,22:52.8,10/21/21,8,1.076,253.05,-7.127399022,1.14,254.7,247.42,1.16,-3.36,35.1,0,3.86,3.86,90,25,496.6,16.1,-1.6,D,1288.9,6,6.337,1,1.06,153,249.97,-80.13784719,25.91276176,0,0,1,N,0.2357307,64,64,11,139,139,250.3828,0,9999.99,3.87,3.997,2,9,29.3,0,29.29999924,44.32,1553.78886,10/21/21,11:59:08,27.4,65.46,44.32,1.094,7.78,-46.5,-3.4,-2.1,-2260,86.4,5.33,13.1,
25.91277997,-80.13779349,22:53.8,10/21/21,8,1.087,252.7,-7.127399022,1.14,254.3,247,1.16,-2.44,35.1,0.01,3.92,3.93,90,25,496.6,16.1,-1.6,D,1288.9,6,5.739,1,1.07,153,249.34,-80.13784719,25.91276176,0,0,1,N,0.2757141,64,64,11,139,139,250.0966,0,9999.99,3.93,4.057,2,9,29.3,0,29.29999924,44.32,1553.78886,10/21/21,11:59:08,27.4,65.46,44.32,1.094,7.78,-46.5,-3.4,-2.1,-2260,86.4,5.33,13.1,
25.91277872,-80.13779856,22:54.8,10/21/21,8,1.055,252.9,-7.127399022,1.14,254.8,247.52,1,-2.59,35.1,0,3.92,3.92,90,25,496.5,16.1,-1.6,D,1287.2,7,5.217,1,1.06,160,248.81,-80.13784719,25.91276176,0,0,6,N,0.2669257,63,63,11,132,132,248.823,0,9999.99,3.93,4.057,2,9,29.3,0,29.29999924,44.32,1553.78904,10/21/21,11:59:10,27.42,65.46,44.32,1.103,7.78,-46.2,-3.5,-4.9,-4016,86.6,5.34,13.1,
25.91277742,-80.13780468,22:55.8,10/21/21,8,1.053,254.22,-7.127399022,1.13,254.3,247,0.35,-2.88,35.1,0,3.93,3.93,90,25,496.5,16.1,-1.6,D,1287.2,7,4.594,1,1.08,128,247.73,-80.13784719,25.91276176,0,0,6,N,0.2669257,62,62,11,128,128,247.7547,0,9999.99,3.94,4.067,2,9,29.3,0,29.29999924,44.32,1553.78904,10/21/21,11:59:10,27.42,65.46,44.32,1.103,7.78,-46.2,-3.5,-4.9,-4016,86.6,5.34,13.1,
25.91277583,-80.13781068,22:56.8,10/21/21,8,1.139,253.02,-7.127399022,1.13,254.2,246.9,0.95,-3.5,35.1,0,3.92,3.92,90,25,496.5,16.1,-1.6,D,1287.2,7,3.973,1,1.09,128,246.81,-80.13784719,25.91276176,0,0,6,N,0.2669257,63,63,11,127,127,246.83,0,9999.99,3.92,4.047,2,9,29.3,0,29.29999924,44.33,1553.79944,10/21/21,11:59:11,27.44,65.47,44.33,1.101,7.78,-46.3,-4,-2.8,-2592,86.6,5.34,13,
25.91277491,-80.13781566,22:57.8,10/21/21,8,0.94,256.83,-7.127399022,1.13,255.3,248.05,1.06,-4.28,35.1,0.01,3.82,3.83,90,25,496.5,16.1,-1.6,D,1287.2,7,3.475,1,1.04,128,245.12,-80.13784719,25.91276176,0,0,6,N,0.2669257,63,63,11,116,116,245.2287,0,9999.99,3.83,3.957,2,9,29.3,0,29.29999924,44.31,1553.77872,10/21/21,11:59:13,27.51,65.45,44.31,1.091,7.78,-46.3,-3.7,0.3,-3271,86.6,5.34,13.1,
25.91277412,-80.13782007,22:58.8,10/21/21,8,0.877,258.3,-7.127399022,1.13,254.6,247.32,1.34,-3.99,35,0.01,3.4,3.41,90,22,496.5,16.1,-1.4,D,1458.9,7,3.039,1,0.98,128,243.14,-80.13784719,25.91276176,0,0,6,N,0.2669257,65,65,11,111,111,243.2531,0,9999.99,3.41,3.537,2,9,29.3,0,29.29999924,44.31,1553.77872,10/21/21,11:59:13,27.51,65.45,44.31,1.091,7.78,-46.3,-3.7,0.3,-3271,86.6,5.34,13.1,
25.91277329,-80.13782395,22:59.8,10/21/21,8,0.707,258.3,-7.127399022,1.13,252.7,245.33,1.07,-4.37,35.1,0.01,3.26,3.27,90,22,496.5,16.1,-1.4,D,1458.9,7,2.655,1,0.91,128,241.13,-80.13784719,25.91276176,0,0,6,N,0.2669257,63,63,11,109,109,241.2528,0,9999.99,3.27,3.397,2,9,29.3,0,29.29999924,44.31,1553.77886,10/21/21,11:59:15,27.56,65.45,44.31,1.096,7.77,-45.7,-4.1,0.3,-2783,86.6,5.34,13,
25.91277205,-80.13782752,23:00.8,10/21/21,7,0.795,258.3,-7.127399022,1.43,251.7,244.28,0.59,-4.95,35.1,0.01,3.7,3.71,90,22,496.5,16.1,-1.4,D,1458.9,7,2.276,1,0.84,128,239.83,-80.13784719,25.91276176,0,0,6,N,0.2669257,61,61,11,107,107,239.9867,0,9999.99,3.71,3.837,2,9,29.3,0,29.29999924,44.31,1553.77886,10/21/21,11:59:15,27.56,65.45,44.31,1.096,7.77,-45.7,-4.1,0.3,-2783,86.6,5.34,13,
25.91277105,-80.13783065,23:01.8,10/21/21,7,0.624,258.3,-7.127399022,1.43,250.1,242.61,1,-4.92,35.1,0.01,3.61,3.62,90,22,496.5,16.1,-1.4,D,1468.2,7,1.948,1,0.77,128,238.01,-80.13784719,25.91276176,0,0,6,N,0.2669257,63,63,11,109,109,238.1758,0,9999.99,3.62,3.747,2,9,29.3,0,29.29999924,44.27,1553.73662,10/21/21,11:59:16,27.57,65.4,44.27,1.093,7.78,-46.6,-4.1,0.8,-3349,86.6,5.33,13.1,
25.91277065,-80.13783311,23:02.8,10/21/21,9,0.668,258.3,-7.127399022,1.43,248.8,241.24,1.18,-3.19,35.1,0.01,3.57,3.58,90,22,496.5,16.1,-1.4,D,1468.2,7,1.719,1,0.7,128,234.94,-80.13784719,25.91276176,0,0,6,N,0.2669257,64,64,11,103,103,235.1304,0,9999.99,3.58,3.707,2,9,29.3,0,29.29999924,44.28,1553.74738,10/21/21,11:59:18,27.57,65.41,44.28,1.093,7.78,-46.3,-3.2,-1,-4477,86.6,5.34,13.2,
25.91277015,-80.13783636,23:03.8,10/21/21,9,0.564,258.3,-7.127399022,1.43,254,246.69,1.05,-6.21,35,0,3.5,3.5,90,22,496.5,16.1,-1.4,D,1468.2,7,1.43,1,0.66,128,229.24,-80.13784719,25.91276176,0,0,6,N,0.2669257,63,63,11,60,60,229.7165,0,9999.99,3.51,3.637,0,0,29.3,0,29.29999924,44.28,1553.74738,10/21/21,11:59:18,27.57,65.41,44.28,1.093,7.78,-46.3,-3.2,-1,-4477,86.6,5.34,13.2,
25.9127693,-80.1378387,23:04.9,10/21/21,9,0.531,258.3,-7.127399022,1.43,255.7,248.46,1.01,-4.43,35,0.01,3.36,3.37,90,22,496.5,16.1,-1.4,D,1468.2,7,1.193,1,0.61,128,225.36,-80.13784719,25.91276176,0,0,6,N,0.2669257,63,63,11,37,37,226.0521,0,9999.99,3.37,3.497,2,9,29.3,0,29.29999924,44.29,1553.7574,10/21/21,11:59:20,27.56,65.42,44.29,1.095,7.78,-46.3,-3.9,-4.6,-1386,86.5,5.33,13.1,
25.91276896,-80.13784092,23:05.9,10/21/21,9,0.429,258.3,-7.127399022,1.43,254.2,246.9,0.9,-5.4,35,0.01,3.29,3.3,90,23,496.5,16.1,-1.4,D,1447.5,7,1.018,1,0.55,128,218.05,-80.13784719,25.91276176,0,0,6,N,0.2669257,62,62,11,15,15,218.9724,0,9999.99,3.3,3.427,2,9,29.3,0,29.29999924,44.29,1553.7574,10/21/21,11:59:20,27.56,65.42,44.29,1.095,7.78,-46.3,-3.9,-4.6,-1386,86.5,5.33,13.1,