Latitude,Longitude,Time,Date,Number of Sats,GPS Speed (Kn),GPS True Heading,GPS Magnetic Variation,HDOP,C Magnetic Heading,C True Heading,Pitch Angle,Roll Angle,C Inside Temp (c),DFS Depth (m),DTB Height (m),Total Water Column (m),Batt Percent,Power Watts,Watt-Hours,Batt Volts,Batt Ampers,Batt State,Time to Empty,Current Step,Dist To Next (m),Next Speed (kn),Vehicle Speed (kn),Motor Speed CMD,Next Heading,Next Long,Next Lat,Next Depth (m),Depth Goal (m),Vehicle State,Error State,Distance to Track (m),Fin Pitch R,Fin Pitch L,Pitch Goal,Fin Yaw T,Fin Yaw B,Yaw Goal,Fin Roll,DVL-Depth (m),DVL -Altitude (m),DVL -Water Column (m),DVL-FixType,DVL-FixQuality,DVL-Temperature,Conductivity (mmhos/cm),Temperature (c),Salinity (ppt),Sound Speed (m/s),Date m/d/y   ,Time hh:mm:ss,Temp C,SpCond mS/cm,Sal ppt,Depth feet,pH,pH mV,Turbid+ NTU,Chl ug/L,BGA-PC cells/mL,ODOsat %,ODO mg/L,Battery volts,ROSEM Command Type
25.91277083,-80.137852,16:11.6,10/21/21,4,1.797,0,-7.12740902,2.59,93.3,87.63,1.19,-4.5,34.7,0,3.25,3.26,90,23,499.1,16.1,-1.4,D,1453.5,0,2.834,1,0,128,176.95,-80.13785049,25.91274538,0,0,1,N,2.471174,63,63,11,5,5,275.518,0,9999.99,3.26,3.387,0,0,33.8,0,33.79999924,44.62,1562.65764,10/21/21,11:52:27,27.76,65.86,44.62,1.126,7.76,-45.3,-2.8,-5.3,-1206,94.7,5.81,13.1,
25.91277233,-80.1378365,16:12.6,10/21/21,4,1.947,0,-7.12740902,2.59,94,88.29,0.86,-4.93,34.8,0.01,3.26,3.26,90,23,499.1,16.1,-1.4,D,1445.3,0,3.308,1,0,128,205.03,-80.13785049,25.91274538,0,0,1,N,3.307049,62,62,11,5,5,273.612,0,9999.99,3.27,3.397,2,9,33.7,0,33.79999924,44.62,1562.65764,10/21/21,11:52:27,27.76,65.86,44.62,1.126,7.76,-45.3,-2.8,-5.3,-1206,94.7,5.81,13.1,
25.91276864,-80.13784691,16:13.6,10/21/21,4,0.594,0,-7.12740902,2.59,92.7,87.07,2.17,-6.31,34.7,0.01,3.25,3.26,90,23,499.1,16.1,-1.4,D,1445.3,1,12.664,1,0.04,160,164.28,-80.13781261,25.91265901,0,0,1,N,1.280334,70,70,11,250,250,165.4188,0,9999.99,3.26,3.387,2,9,33.7,0,33.70000076,44.64,1562.50091,10/21/21,11:52:28,27.77,65.88,44.64,1.106,7.76,-45.2,-3.2,-4.8,-2336,94.4,5.79,13.1,
25.91276314,-80.13786483,16:14.6,10/21/21,4,1.438,0,-7.12740902,2.59,93.9,88.19,1.13,-3.48,34.7,0.01,3.25,3.26,90,23,499.1,16.1,-1.4,D,1445.3,1,12.702,1,0.07,160,155.72,-80.13781261,25.91265901,0,0,1,N,0.6132492,65,65,11,250,250,155.1617,0,9999.99,3.27,3.397,2,9,33.6,0,33.70000076,44.62,1562.48081,10/21/21,11:52:29,27.83,65.87,44.62,1.133,7.77,-45.8,-3,-3.7,-2038,94.2,5.77,13.1,
25.91276333,-80.13784824,16:15.6,10/21/21,4,1.655,0,-7.12740902,2.59,93.9,88.19,1.06,0.52,34.7,0.01,3.31,3.31,90,29,499.1,16.1,-1.8,D,1125.8,1,12.135,1,0.23,160,162.92,-80.13781261,25.91265901,0,0,1,N,0.9279757,63,63,11,250,250,163.79,0,9999.99,3.32,3.447,2,9,33.5,0,33.5,44.71,1562.21672,10/21/21,11:52:31,27.93,65.98,44.71,1.099,7.76,-45.2,-2.6,-1.4,-1952,93.8,5.73,12.9,
25.91276302,-80.13785168,16:16.6,10/21/21,4,1.658,0,-7.12740902,2.6,93.8,88.1,1.04,-2.52,34.8,0,3.36,3.36,90,29,499.1,16.1,-1.8,D,1125.8,1,12.208,1,0.4,160,161.33,-80.13781261,25.91265901,0,0,1,N,0.5881746,63,63,11,250,250,161.8132,0,9999.99,3.36,3.487,2,9,33.5,0,33.5,44.71,1562.21672,10/21/21,11:52:31,27.93,65.98,44.71,1.099,7.76,-45.2,-2.6,-1.4,-1952,93.8,5.73,12.9,
25.9127604,-80.13784837,16:17.6,10/21/21,4,0.618,0,-7.12740902,2.6,94.4,88.66,1.33,-1.43,34.8,0,3.43,3.43,90,29,499.1,16.1,-1.8,D,1125.8,1,11.828,1,0.58,160,162.4,-80.13781261,25.91265901,0,0,1,N,0.7794151,63,63,11,250,250,163.0905,0,9999.99,3.44,3.567,2,9,33.4,0,33.5,44.41,1561.90944,10/21/21,11:52:32,27.88,65.59,44.41,1.13,7.76,-45.1,-3.5,-3.3,-3025,93.5,5.73,13.1,
25.91276234,-80.13784217,16:18.6,10/21/21,4,0.156,0,-7.12740902,2.6,98.6,92.59,1.78,-2.08,34.7,0,3.44,3.45,90,29,499.1,16.1,-1.8,D,1125.8,1,11.864,1,0.73,160,165.57,-80.13781261,25.91265901,0,0,1,N,1.423544,68,68,11,250,250,166.8823,0,9999.99,3.46,3.587,2,9,33.3,0,33.29999924,44.57,1561.71478,10/21/21,11:52:34,27.65,65.79,44.57,1.106,7.75,-44.8,-3.5,-6.1,-4591,92.8,5.7,13.2,
25.91276487,-80.13784723,16:19.6,10/21/21,4,0.859,0,-7.12740902,2.6,103.8,97.44,1.88,-0.44,34.8,0.01,3.47,3.47,90,29,499,16.1,-1.8,D,1128.8,1,12.269,1,0.82,160,163.61,-80.13781261,25.91265901,0,0,1,N,1.051373,68,68,11,250,250,164.4019,0,9999.99,3.48,3.607,2,9,33.3,0,33.29999924,44.57,1561.71478,10/21/21,11:52:34,27.65,65.79,44.57,1.106,7.75,-44.8,-3.5,-6.1,-4591,92.8,5.7,13.2,
25.91276248,-80.13784411,16:20.6,10/21/21,4,1.364,0,-7.12740902,2.6,108.9,102.17,1.78,-3.57,34.8,0,3.69,3.69,90,29,499,16.1,-1.8,D,1128.8,1,11.929,1,0.93,160,164.68,-80.13781261,25.91265901,0,0,1,N,1.247163,68,68,11,250,250,165.7749,0,9999.99,3.7,3.827,2,9,33.2,0,33.29999924,44.6,1561.74557,10/21/21,11:52:35,27.58,65.82,44.6,1.102,7.74,-43.8,-3.1,-5.5,-2676,92.5,5.69,13,
25.9127629,-80.13782997,16:21.6,10/21/21,4,0.729,0,-7.12740902,2.6,115.4,108.19,2,-1.74,34.8,0,3.77,3.78,90,29,499,16.1,-1.8,D,1128.8,1,11.681,1,0.99,160,171.45,-80.13781261,25.91265901,0,0,1,N,2.57487,69,69,11,250,250,174.0721,0,9999.99,3.79,3.917,2,9,33.1,0,33.09999847,44.62,1561.40534,10/21/21,11:52:37,27.51,65.85,44.62,1.091,7.76,-44.9,-2.6,-5.8,-2530,91.9,5.66,13,
25.91276413,-80.13781841,16:22.6,10/21/21,4,0.547,0,-7.12740902,2.6,120.8,113.18,1.83,-2.74,34.7,0,3.68,3.69,90,28,499,16.1,-1.7,D,1172.7,1,11.703,1,1.02,160,177.16,-80.13781261,25.91265901,0,0,1,N,3.703043,69,69,11,250,250,181.0644,0,9999.99,3.7,3.827,2,9,33,0,33,45.11,1561.72676,10/21/21,11:52:38,27.48,66.47,45.11,1.105,7.76,-44.9,-4,-2.7,-1141,91.7,5.63,13.1,
25.91276035,-80.13781181,16:23.6,10/21/21,4,1.079,0,-7.12740902,2.6,126.4,118.36,2.21,-2.02,34.8,0,3.67,3.68,90,28,499,16.1,-1.7,D,1172.7,1,11.268,1,1.04,160,180.4,-80.13781261,25.91265901,0,0,1,N,4.172341,70,70,11,250,250,185.4099,0,9999.99,3.69,3.817,2,9,32.9,0,32.90000153,45.1,1561.53503,10/21/21,11:52:39,27.48,66.46,45.1,1.102,7.76,-45.1,-2.3,-4.2,-1401,91.4,5.61,13,
25.91275658,-80.13780834,16:24.6,10/21/21,4,1.202,0,-7.12740902,2.6,132.3,123.84,1.93,-2.33,34.8,0,3.76,3.76,90,28,499,16.1,-1.7,D,1172.7,1,10.857,1,1.05,160,182.26,-80.13781261,25.91265901,0,0,1,N,4.345194,69,69,11,250,250,186.9731,0,9999.99,3.78,3.907,2,9,32.8,0,32.90000153,45.1,1561.53503,10/21/21,11:52:39,27.48,66.46,45.1,1.102,7.76,-45.1,-2.3,-4.2,-1401,91.4,5.61,13,
25.91275452,-80.13780322,16:25.6,10/21/21,4,1.137,0,-7.12740902,2.6,137.2,128.4,1.79,-1.73,34.8,0,3.79,3.8,90,28,499,16.1,-1.7,D,1172.7,1,10.661,1,1.04,160,185.05,-80.13781261,25.91265901,0,0,1,N,4.737063,68,68,11,250,250,189.1048,0,9999.99,3.81,3.937,2,9,32.7,0,32.70000076,45.12,1561.19093,10/21/21,11:52:40,27.47,66.49,45.12,1.085,7.74,-44,-3.5,-5.2,-3464,91.1,5.59,13,
25.91274864,-80.13780722,16:26.9,10/21/21,4,1.011,0,-7.12740902,2.6,144.8,135.53,1.72,-2.12,34.8,0,3.79,3.79,90,29,499,16.1,-1.8,D,1146.1,1,9.98,1,1.05,160,183.1,-80.13781261,25.91265901,0,0,1,N,4.039109,69,69,11,250,250,185.2655,0,9999.99,3.81,3.937,2,9,32.6,0,32.59999847,45.08,1560.96642,10/21/21,11:52:42,27.48,66.44,45.08,1.099,7.78,-46.1,-3.3,-4.8,-4171,90.7,5.57,13.1,
25.91274416,-80.13780292,16:28.0,10/21/21,4,1.101,0,-7.12740902,2.61,150,140.45,2.12,-2.17,34.8,0,3.8,3.81,90,28,499,16.1,-1.7,D,1172.6,1,9.518,1,1.04,160,185.85,-80.13781261,25.91265901,0,0,1,N,4.357701,70,70,11,250,250,187.0496,0,9999.99,3.82,3.947,2,9,32.5,0,32.59999847,45.08,1560.96642,10/21/21,11:52:42,27.48,66.44,45.08,1.099,7.78,-46.1,-3.3,-4.8,-4171,90.7,5.57,13.1,
25.91274238,-80.13779647,16:29.0,10/21/21,4,1.1,0,-7.12740902,2.61,155,145.22,2.13,-1.45,34.8,0,3.79,3.79,90,28,499,16.1,-1.7,D,1172.6,1,9.409,1,1.05,160,189.88,-80.13781261,25.91265901,0,0,1,N,4.886251,70,70,11,250,250,189.8877,0,9999.99,3.81,3.937,2,9,32.4,0,32.5,45.09,1560.79301,10/21/21,11:52:43,27.48,66.45,45.09,1.084,7.75,-44.9,-3,-3.2,-3584,90.6,5.57,13.1,
25.91273869,-80.13779321,16:30.1,10/21/21,4,1.069,0,-7.12740902,2.61,160.6,150.61,2.17,-2.04,34.8,0,3.78,3.78,90,28,499,16.1,-1.7,D,1172.6,1,9.07,1,1,160,192.35,-80.13781261,25.91265901,0,0,1,N,5.044312,70,70,11,250,250,190.7051,0,9999.99,3.8,3.927,2,9,32.3,0,32.40000153,45.05,1560.56762,10/21/21,11:52:45,27.48,66.4,45.05,1.088,7.75,-44.9,-2.9,-4,-1922,90.2,5.54,13,
25.91273493,-80.13778911,16:31.1,10/21/21,4,1.168,0,-7.12740902,2.61,165.8,155.66,2.12,-1.41,34.9,0,3.76,3.77,90,28,499,16.1,-1.7,D,1172.6,1,8.763,1,1.01,160,195.56,-80.13781261,25.91265901,0,0,1,N,5.278358,70,70,11,250,250,191.8877,0,9999.99,3.78,3.907,2,9,32.2,0,32.29999924,45.07,1560.40333,10/21/21,11:52:46,27.48,66.43,45.07,1.084,7.75,-44.7,-3.2,1.6,-884,89.9,5.52,13,
25.91272992,-80.13778784,16:32.1,10/21/21,4,1.072,0,-7.12740902,2.61,171.8,161.54,1.78,-1.64,34.9,0,3.7,3.71,90,29,499,16.1,-1.7,D,1154.9,1,8.265,1,1.01,160,197.44,-80.13781261,25.91265901,0,0,1,N,5.199708,68,68,11,248,248,191.4946,0,9999.99,3.72,3.847,2,9,32.1,0,32.20000076,45.06,1560.20749,10/21/21,11:52:47,27.47,66.41,45.06,1.082,7.74,-43.9,-3.4,-2.4,-1527,89.8,5.52,13,
25.91272581,-80.13778617,16:33.1,10/21/21,4,0.934,0,-7.12740902,2.61,176.8,166.5,2.12,-2.08,34.9,0,3.74,3.74,90,28,499,16.1,-1.7,D,1159.4,1,7.884,1,1.04,160,199.6,-80.13781261,25.91265901,0,0,1,N,5.196577,70,70,11,227,227,191.4788,0,9999.99,3.76,3.887,2,9,32.1,0,32.09999847,45.03,1559.99032,10/21/21,11:52:48,27.46,66.37,45.03,1.082,7.75,-44.9,-4,-2.4,-2967,89.6,5.51,13.1,
25.91272172,-80.13778607,16:34.1,10/21/21,4,0.841,0,-7.12740902,2.61,181.2,170.9,1.65,-3.08,34.9,0,3.75,3.75,90,28,499,16.1,-1.7,D,1159.4,1,7.46,1,1.02,160,200.84,-80.13781261,25.91265901,0,0,1,N,5.043175,67,67,11,206,206,190.6993,0,9999.99,3.76,3.887,2,9,32,0,32.09999847,45.04,1560.00046,10/21/21,11:52:49,27.45,66.39,45.04,1.084,7.76,-45,-4.5,-2.1,-1801,89.5,5.5,13.1,
25.91271683,-80.13778667,16:35.1,10/21/21,4,1.215,0,-7.12740902,2.61,186.4,176.14,1.59,-3.06,34.9,0,3.73,3.73,90,28,499,16.1,-1.7,D,1159.4,2,11.767,1,1.04,160,140.99,-80.13771217,25.91263518,0,0,1,N,7.008597,68,68,11,6,6,146.002,0,9999.99,3.75,3.877,2,9,32,0,32,45.02,1559.79301,10/21/21,11:52:50,27.45,66.37,45.02,1.098,7.76,-45.1,-3.1,-5.7,-1952,89.3,5.49,13,
25.91271029,-80.13778896,16:36.1,10/21/21,4,0.801,0,-7.12740902,2.61,185.6,175.33,0.97,-7.61,34.9,0,3.74,3.74,90,28,499,16.1,-1.7,D,1159.4,2,11.346,1,1.07,160,137.4,-80.13771217,25.91263518,0,0,1,N,6.371261,63,63,11,5,5,143.571,0,9999.99,3.75,3.877,2,9,31.9,0,31.89999962,45.01,1559.59535,10/21/21,11:52:51,27.45,66.35,45.01,1.08,7.75,-44.4,-3.5,-1.5,-2020,89.2,5.48,13,
25.912706,-80.13779033,16:37.1,10/21/21,4,0.877,0,-7.12740902,2.61,180.9,170.6,0.86,-0.47,34.9,0,3.7,3.7,90,30,499,16.1,-1.8,D,1111,2,10.912,1,1.09,160,135.7,-80.13771217,25.91263518,0,0,1,N,5.671858,62,62,11,5,5,140.1164,0,9999.99,3.71,3.837,2,9,31.9,0,31.89999962,45.02,1559.60587,10/21/21,11:52:52,27.44,66.36,45.02,1.087,7.76,-45.1,-3.8,0.6,-4221,89.2,5.48,13.1,
25.912701,-80.13779067,16:38.1,10/21/21,4,1.457,155.51,-7.12740902,2.62,174.3,164.01,1.45,-2.11,34.9,0,3.68,3.68,90,30,499,16.1,-1.8,D,1111,2,10.626,1,1.12,160,133.56,-80.13771217,25.91263518,0,0,1,N,5.178556,66,66,11,16,16,137.6949,0,9999.99,3.69,3.817,2,9,31.8,0,31.89999962,44.99,1559.57499,10/21/21,11:52:53,27.44,66.33,44.99,1.107,7.77,-45.5,-3,-4.9,-3713,89,5.47,13,
25.91269513,-80.13779009,16:39.1,10/21/21,4,1.414,155.51,-7.12740902,2.62,169.4,159.18,1.77,-2.09,34.9,0,3.67,3.67,90,30,499,16.1,-1.8,D,1111,2,10.256,1,1.14,160,130.54,-80.13771217,25.91263518,0,0,1,N,4.639128,68,68,11,33,33,135.6225,0,9999.99,3.68,3.807,2,9,31.8,0,31.79999924,45,1559.39734,10/21/21,11:52:54,27.44,66.34,45,1.09,7.76,-45,-3.3,-1,-3078,88.9,5.47,13.1,
25.91269009,-80.13778915,16:40.2,10/21/21,4,0.937,155.51,-7.12740902,2.62,162.7,152.64,1.68,-1.05,34.9,0,3.67,3.67,90,30,499,16.1,-1.8,D,1111,2,9.826,1,1.14,160,128.42,-80.13771217,25.91263518,0,0,1,N,4.05377,67,67,11,43,43,131.5677,0,9999.99,3.68,3.807,2,9,31.7,0,31.79999924,44.97,1559.36623,10/21/21,11:52:55,27.44,66.3,44.97,1.099,7.76,-44.9,-4.1,-4.3,-3388,88.8,5.46,12.8,
25.91268545,-80.13778673,16:41.2,10/21/21,4,1.032,155.51,-7.12740902,2.62,155.4,145.6,1.41,-1.1,34.9,0,3.66,3.66,90,30,498.9,16.1,-1.8,D,1117.6,2,9.32,1,1.16,160,126.86,-80.13771217,25.91263518,0,0,1,N,3.591083,65,65,11,60,60,128.809,0,9999.99,3.67,3.797,2,9,31.7,0,31.70000076,45.06,1559.2707,10/21/21,11:52:56,27.43,66.41,45.06,1.078,7.75,-44.8,-3.6,-5.7,-843,88.6,5.45,13.1,
25.91268121,-80.13778373,16:42.2,10/21/21,4,1.276,155.51,-7.12740902,2.62,150.9,141.31,1.54,-0.64,34.9,0,3.67,3.67,90,30,498.9,16.1,-1.8,D,1117.6,2,8.799,1,1.18,160,125.57,-80.13771217,25.91263518,0,0,1,N,3.190451,66,66,11,67,67,126.3843,0,9999.99,3.68,3.807,2,9,31.7,0,31.70000076,45.06,1559.27067,10/21/21,11:52:57,27.42,66.41,45.06,1.099,7.75,-44.6,-4,-7,-4605,88.6,5.45,13.1,
25.91267623,-80.13778003,16:43.2,10/21/21,4,1.391,155.51,-7.12740902,2.62,146.9,137.52,1.04,-1.19,34.9,0,3.67,3.67,90,30,498.9,16.1,-1.8,D,1117.6,2,8.179,1,1.2,160,123.92,-80.13771217,25.91263518,0,0,1,N,2.837869,63,63,11,71,71,123.6352,0,9999.99,3.68,3.807,2,9,31.6,0,31.70000076,45.09,1559.30195,10/21/21,11:52:58,27.42,66.45,45.09,1.093,7.76,-45,-3.1,-3.5,-2090,88.5,5.44,13.2,
25.91267069,-80.13777641,16:44.2,10/21/21,4,1.302,155.51,-7.12740902,2.62,142.4,133.27,1.13,-1.42,34.9,0,3.69,3.69,90,29,498.9,16.1,-1.8,D,1138.3,2,7.541,1,1.24,159,121.57,-80.13771217,25.91263518,0,0,1,N,2.391009,64,64,11,75,75,120.3247,0,9999.99,3.7,3.827,2,9,31.6,0,31.60000038,45.09,1559.11263,10/21/21,11:52:59,27.41,66.45,45.09,1.114,7.76,-44.9,-4.1,-5.6,-3362,88.4,5.44,12.8,
25.91266672,-80.1377717,16:45.2,10/21/21,4,1.342,155.51,-7.12740902,2.62,138.2,129.34,1.14,-1.41,34.9,0,3.69,3.69,90,29,498.9,16.1,-1.8,D,1138.3,2,6.91,1,1.25,159,120.5,-80.13771217,25.91263518,0,0,1,N,1.943243,64,64,11,82,82,118.1745,0,9999.99,3.7,3.827,2,9,31.5,0,31.60000038,45.08,1559.10225,10/21/21,11:53:00,27.42,66.44,45.08,1.09,7.76,-45,-4,-3.3,-3022,88.3,5.43,13.1,
25.91266277,-80.13776517,16:46.2,10/21/21,4,1.295,155.51,-7.12740902,2.62,134.6,125.98,0.98,-1.22,35,0,3.7,3.7,90,29,498.9,16.1,-1.8,D,1138.3,2,6.125,1,1.26,159,120.06,-80.13771217,25.91263518,0,0,1,N,1.638983,63,63,11,86,86,116.3552,0,9999.99,3.71,3.837,2,9,31.5,0,31.5,45.08,1558.91258,10/21/21,11:53:01,27.41,66.43,45.08,1.076,7.75,-44.5,-2.7,-3.2,-1183,88.2,5.43,13.1,
25.91265908,-80.13775945,16:47.3,10/21/21,4,1.335,155.51,-7.12740902,2.63,131.9,123.47,0.83,-1.58,34.9,0,3.71,3.71,90,29,498.9,16.1,-1.8,D,1138.3,3,14.36,1,1.26,159,79.4,-80.13761832,25.91268284,0,0,1,N,4.709527,62,62,11,5,5,85.88566,0,9999.99,3.72,3.847,2,9,31.5,0,31.5,45.06,1558.89187,10/21/21,11:53:02,27.41,66.42,45.06,1.084,7.76,-45.2,-3.1,-0.5,-4969,88.2,5.42,13,
25.91265535,-80.13775417,16:48.3,10/21/21,4,1.231,155.51,-7.12740902,2.63,126.4,118.36,0.92,-5.31,34.9,0,3.72,3.72,90,28,498.9,16.1,-1.7,D,1158.6,3,13.927,1,1.29,158,77.32,-80.13761832,25.91268284,0,0,1,N,4.086406,63,63,11,5,5,83.28355,0,9999.99,3.73,3.857,2,9,31.4,0,31.5,45.05,1558.88151,10/21/21,11:53:03,27.41,66.4,45.05,1.092,7.77,-45.9,-3.4,-1.8,-1401,88.1,5.42,13,
25.91265311,-80.13774783,16:49.2,10/21/21,4,1.837,127.48,-7.12740902,2.63,119.8,112.26,1.54,-0.79,35,0,3.76,3.76,90,28,498.9,16.1,-1.7,D,1158.6,3,13.368,1,1.27,158,75.68,-80.13761832,25.91268284,0,0,1,N,3.571288,66,66,11,5,5,81.17963,0,9999.99,3.77,3.897,2,9,31.4,0,31.39999962,45.05,1558.69129,10/21/21,11:53:04,27.41,66.4,45.05,1.091,7.76,-45.1,-3.2,-9,915,88,5.41,13.1,
25.91265187,-80.13774099,16:50.3,10/21/21,4,1.333,127.48,-7.12740902,2.63,113.2,106.15,1.99,-3.31,34.9,0,3.77,3.78,90,28,498.9,16.1,-1.7,D,1158.6,3,12.744,1,1.23,158,74.32,-80.13761832,25.91268284,0,0,1,N,3.080353,69,69,11,11,11,77.90845,0,9999.99,3.79,3.917,2,9,31.4,0,31.39999962,45.06,1558.70168,10/21/21,11:53:05,27.41,66.41,45.06,1.076,7.76,-45.1,-3.4,-7.4,-1483,87.9,5.4,13.1,
25.91265107,-80.13773606,16:51.3,10/21/21,4,0.94,127.48,-7.12740902,2.63,106.7,100.13,1.99,-2.22,34.9,0,3.78,3.79,90,28,498.9,16.1,-1.7,D,1159.8,3,12.295,1,1.21,158,73.3,-80.13761832,25.91268284,0,0,1,N,2.692036,68,68,11,29,29,76.74594,0,9999.99,3.8,3.927,2,9,31.4,0,31.39999962,45.04,1558.68129,10/21/21,11:53:06,27.41,66.39,45.04,1.069,7.76,-45.2,-3.3,-3.9,-1766,87.9,5.41,13.1,
25.9126508,-80.13772957,16:52.3,10/21/21,4,1.055,127.48,-7.12740902,2.63,101.3,95.11,1.81,-2.54,35,0,3.8,3.81,90,28,498.9,16.1,-1.7,D,1159.8,3,11.683,1,1.19,158,72.25,-80.13761832,25.91268284,0,0,1,N,2.410104,68,68,11,50,50,75.81686,0,9999.99,3.82,3.947,2,9,31.3,0,31.29999924,45.05,1558.50063,10/21/21,11:53:07,27.41,66.4,45.05,1.064,7.75,-44.6,-4,-3.3,1719,87.9,5.4,12.8,
25.91264904,-80.13772535,16:53.3,10/21/21,4,1.317,113.01,-7.12740902,2.63,95.2,89.41,1.73,-1.83,35,0,3.8,3.81,90,28,498.9,16.1,-1.7,D,1159.8,3,11.346,1,1.17,158,70.65,-80.13761832,25.91268284,0,0,1,N,2.094827,67,67,11,53,53,74.96339,0,9999.99,3.82,3.947,2,9,31.3,0,31.29999924,45.02,1558.46957,10/21/21,11:53:08,27.42,66.36,45.02,1.075,7.76,-45.2,-3.7,-6.2,-2533,87.7,5.4,13.2,
25.91264792,-80.13771926,16:54.3,10/21/21,4,1.326,98.11,-7.12740902,2.63,91.4,85.85,1.28,-1.67,35,0,3.82,3.82,90,28,498.9,16.1,-1.7,D,1159.8,3,10.817,1,1.16,158,68.96,-80.13761832,25.91268284,0,0,1,N,1.776807,65,65,11,64,64,73.24424,0,9999.99,3.83,3.957,2,9,31.3,0,31.29999924,45,1558.44882,10/21/21,11:53:09,27.42,66.34,45,1.068,7.77,-46,-3.1,-6.4,45,87.6,5.39,13.1,
25.9126483,-80.13771194,16:55.3,10/21/21,4,1.134,98.11,-7.12740902,2.63,87.2,81.88,1.39,-1.83,35,0,3.84,3.84,90,28,498.9,16.1,-1.7,D,1176.8,3,10.12,1,1.16,157,67.7,-80.13761832,25.91268284,0,0,1,N,1.404482,65,65,11,79,79,69.86056,0,9999.99,3.85,3.977,2,9,31.3,0,31.29999924,45.01,1558.45891,10/21/21,11:53:10,27.42,66.35,45.01,1.072,7.76,-45.1,-2.8,-2.7,-4618,87.4,5.38,13.2,
25.91264982,-80.13770469,16:56.3,10/21/21,4,0.983,98.11,-7.12740902,2.64,83.4,78.28,1.13,-1.85,35,0,3.86,3.86,90,28,498.9,16.1,-1.7,D,1176.8,3,9.387,1,1.19,157,66.98,-80.13761832,25.91268284,0,0,1,N,1.115826,64,64,11,84,84,68.16168,0,9999.99,3.87,3.997,2,9,31.2,0,31.29999924,45.01,1558.45898,10/21/21,11:53:11,27.41,66.34,45.01,1.071,7.76,-45.1,-4.5,-3.6,-1429,87.4,5.38,12.9,
25.91265068,-80.13769837,16:57.3,10/21/21,4,1.505,82.7,-7.12740902,2.64,79.8,74.85,1.25,-2.12,35,0,3.87,3.87,90,28,498.9,16.1,-1.7,D,1176.8,3,8.769,1,1.18,157,65.93,-80.13761832,25.91268284,0,0,1,N,0.9364886,65,65,11,91,91,66.52883,0,9999.99,3.88,4.007,2,9,31.2,0,31.20000076,44.98,1558.23637,10/21/21,11:53:12,27.41,66.3,44.98,1.075,7.76,-45,-3.3,-4.6,-1324,87.4,5.38,13.1,
25.91265265,-80.13769156,16:58.3,10/21/21,4,1.375,73.96,-7.12740902,2.64,77.3,72.45,1.12,-2.08,35,0,3.88,3.88,90,27,498.8,16.1,-1.7,D,1209.7,3,8.057,1,1.2,157,65.38,-80.13761832,25.91268284,0,0,1,N,0.6902437,64,64,11,99,99,65.48227,0,9999.99,3.89,4.017,2,9,31.2,0,31.20000076,44.97,1558.22591,10/21/21,11:53:13,27.41,66.29,44.97,1.078,7.75,-44.6,-3.4,-3.5,-4148,87.4,5.37,13.1,
25.91265606,-80.13768362,16:59.3,10/21/21,4,0.946,73.96,-7.12740902,2.64,74.3,69.57,1.08,-1.97,35.1,0,3.88,3.88,90,27,498.8,16.1,-1.7,D,1209.7,3,7.178,1,1.22,157,65.49,-80.13761832,25.91268284,0,0,1,N,0.629348,63,63,11,107,107,65.0488,0,9999.99,3.89,4.017,2,9,31.2,0,31.20000076,44.98,1558.2363,10/21/21,11:53:14,27.4,66.3,44.98,1.082,7.76,-45.2,-4,-2,-2135,87.3,5.37,13.2,
25.91265887,-80.13767791,17:00.3,10/21/21,4,0.963,71.69,-7.12740902,2.64,72.6,67.93,1.03,-1.16,35.1,0,3.86,3.86,90,27,498.8,16.1,-1.7,D,1209.7,3,6.53,1,1.23,157,65.9,-80.13761832,25.91268284,0,0,1,N,0.6144993,63,63,11,114,114,64.94335,0,9999.99,3.87,3.997,2,9,31.1,0,31.10000038,44.96,1558.02346,10/21/21,11:53:15,27.4,66.28,44.96,1.076,7.76,-45.1,-3.8,-3.8,-3318,87.3,5.37,12.9,
25.91266066,-80.13767262,17:01.3,10/21/21,4,1.435,66.58,-7.12740902,2.64,70.5,65.89,1.01,-1.18,35.1,0,3.87,3.87,90,27,498.8,16.1,-1.7,D,1209.7,4,14.197,1,1.25,156,29.14,-80.1376035,25.91277218,0,0,1,N,0.58191,63,63,11,45,45,45.70581,0,9999.99,3.88,4.007,2,9,31.1,0,31.10000038,44.94,1558.00264,10/21/21,11:53:17,27.39,66.26,44.94,1.086,7.76,-45.3,-3.2,-3.6,-4645,87.4,5.38,13.1,
25.91266386,-80.13766628,17:02.3,10/21/21,4,1.517,62.37,-7.12740902,2.64,69,64.44,0.65,-5.35,35.1,0,3.87,3.87,90,27,498.8,16.1,-1.7,D,1207.5,4,13.583,1,1.28,156,27.53,-80.1376035,25.91277218,0,0,1,N,4.554348,61,61,11,5,5,33.23151,0,9999.99,3.88,4.007,2,9,31.1,0,31.10000038,44.94,1558.00264,10/21/21,11:53:17,27.39,66.26,44.94,1.086,7.76,-45.3,-3.2,-3.6,-4645,87.4,5.38,13.1,
25.91266692,-80.13766018,17:03.3,10/21/21,4,1.087,62.6,-7.12740902,2.64,61.2,56.81,1.29,-1.53,35.2,0,3.86,3.86,90,27,498.8,16.1,-1.7,D,1207.5,4,13.005,1,1.25,156,25.84,-80.1376035,25.91277218,0,0,1,N,3.995723,65,65,11,19,19,31.1178,0,9999.99,3.87,3.997,2,9,31.1,0,31.10000038,44.94,1558.00265,10/21/21,11:53:18,27.39,66.25,44.94,1.084,7.77,-46,-3.1,-10,-533,87.4,5.38,13.1,
25.91267065,-80.13765465,17:04.3,10/21/21,4,0.772,62.6,-7.12740902,2.64,56.4,52.08,1.5,-3.88,35.2,0,3.85,3.85,90,27,498.8,16.1,-1.7,D,1207.5,4,12.394,1,1.22,156,24.38,-80.1376035,25.91277218,0,0,1,N,3.437002,66,66,11,28,28,27.2628,0,9999.99,3.86,3.987,2,9,31.1,0,31.10000038,44.94,1558.00278,10/21/21,11:53:19,27.39,66.25,44.94,1.083,7.76,-45.3,-3.8,-2.8,-1511,87.2,5.37,13,
25.91267554,-80.13764981,17:05.3,10/21/21,4,1.238,52.77,-7.12740902,2.64,49.7,45.42,1.64,-3.35,35.2,0,3.85,3.85,90,28,498.8,16.1,-1.7,D,1190.8,4,11.702,1,1.2,156,23.32,-80.1376035,25.91277218,0,0,1,N,3.036897,67,67,11,50,50,26.2753,0,9999.99,3.86,3.987,2,9,31,0,31.10000038,44.91,1557.9718,10/21/21,11:53:20,27.39,66.22,44.91,1.076,7.76,-45.3,-4,-7.9,-3415,87.3,5.37,13.1,
25.91267972,-80.13764524,17:06.3,10/21/21,4,1.532,47.73,-7.12740902,2.65,46.5,42.21,1.45,-1.52,35.2,0,3.81,3.82,90,28,498.8,16.1,-1.7,D,1190.8,4,11.097,1,1.16,155,22.1,-80.1376035,25.91277218,0,0,1,N,2.648973,67,67,11,57,57,25.07834,0,9999.99,3.83,3.957,2,9,31,0,31,44.92,1557.78939,10/21/21,11:53:21,27.4,66.23,44.92,1.072,7.76,-45.2,-3.6,-4.3,-4825,87.3,5.37,13.1,
25.91268478,-80.13764064,17:07.3,10/21/21,4,1.232,44.55,-7.12740902,2.65,41.5,37.19,1.45,-0.62,35.2,0,3.8,3.8,90,28,498.8,16.1,-1.7,D,1190.8,4,10.404,1,1.13,155,20.92,-80.1376035,25.91277218,0,0,1,N,2.266026,66,66,11,74,74,23.94944,0,9999.99,3.81,3.937,2,9,31,0,31,44.9,1557.76849,10/21/21,11:53:22,27.4,66.2,44.9,1.056,7.75,-44.3,-5,-3.4,-3181,87.3,5.37,13.1,
25.91268984,-80.13763694,17:08.4,10/21/21,4,0.872,44.55,-7.12740902,2.65,37,32.64,1.45,-2.48,35.2,0,3.78,3.78,90,28,498.8,16.1,-1.7,D,1190.8,4,9.748,1,1.15,155,20.07,-80.1376035,25.91277218,0,0,1,N,1.982338,66,66,11,86,86,22.40365,0,9999.99,3.79,3.917,2,9,31,0,31,44.9,1557.76835,10/21/21,11:53:23,27.4,66.2,44.9,1.069,7.76,-45.3,-3.1,-7,-1584,87.3,5.37,13,
25.91269435,-80.13763438,17:09.4,10/21/21,4,1.105,36.62,-7.12740902,2.65,34.2,29.81,1.08,-1.44,35.1,0,3.77,3.77,90,27,498.8,16.1,-1.7,D,1213.7,4,9.189,1,1.13,155,19.64,-80.1376035,25.91277218,0,0,1,N,1.798647,64,64,11,90,90,21.1538,0,9999.99,3.78,3.907,2,9,31,0,31,44.89,1557.75796,10/21/21,11:53:24,27.4,66.19,44.89,1.077,7.76,-45.3,-3.7,-2,-2617,87.3,5.37,13.1,
25.91269933,-80.13763214,17:10.4,10/21/21,4,1.574,31.26,-7.12740902,2.65,31.1,26.66,1.35,-2.11,35.1,0,3.68,3.68,90,27,498.8,16.1,-1.7,D,1213.7,4,8.593,1,1.15,155,19.47,-80.1376035,25.91277218,0,0,1,N,1.652644,65,65,11,101,101,20.15861,0,9999.99,3.69,3.817,2,9,30.9,0,30.89999962,44.89,1557.56457,10/21/21,11:53:25,27.41,66.2,44.89,1.073,7.77,-45.6,-4.1,-3.6,-2706,87.3,5.37,13.1,
25.91270504,-80.13762933,17:11.4,10/21/21,4,1.563,29.03,-7.12740902,2.65,29.5,25.03,1.37,-1.4,35.1,0,3.55,3.55,90,27,498.8,16.1,-1.7,D,1213.7,4,7.9,1,1.19,155,19.09,-80.1376035,25.91277218,0,0,1,N,1.46719,65,65,11,102,102,18.87767,0,9999.99,3.56,3.687,2,9,30.9,0,30.89999962,44.88,1557.55418,10/21/21,11:53:27,27.41,66.18,44.88,1.087,7.78,-46.1,-2.5,-0.5,-3696,87.6,5.39,12.9,
25.91271231,-80.13762596,17:12.4,10/21/21,4,1.044,29.03,-7.12740902,2.65,26.8,22.28,1.2,-2.03,35.2,0,3.69,3.69,90,26,498.7,16.1,-1.6,D,1247.9,4,7.026,1,1.2,155,18.65,-80.1376035,25.91277218,0,0,1,N,1.251876,64,64,11,107,107,17.37948,0,9999.99,3.7,3.827,2,9,30.9,0,30.89999962,44.88,1557.55418,10/21/21,11:53:27,27.41,66.18,44.88,1.087,7.78,-46.1,-2.5,-0.5,-3696,87.6,5.39,12.9,
25.91271783,-80.13762418,17:13.4,10/21/21,4,0.962,29.03,-7.12740902,2.65,24.4,19.83,1.04,-3.04,35.2,0,3.59,3.59,90,26,498.7,16.1,-1.6,D,1247.9,4,6.388,1,1.19,155,18.89,-80.1376035,25.91277218,0,0,1,N,1.16347,63,63,11,115,115,16.75979,0,9999.99,3.6,3.727,2,9,30.9,0,30.89999962,44.86,1557.5334,10/21/21,11:53:28,27.41,66.16,44.86,1.08,7.77,-45.5,-3.5,-8.1,-4967,87.7,5.4,13.1,
25.91272253,-80.13762343,17:14.4,10/21/21,4,1.232,29.03,-7.12740902,2.65,23.2,18.61,1.31,-3.77,35.1,0,3.52,3.52,90,26,498.7,16.1,-1.6,D,1247.9,5,12.075,1,1.16,155,318.18,-80.13770394,25.91280345,0,0,1,N,5.935607,65,65,11,5,5,325.6299,0,9999.99,3.53,3.657,2,9,30.9,0,30.89999962,44.86,1557.5334,10/21/21,11:53:30,27.41,66.16,44.86,1.078,7.76,-45.4,-2.9,-3.6,-2371,87.7,5.4,13.1,
25.912728,-80.13762283,17:15.4,10/21/21,4,1.425,23.36,-7.12740902,2.65,20.5,15.85,1.19,-3.75,35.2,0,3.5,3.5,90,26,498.7,16.1,-1.6,D,1247.9,5,11.67,1,1.18,155,315.97,-80.13770394,25.91280345,0,0,1,N,5.35078,64,64,11,5,5,322.8575,0,9999.99,3.51,3.637,2,9,30.9,0,30.89999962,44.86,1557.5334,10/21/21,11:53:30,27.41,66.16,44.86,1.078,7.76,-45.4,-2.9,-3.6,-2371,87.7,5.4,13.1,
25.9127341,-80.13762205,17:16.4,10/21/21,4,1.317,18.96,-7.12740902,2.66,13.6,8.79,1.44,-1.69,35.1,0,3.34,3.34,90,27,498.7,16.1,-1.6,D,1226.5,5,11.249,1,1.17,155,313.27,-80.13770394,25.91280345,0,0,1,N,4.681513,66,66,11,5,5,319.4142,0,9999.99,3.35,3.477,2,9,30.8,0,30.89999962,44.87,1557.54379,10/21/21,11:53:31,27.41,66.16,44.87,1.067,7.76,-45.1,-2.8,-3.6,-3452,87.7,5.4,12.9,
25.91273975,-80.1376211,17:17.5,10/21/21,4,0.993,18.96,-7.12740902,2.66,7.1,2.14,1.43,-2.12,35.1,0,3.38,3.38,90,27,498.7,16.1,-1.6,D,1226.5,5,10.899,1,1.15,155,310.53,-80.13770394,25.91280345,0,0,1,N,4.044842,64,64,11,5,5,315.9156,0,9999.99,3.39,3.517,2,9,30.8,0,30.79999924,44.84,1557.31868,10/21/21,11:53:33,27.41,66.13,44.84,1.074,7.77,-45.5,-3.5,-3.6,-2661,87.8,5.4,13.1,
25.91274387,-80.13762186,17:18.5,10/21/21,4,1.02,18.96,-7.12740902,2.66,1.8,356.72,1.76,-3.87,35.2,0,2.75,2.76,90,27,498.7,16.1,-1.6,D,1226.5,5,10.549,1,1.12,155,308.9,-80.13770394,25.91280345,0,0,1,N,3.632362,68,68,11,5,5,313.5134,0,9999.99,2.77,2.897,2,9,30.8,0,30.79999924,44.84,1557.31868,10/21/21,11:53:33,27.41,66.13,44.84,1.074,7.77,-45.5,-3.5,-3.6,-2661,87.8,5.4,13.1,
25.91274803,-80.13762329,17:19.5,10/21/21,4,1.308,10.8,-7.12740902,2.66,355.6,350.38,1.64,-3.34,35.2,0,3.25,3.26,90,26,498.7,16.1,-1.6,D,1245.6,5,10.15,1,1.1,154,307.38,-80.13770394,25.91280345,0,0,1,N,3.244445,67,67,11,5,5,311.1675,0,9999.99,3.27,3.397,2,9,30.8,0,30.79999924,44.84,1557.31895,10/21/21,11:53:34,27.41,66.12,44.84,1.073,7.77,-45.6,-3.9,-7.2,-4369,87.8,5.4,13.1,
25.91275373,-80.13762431,17:20.5,10/21/21,4,1.223,4.53,-7.12740902,2.66,349.7,344.36,1.89,-2.34,35.2,0,3.22,3.23,90,26,498.7,16.1,-1.6,D,1245.6,5,9.695,1,1.17,154,304.77,-80.13770394,25.91280345,0,0,1,N,2.675989,68,68,11,5,5,307.5862,0,9999.99,3.24,3.367,2,9,30.8,0,30.79999924,44.82,1557.29801,10/21/21,11:53:35,27.42,66.11,44.82,1.062,7.77,-45.7,-2.8,0.1,-4222,87.9,5.41,13,
25.91275919,-80.13762586,17:21.5,10/21/21,4,0.946,4.53,-7.12740902,2.66,342.4,336.92,1.93,-2.89,35.2,0,3.18,3.19,90,26,498.7,16.1,-1.6,D,1245.6,5,9.231,1,1.12,154,302.22,-80.13770394,25.91280345,0,0,1,N,2.139417,69,69,11,5,5,304.064,0,9999.99,3.2,3.327,2,9,30.8,0,30.79999924,44.83,1557.30852,10/21/21,11:53:36,27.42,66.11,44.83,1.049,7.76,-45,-3.6,1.6,-2383,88.1,5.42,13.1,
25.91276431,-80.13762883,17:22.5,10/21/21,4,0.965,4.53,-7.12740902,2.66,336.1,330.52,1.88,-3.2,35.2,0,3.16,3.16,90,26,498.7,16.1,-1.6,D,1245.6,5,8.682,1,1.1,154,300.09,-80.13770394,25.91280345,0,0,1,N,1.69975,68,68,11,6,6,301.0878,0,9999.99,3.17,3.297,2,9,30.8,0,30.79999924,44.82,1557.29807,10/21/21,11:53:38,27.42,66.11,44.82,1.071,7.77,-45.8,-3.4,-0.4,-2475,88.2,5.43,13,
25.91276864,-80.13763197,17:23.6,10/21/21,4,1.152,4.53,-7.12740902,2.66,329.9,324.23,1.69,-3.72,35.2,0,3.18,3.19,90,27,498.7,16.1,-1.6,D,1239.6,5,8.172,1,1.06,154,298.27,-80.13770394,25.91280345,0,0,1,N,1.340362,67,67,11,20,20,298.6042,0,9999.99,3.2,3.327,2,9,30.8,0,30.79999924,44.81,1557.28747,10/21/21,11:53:39,27.42,66.09,44.81,1.067,7.77,-45.6,-3.5,-0.9,-2323,88.3,5.44,13.1,
25.91277264,-80.13763597,17:24.6,10/21/21,4,1.29,4.53,-7.12740902,2.66,324,318.26,1.67,-2.87,35.2,0,3.16,3.16,90,27,498.7,16.1,-1.6,D,1239.6,5,7.613,1,1.05,154,296.75,-80.13770394,25.91280345,0,0,1,N,1.041539,67,67,11,40,40,296.5106,0,9999.99,3.18,3.307,2,9,30.8,0,30.79999924,44.79,1557.26664,10/21/21,11:53:40,27.42,66.07,44.79,1.052,7.77,-45.6,-4.3,-2.9,-2039,88.3,5.44,13.1,
25.91277645,-80.1376394,17:25.6,10/21/21,4,1.022,4.53,-7.12740902,2.67,318.6,312.8,1.92,-2.29,35.2,0,3.31,3.31,90,27,498.7,16.1,-1.6,D,1239.6,5,7.12,1,1.05,154,294.94,-80.13770394,25.91280345,0,0,1,N,0.7488559,69,69,11,52,52,294.4401,0,9999.99,3.33,3.457,2,9,30.7,0,30.79999924,44.79,1557.26664,10/21/21,11:53:40,27.42,66.07,44.79,1.052,7.77,-45.6,-4.3,-2.9,-2039,88.3,5.44,13.1,
25.91278089,-80.13764373,17:26.6,10/21/21,4,1.078,4.53,-7.12740902,2.67,312.9,307.04,1.59,-1.51,35.2,0,3.37,3.37,90,27,498.7,16.1,-1.6,D,1235.1,5,6.524,1,1.07,154,292.61,-80.13770394,25.91280345,0,0,1,N,0.4214311,67,67,11,67,67,292.1077,0,9999.99,3.38,3.507,2,9,30.7,0,30.70000076,44.83,1557.11363,10/21/21,11:53:41,27.42,66.11,44.83,1.063,7.76,-45.5,-4,-3.1,-3692,88.3,5.44,13.1,
25.91278408,-80.1376481,17:27.6,10/21/21,4,1.066,4.53,-7.12740902,2.67,308.8,302.89,1.22,-2.56,35.1,0,3.39,3.39,90,27,498.7,16.1,-1.6,D,1235.1,5,5.985,1,1.07,154,291.09,-80.13770394,25.91280345,0,0,1,N,0.2258533,64,64,11,78,78,290.7096,0,9999.99,3.4,3.527,2,9,30.7,0,30.70000076,44.78,1557.06158,10/21/21,11:53:42,27.42,66.05,44.78,1.058,7.75,-44.5,-5.1,-4.8,-3610,88.3,5.44,13.1,
25.9127867,-80.13765347,17:28.6,10/21/21,4,1.195,4.53,-7.12740902,2.67,304.3,298.34,1.46,-3.68,35.2,0,3.41,3.41,90,27,498.7,16.1,-1.6,D,1235.1,6,19.573,1,1.08,154,261.85,-80.13784719,25.91276176,0,0,1,N,3.370455,66,66,11,5,5,267.6352,0,9999.99,3.42,3.547,2,9,30.7,0,30.70000076,44.79,1557.07205,10/21/21,11:53:43,27.42,66.06,44.79,1.082,7.77,-45.7,-3.9,-2.6,-1664,88.3,5.43,12.9,
25.91278933,-80.1376585,17:29.6,10/21/21,4,1.116,4.53,-7.12740902,2.67,298.1,292.06,0.99,-2.84,35.1,0,3.45,3.45,90,27,498.7,16.1,-1.6,D,1235.1,6,19.119,1,1.08,154,260.77,-80.13784719,25.91276176,0,0,1,N,2.937178,63,63,11,23,23,266.1249,0,9999.99,3.46,3.587,2,9,30.7,0,30.70000076,44.8,1557.08243,10/21/21,11:53:44,27.41,66.07,44.8,1.083,7.77,-45.7,-3.4,-4,-1987,88.4,5.44,13.1,
25.91279217,-80.13766345,17:30.6,10/21/21,4,1.037,4.53,-7.12740902,2.67,292.6,286.47,1.5,-2.64,35.1,0,3.47,3.47,90,26,498.6,16.1,-1.6,D,1260.5,6,18.685,1,1.08,154,259.57,-80.13784719,25.91276176,0,0,1,N,2.480247,66,66,11,39,39,264.3725,0,9999.99,3.48,3.607,2,9,30.7,0,30.70000076,44.79,1557.07193,10/21/21,11:53:46,27.41,66.06,44.79,1.064,7.77,-45.8,-3.7,-0.7,-3410,88.5,5.45,13.1,
25.91279451,-80.13766771,17:31.6,10/21/21,4,1.165,4.53,-7.12740902,2.67,285.6,279.34,1.79,-2.06,35.1,0,3.48,3.48,90,26,498.6,16.1,-1.6,D,1260.5,6,18.316,1,1.08,154,258.53,-80.13784719,25.91276176,0,0,1,N,2.090204,68,68,11,58,58,262.7783,0,9999.99,3.49,3.617,2,9,30.7,0,30.70000076,44.79,1557.07193,10/21/21,11:53:46,27.41,66.06,44.79,1.064,7.77,-45.8,-3.7,-0.7,-3410,88.5,5.45,13.1,
25.91279551,-80.13767401,17:32.6,10/21/21,4,1.085,4.53,-7.12740902,2.67,280.6,274.23,1.64,-2.07,35.1,0,3.5,3.5,90,26,498.6,16.1,-1.6,D,1260.5,6,17.723,1,1.08,154,257.77,-80.13784719,25.91276176,0,0,1,N,1.786004,67,67,11,77,77,261.715,0,9999.99,3.51,3.637,2,9,30.7,0,30.70000076,44.79,1557.07197,10/21/21,11:53:48,27.41,66.06,44.79,1.072,7.77,-45.8,-3.9,-4.2,-2194,88.3,5.44,13.1,
25.91279643,-80.13768016,17:33.6,10/21/21,4,1.114,4.53,-7.12740902,2.67,275.9,269.4,1.52,-1.44,35.3,0,3.5,3.5,90,26,498.6,16.1,-1.6,D,1260.5,6,17.145,1,1.07,154,257.01,-80.13784719,25.91276176,0,0,1,N,1.497373,66,66,11,92,92,260.5991,0,9999.99,3.51,3.637,2,9,30.6,0,30.60000038,44.77,1556.85585,10/21/21,11:53:49,27.41,66.04,44.77,1.072,7.77,-45.7,-3.7,-5.3,-1741,88.2,5.43,13.1,
25.91279793,-80.13768614,17:34.6,10/21/21,4,1.102,4.53,-7.12740902,2.68,272.3,265.69,1.3,-2.15,35.2,0,3.58,3.58,90,26,498.6,16.1,-1.6,D,1248.3,6,16.602,1,1.08,154,255.98,-80.13784719,25.91276176,0,0,1,N,1.151028,65,65,11,100,100,258.9858,0,9999.99,3.59,3.717,2,9,30.6,0,30.60000038,44.77,1556.85585,10/21/21,11:53:49,27.41,66.04,44.77,1.072,7.77,-45.7,-3.7,-5.3,-1741,88.2,5.43,13.1,
25.9127982,-80.13769058,17:35.6,10/21/21,4,1.306,308.13,-7.12740902,2.68,269.8,263.11,1.27,-2.43,35.2,0,3.58,3.58,90,26,498.6,16.1,-1.6,D,1248.3,6,16.179,1,1.08,154,255.5,-80.13784719,25.91276176,0,0,1,N,0.9814729,65,65,11,106,106,258.2353,0,9999.99,3.59,3.717,2,9,30.6,0,30.60000038,44.8,1556.88718,10/21/21,11:53:50,27.4,66.08,44.8,1.067,7.77,-45.6,-4.1,-4.1,-2018,88.1,5.42,13.1,
25.91279803,-80.13769737,17:36.6,10/21/21,4,1.16,308.13,-7.12740902,2.68,267.4,260.63,1.29,-2.12,35.2,0,3.61,3.61,90,26,498.6,16.1,-1.6,D,1248.3,6,15.518,1,1.09,154,254.94,-80.13784719,25.91276176,0,0,1,N,0.7879784,65,65,11,114,114,257.3842,0,9999.99,3.62,3.747,2,9,30.6,0,30.60000038,44.76,1556.84553,10/21/21,11:53:52,27.4,66.03,44.76,1.078,7.77,-45.7,-3.6,-0.7,-921,88.1,5.43,13.1,
25.91279737,-80.13770308,17:37.6,10/21/21,4,0.962,308.13,-7.12740902,2.68,265.1,258.25,1.05,-2.27,35.1,0,3.62,3.62,90,27,498.6,16.1,-1.6,D,1234.2,6,14.947,1,1.09,154,254.64,-80.13784719,25.91276176,0,0,1,N,0.6790049,63,63,11,113,113,257.0231,0,9999.99,3.63,3.757,2,9,30.6,0,30.60000038,44.76,1556.84553,10/21/21,11:53:52,27.4,66.03,44.76,1.078,7.77,-45.7,-3.6,-0.7,-921,88.1,5.43,13.1,
25.91279722,-80.13770882,17:38.6,10/21/21,4,1.026,308.13,-7.12740902,2.68,264.3,257.42,1.05,-3.46,35.2,0,3.64,3.64,90,27,498.6,16.1,-1.6,D,1234.2,6,14.39,1,1.11,154,254.1,-80.13784719,25.91276176,0,0,1,N,0.5188541,63,63,11,120,120,255.7809,0,9999.99,3.65,3.777,2,9,30.6,0,30.60000038,44.75,1556.83507,10/21/21,11:53:53,27.39,66.01,44.75,1.078,7.77,-45.8,-4.1,-4.4,-6806,87.9,5.42,13.1,
25.91279755,-80.13771441,17:39.6,10/21/21,4,1.315,280.11,-7.12740902,2.68,262.3,255.34,1.03,-2.47,35.2,0,3.64,3.64,90,27,498.6,16.1,-1.6,D,1234.2,6,13.864,1,1.12,154,253.32,-80.13784719,25.91276176,0,0,1,N,0.3074498,63,63,11,122,122,254.2716,0,9999.99,3.65,3.777,2,9,30.6,0,30.60000038,44.74,1556.82461,10/21/21,11:53:54,27.39,66,44.74,1.084,7.78,-46.1,-4.1,-3.6,-5165,87.9,5.42,13.1,
25.91279596,-80.13772055,17:40.6,10/21/21,4,1.28,262.55,-7.12740902,2.68,261.3,254.3,1.02,-2.56,35.1,0,3.65,3.65,90,27,498.6,16.1,-1.6,D,1234.2,6,13.225,1,1.14,154,253.29,-80.13784719,25.91276176,0,0,1,N,0.2863588,63,63,11,126,126,254.1206,0,9999.99,3.66,3.787,2,9,30.6,0,30.60000038,44.73,1556.81419,10/21/21,11:53:56,27.37,65.99,44.73,1.074,7.78,-46.3,-3.7,-1.8,-3097,87.9,5.42,13.1,
25.91279389,-80.13772653,17:41.6,10/21/21,4,0.976,262.55,-7.12740902,2.68,260.6,253.57,0.99,-3.13,35.2,0,3.67,3.67,90,26,498.6,16.1,-1.6,D,1252,6,12.586,1,1.15,154,253.51,-80.13784719,25.91276176,0,0,1,N,0.3215346,63,63,11,130,130,254.3723,0,9999.99,3.68,3.807,2,9,30.6,0,30.60000038,44.73,1556.81419,10/21/21,11:53:56,27.37,65.99,44.73,1.074,7.78,-46.3,-3.7,-1.8,-3097,87.9,5.42,13.1,
25.91279262,-80.13773241,17:42.6,10/21/21,4,0.959,262.55,-7.12740902,2.68,260,252.95,0.99,-2.33,35.2,0,3.67,3.67,90,26,498.6,16.1,-1.6,D,1252,6,11.982,1,1.14,154,253.36,-80.13784719,25.91276176,0,0,1,N,0.2738052,63,63,11,131,131,254.0309,0,9999.99,3.68,3.807,2,9,30.5,0,30.60000038,44.75,1556.83507,10/21/21,11:53:57,27.36,66,44.75,1.071,7.77,-45.9,-5,-2.5,-483,87.8,5.41,13.1,
25.91279215,-80.13773859,17:43.6,10/21/21,4,1.269,258.93,-7.12740902,2.69,259,251.91,1.03,-2.74,35.2,0,3.7,3.7,90,26,498.6,16.1,-1.6,D,1252,6,11.376,1,1.13,154,252.72,-80.13784719,25.91276176,0,0,1,N,0.1329117,63,63,11,131,131,253.0225,0,9999.99,3.71,3.837,2,9,30.5,0,30.5,44.72,1556.60801,10/21/21,11:53:59,27.35,65.97,44.72,1.074,7.77,-45.8,-4.6,-4,-2622,87.8,5.41,12.9,
25.91279107,-80.13774505,17:44.6,10/21/21,4,1.443,252.48,-7.12740902,2.69,258.9,251.8,1.22,-2.3,35.2,0,3.74,3.74,90,26,498.5,16.1,-1.6,D,1277.3,6,10.723,1,1.15,154,252.31,-80.13784719,25.91276176,0,0,1,N,4.62E-02,64,64,11,129,129,252.4012,0,9999.99,3.75,3.877,2,9,30.5,0,30.5,44.72,1556.60801,10/21/21,11:53:59,27.35,65.97,44.72,1.074,7.77,-45.8,-4.6,-4,-2622,87.8,5.41,12.9,
25.9127902,-80.13775072,17:45.6,10/21/21,5,1.214,252.7,-7.12740902,1.49,257.8,250.66,1.22,-2.7,35.2,0,3.76,3.76,90,26,498.5,16.1,-1.6,D,1277.3,6,10.154,1,1.16,154,251.85,-80.13784719,25.91276176,0,0,1,N,3.76E-02,64,64,11,132,132,251.8016,0,9999.99,3.77,3.897,2,9,30.5,0,30.5,44.7,1556.58701,10/21/21,11:54:00,27.35,65.95,44.7,1.078,7.75,-44.7,-5,-2.7,-1069,87.7,5.41,13.1,
25.91278942,-80.13775573,17:46.6,10/21/21,5,1.123,255.54,-7.12740902,1.49,257.1,249.93,1.08,-1.42,35.2,0,3.78,3.78,90,26,498.5,16.1,-1.6,D,1277.3,6,9.651,1,1.15,154,251.41,-80.13784719,25.91276176,0,0,1,N,0.1113586,63,63,11,132,132,251.273,0,9999.99,3.79,3.917,2,9,30.5,0,30.5,44.7,1556.58699,10/21/21,11:54:01,27.35,65.94,44.7,1.078,7.77,-45.9,-3,-2.5,-2509,87.7,5.41,13.2,
25.91278836,-80.13776069,17:47.6,10/21/21,5,1.074,255.23,-7.12740902,1.49,257.4,250.24,1.22,-2.24,35.2,0,3.74,3.74,90,26,498.5,16.1,-1.6,D,1277.3,6,9.143,1,1.17,154,251.12,-80.13784719,25.91276176,0,0,1,N,0.151602,63,63,11,131,131,250.9848,0,9999.99,3.75,3.877,2,9,30.5,0,30.5,44.7,1556.58704,10/21/21,11:54:02,27.34,65.95,44.7,1.072,7.77,-45.9,-4.5,-3.2,-2121,87.7,5.41,13.1,
25.91278782,-80.13776651,17:48.6,10/21/21,5,1.099,256.28,-7.12740902,1.49,257.2,250.03,1.03,-3.05,35.3,0,3.84,3.84,90,26,498.5,16.1,-1.6,D,1247.4,6,8.574,1,1.16,153,250.25,-80.13784719,25.91276176,0,0,1,N,0.2729838,64,64,11,128,128,250.1162,0,9999.99,3.85,3.977,2,9,30.5,0,30.5,44.73,1556.61833,10/21/21,11:54:04,27.37,65.98,44.73,1.08,7.78,-46.2,-3.6,-5.3,-3569,87.7,5.41,13.1,
25.91278668,-80.13777264,17:49.6,10/21/21,5,1.079,257.41,-7.12740902,1.49,257.2,250.03,1.24,-3.27,35.2,0,3.85,3.85,90,26,498.5,16.1,-1.6,D,1247.4,6,7.954,1,1.14,153,249.61,-80.13784719,25.91276176,0,0,1,N,0.3417107,64,64,11,125,125,249.6248,0,9999.99,3.86,3.987,2,9,30.5,0,30.5,44.73,1556.61833,10/21/21,11:54:04,27.37,65.98,44.73,1.08,7.78,-46.2,-3.6,-5.3,-3569,87.7,5.41,13.1,
25.9127859,-80.13777775,17:50.6,10/21/21,5,1.115,258.68,-7.12740902,1.49,256.2,248.99,1.03,-2.65,35.3,0,3.88,3.88,90,26,498.5,16.1,-1.6,D,1267.1,6,7.446,1,1.16,153,248.87,-80.13784719,25.91276176,0,0,1,N,0.4165793,63,63,11,127,127,249.0898,0,9999.99,3.89,4.017,2,9,30.5,0,30.5,44.7,1556.58718,10/21/21,11:54:05,27.38,65.95,44.7,1.087,7.79,-47,-4.6,-1.4,-2214,87.7,5.41,13.2,
25.91278521,-80.13778296,17:51.6,10/21/21,5,1.093,260.37,-7.12740902,1.49,256.3,249.09,1.31,-2.59,35.3,0,3.87,3.87,90,26,498.5,16.1,-1.6,D,1267.1,6,6.934,1,1.14,153,247.91,-80.13784719,25.91276176,0,0,1,N,0.5025275,65,65,11,125,125,248.476,0,9999.99,3.88,4.007,2,9,30.4,0,30.5,44.68,1556.56629,10/21/21,11:54:06,27.38,65.92,44.68,1.071,7.77,-45.9,-5.3,-3.3,-3910,87.6,5.4,13.1,
25.91278466,-80.13778896,17:52.6,10/21/21,5,1.14,258.03,-7.12740902,1.49,256,248.78,1.3,-3.33,35.3,0,3.87,3.87,90,26,498.5,16.1,-1.6,D,1267.1,6,6.356,1,1.15,153,246.38,-80.13784719,25.91276176,0,0,1,N,0.6301541,65,65,11,122,122,247.5664,0,9999.99,3.88,4.007,2,9,30.4,0,30.39999962,44.68,1556.36968,10/21/21,11:54:07,27.37,65.92,44.68,1.085,7.77,-45.8,-4,-4.4,-2654,87.6,5.4,13.1,
25.9127839,-80.13779465,17:53.6,10/21/21,5,1.068,257.18,-7.12740902,1.49,255.6,248.36,1.55,-0.87,35.3,0,3.71,3.71,90,26,498.5,16.1,-1.6,D,1274.1,7,5.803,1,1.12,160,244.9,-80.13784719,25.91276176,0,0,6,N,0.6298605,65,65,11,113,113,244.9632,0,9999.99,3.72,3.847,2,9,30.4,0,30.39999962,44.76,1556.4533,10/21/21,11:54:08,27.37,66.02,44.76,1.085,7.77,-45.8,-5.8,-0.5,-1637,87.6,5.4,13.1,
25.9127823,-80.13780054,17:54.6,10/21/21,5,1.144,254.82,-7.12740902,1.49,255.2,247.94,1.08,-2.58,35.3,0,3.71,3.71,90,26,498.5,16.1,-1.6,D,1274.1,7,5.196,1,1.15,160,243.92,-80.13784719,25.91276176,0,0,6,N,0.6298605,63,63,11,111,111,244.0012,0,9999.99,3.72,3.847,2,9,30.4,0,30.39999962,44.72,1556.41145,10/21/21,11:54:10,27.43,65.97,44.72,1.079,7.77,-46,-4,-2.8,-2497,87.6,5.4,13.1,
25.91278108,-80.13780676,17:55.6,10/21/21,5,1.227,255.27,-7.12740902,1.49,253.5,246.17,0.25,-4.11,35.3,0,3.71,3.71,90,26,498.5,16.1,-1.6,D,1274.1,7,4.58,1,1.17,128,242.03,-80.13784719,25.91276176,0,0,6,N,0.6298605,59,59,11,111,111,242.1238,0,9999.99,3.72,3.847,2,9,30.4,0,30.39999962,44.72,1556.41145,10/21/21,11:54:10,27.43,65.97,44.72,1.079,7.77,-46,-4,-2.8,-2497,87.6,5.4,13.1,
25.91277958,-80.13781287,17:56.6,10/21/21,5,1.178,253.1,-7.12740902,1.49,252.9,245.54,1.06,-5.53,35.4,0,3.74,3.74,90,26,498.5,16.1,-1.6,D,1274.1,7,3.964,1,1.19,128,240.01,-80.13784719,25.91276176,0,0,6,N,0.6298605,63,63,11,105,105,240.1331,0,9999.99,3.75,3.877,2,9,30.4,0,30.39999962,44.69,1556.38008,10/21/21,11:54:11,27.45,65.94,44.69,1.086,7.78,-46.2,-4,-1.2,-4641,87.5,5.39,12.9,
25.91277785,-80.13781802,17:57.6,10/21/21,5,1.043,250.55,-7.12740902,1.49,251.5,244.07,1.34,-5.59,35.4,0,3.64,3.64,90,24,498.5,16.1,-1.5,D,1351.1,7,3.423,1,1.17,128,238.48,-80.13784719,25.91276176,0,0,6,N,0.6298605,65,65,11,104,104,238.6461,0,9999.99,3.65,3.777,2,9,30.4,0,30.39999962,44.67,1556.35928,10/21/21,11:54:13,27.48,65.91,44.67,1.079,7.79,-46.7,-2.9,-5.9,-2466,87.5,5.39,13.1,
25.91277548,-80.13782284,17:58.6,10/21/21,5,0.976,250.5,-7.12740902,1.49,250.2,242.71,1.24,-4.15,35.4,0,3.48,3.48,90,24,498.5,16.1,-1.5,D,1351.1,7,2.873,1,1.08,128,237.93,-80.13784719,25.91276176,0,0,6,N,0.6298605,64,64,11,108,108,238.07,0,9999.99,3.49,3.617,2,9,30.4,0,30.39999962,44.67,1556.35928,10/21/21,11:54:13,27.48,65.91,44.67,1.079,7.79,-46.7,-2.9,-5.9,-2466,87.5,5.39,13.1,
25.91277444,-80.13782738,17:59.6,10/21/21,5,0.917,255.11,-7.12740902,1.49,249.2,241.66,1.07,-3.25,35.4,0,3.36,3.36,90,24,498.5,16.1,-1.5,D,1351.1,7,2.432,1,0.97,128,234.55,-80.13784719,25.91276176,0,0,6,N,0.6298605,63,63,11,100,100,234.8132,0,9999.99,3.37,3.497,2,9,30.4,0,30.39999962,44.65,1556.33838,10/21/21,11:54:14,27.5,65.89,44.65,1.076,7.77,-46,-4.3,-9.2,-2873,87.5,5.38,13.1,
25.9127733,-80.13783193,18:00.6,10/21/21,5,0.812,255.11,-7.12740902,1.49,248.7,241.14,1.07,-5.04,35.4,0,3.24,3.24,90,22,498.4,16.1,-1.4,D,1464.5,7,1.991,1,0.89,128,229.95,-80.13784719,25.91276176,0,0,6,N,0.6298605,63,63,11,84,84,230.2922,0,9999.99,3.25,3.377,2,9,30.4,0,30.39999962,44.63,1556.31749,10/21/21,11:54:15,27.5,65.86,44.63,1.058,7.77,-46,-2.6,-2.1,-2420,87.4,5.38,13.1,
25.91277253,-80.13783514,18:01.6,10/21/21,5,0.772,255.11,-7.12740902,1.49,247.3,239.67,1.17,-6.55,35.4,0,3.15,3.15,90,22,498.4,16.1,-1.4,D,1464.5,7,1.698,1,0.83,128,225.2,-80.13784719,25.91276176,0,0,6,N,0.6298605,64,64,11,71,71,225.6622,0,9999.99,3.16,3.287,2,9,30.4,0,30.39999962,44.63,1556.31751,10/21/21,11:54:17,27.51,65.86,44.63,1.069,7.77,-45.6,-5.7,-5.8,-3072,87.2,5.37,13.1,
25.91277118,-80.13783819,18:02.7,10/21/21,5,0.634,255.11,-7.12740902,1.49,245.5,237.78,1.12,-4.65,35.3,0,3.09,3.09,90,22,498.4,16.1,-1.4,D,1464.5,7,1.379,1,0.77,128,220.68,-80.13784719,25.91276176,0,0,6,N,0.6298605,64,64,11,61,61,221.2195,0,9999.99,3.1,3.227,2,9,30.3,0,30.39999962,44.63,1556.31751,10/21/21,11:54:17,27.51,65.86,44.63,1.069,7.77,-45.6,-5.7,-5.8,-3072,87.2,5.37,13.1,
25.91276999,-80.13784099,18:03.7,10/21/21,5,0.655,255.11,-7.12740902,1.49,245,237.25,1.27,-5.42,35.3,0,3.06,3.06,90,22,498.4,16.1,-1.4,D,1464.5,7,1.107,1,0.68,128,214.1,-80.13784719,25.91276176,0,0,6,N,0.6298605,65,65,11,38,38,214.97,0,9999.99,3.07,3.197,0,0,30.4,0,30.29999924,44.64,1556.13073,10/21/21,11:54:18,27.52,65.87,44.64,1.071,7.78,-46.1,-4.5,-3.8,-4862,87.1,5.36,13.1,
25.91276862,-80.13784376,18:04.7,10/21/21,5,0.568,255.11,-7.12740902,1.49,242.8,234.94,1.15,-5.83,35.3,0,3.05,3.05,90,22,498.4,16.1,-1.4,D,1473.9,7,0.838,1,0.65,128,204.2,-80.13784719,25.91276176,0,0,6,N,0.6298605,64,64,11,8,8,205.7429,0,9999.99,3.06,3.187,2,9,30.4,0,30.39999962,44.63,1556.31748,10/21/21,11:54:19,27.52,65.87,44.63,1.087,7.78,-46.2,-4.4,-1.6,-2146,87.1,5.36,13,
25.9127673,-80.13784594,18:05.7,10/21/21,5,0.569,255.11,-7.12740902,1.49,240.2,232.21,1.34,-5.88,35.4,0,3.05,3.05,90,22,498.4,16.1,-1.4,D,1473.9,7,0.623,1,0.61,128,191.51,-80.13784719,25.91276176,0,0,6,N,0.6298605,65,65,11,5,5,193.6327,0,9999.99,3.06,3.187,2,9,30.3,0,30.29999924,44.63,1556.12032,10/21/21,11:54:21,27.53,65.86,44.63,1.083,7.77,-45.5,-3.3,-2.6,-1061,87.2,5.36,13.1,
25.91276597,-80.13784848,18:06.7,10/21/21,5,0.573,255.11,-7.12740902,1.49,237.8,229.68,1,-4.39,35.4,0,3,3,90,22,498.4,16.1,-1.4,D,1473.9,7,0.484,1,0.6,128,164.56,-80.13784719,25.91276176,0,0,6,N,0.6298605,63,63,11,5,5,168.0222,0,9999.99,3.01,3.137,2,9,30.3,0,30.29999924,44.62,1556.10992,10/21/21,11:54:22,27.52,65.84,44.62,1.072,7.79,-46.8,-4.4,1.6,-2012,87.1,5.36,13.1,
25.9127657,-80.13785065,18:07.7,10/21/21,5,0.45,255.11,-7.12740902,1.49,235.6,227.36,0.95,-5.52,35.4,0,2.97,2.97,90,23,498.4,16.1,-1.4,D,1456.2,7,0.562,1,0.55,128,141.64,-80.13784719,25.91276176,0,0,6,N,0.6298605,63,63,11,5,5,144.7585,0,9999.99,2.98,3.107,2,9,30.3,0,30.29999924,44.62,1556.10992,10/21/21,11:54:22,27.52,65.84,44.62,1.072,7.79,-46.8,-4.4,1.6,-2012,87.1,5.36,13.1,
25.91276508,-80.13785297,18:08.7,10/21/21,5,0.515,255.11,-7.12740902,1.49,232.3,223.89,1.48,-6.52,35.3,0,2.97,2.97,90,23,498.4,16.1,-1.4,D,1456.2,7,0.685,1,0.5,128,122.57,-80.13784719,25.91276176,0,0,6,N,0.6298605,66,66,11,5,5,124.8904,0,9999.99,2.98,3.107,2,9,30.3,0,30.29999924,44.6,1556.08922,10/21/21,11:54:23,27.52,65.83,44.6,1.077,7.78,-46.6,-4.1,-10.6,-2245,87,5.36,12.9,