Latitude,Longitude,Time,Date,Number of Sats,GPS Speed (Kn),GPS True Heading,GPS Magnetic Variation,HDOP,C Magnetic Heading,C True Heading,Pitch Angle,Roll Angle,C Inside Temp (c),DFS Depth (m),DTB Height (m),Total Water Column (m),Batt Percent,Power Watts,Watt-Hours,Batt Volts,Batt Ampers,Batt State,Time to Empty,Current Step,Dist To Next (m),Next Speed (kn),Vehicle Speed (kn),Motor Speed CMD,Next Heading,Next Long,Next Lat,Next Depth (m),Depth Goal (m),Vehicle State,Error State,Distance to Track (m),Fin Pitch R,Fin Pitch L,Pitch Goal,Fin Yaw T,Fin Yaw B,Yaw Goal,Fin Roll,DVL-Depth (m),DVL -Altitude (m),DVL -Water Column (m),DVL-FixType,DVL-FixQuality,DVL-Temperature,Conductivity (mmhos/cm),Temperature (c),Salinity (ppt),Sound Speed (m/s),Date m/d/y   ,Time hh:mm:ss,Temp C,SpCond mS/cm,Sal ppt,Depth feet,pH,pH mV,Turbid+ NTU,Chl ug/L,BGA-PC cells/mL,ODOsat %,ODO mg/L,Battery volts,ROSEM Command Type
25.91275733,-80.13786783,18:19.3,10/21/21,5,0.186,255.11,-7.127411662,1.49,227,218.3,1.06,-6.01,35.4,0,2.99,2.99,90,23,498.3,16.1,-1.4,D,1452,0,2.186,1,0.46,128,127.46,-80.13785049,25.91274538,0,0,1,N,1.944067,64,64,11,5,5,172.009,0,9999.99,3,3.127,2,9,30.3,0,30.29999924,44.59,1556.07887,10/21/21,11:54:35,27.52,65.8,44.59,1.082,7.79,-46.8,-4.6,-1.3,-1659,86.5,5.32,13,
25.91275683,-80.1378685,18:20.4,10/21/21,5,0.167,255.11,-7.127411662,1.49,227.2,218.51,1.11,-5.12,35.4,0,3,3,90,23,498.3,16.1,-1.4,D,1452,0,2.204,1,0.46,128,125.26,-80.13785049,25.91274538,0,0,1,N,1.997721,64,64,11,5,5,171.9555,0,9999.99,3.01,3.137,2,9,30.3,0,30.29999924,44.59,1556.07887,10/21/21,11:54:35,27.52,65.8,44.59,1.082,7.79,-46.8,-4.6,-1.3,-1659,86.5,5.32,13,
25.91275569,-80.13786978,18:21.4,10/21/21,5,0.209,255.11,-7.127411662,1.49,227.9,219.25,1.5,-2.28,35.4,0.02,2.99,3,90,23,498.3,16.1,-1.4,D,1452,1,12.176,1,0.23,160,151.99,-80.13781261,25.91265901,0,0,1,N,1.361096,66,66,11,5,5,150.6984,0,9999.99,3,3.127,2,9,30.3,0,30.29999924,44.58,1556.06902,10/21/21,11:54:36,27.52,65.79,44.58,1.079,7.79,-46.9,-4,-1.7,-1166,86.4,5.32,13.1,
25.91275356,-80.13787107,18:22.4,10/21/21,5,0.497,255.11,-7.127411662,1.49,226.6,217.88,1,-4.19,35.4,0.01,2.94,2.95,90,25,498.3,16.1,-1.6,D,1294.3,1,12.029,1,0.32,160,150.92,-80.13781261,25.91265901,0,0,1,N,1.56109,63,63,11,5,5,149.4082,0,9999.99,2.95,3.077,2,9,30.3,0,30.29999924,44.59,1556.07953,10/21/21,11:54:38,27.52,65.81,44.59,1.083,7.79,-46.8,-3.3,-5.1,-57,86.3,5.31,13.1,
25.91275146,-80.13787382,18:23.4,10/21/21,5,0.688,255.11,-7.127411662,1.49,225.4,216.61,1.08,-4.83,35.4,0.01,2.87,2.88,90,25,498.3,16.1,-1.6,D,1294.3,1,11.965,1,0.46,160,149.22,-80.13781261,25.91265901,0,0,1,N,1.900203,63,63,11,5,5,147.345,0,9999.99,2.88,3.007,2,9,30.3,0,30.29999924,44.59,1556.07953,10/21/21,11:54:38,27.52,65.81,44.59,1.083,7.79,-46.8,-3.3,-5.1,-57,86.3,5.31,13.1,
25.91274828,-80.13787714,18:24.4,10/21/21,5,0.878,238.09,-7.127411662,1.49,220,210.93,0.94,-2.34,35.4,0.01,2.79,2.8,90,25,498.3,16.1,-1.6,D,1294.3,1,11.839,1,0.61,160,146.97,-80.13781261,25.91265901,0,0,1,N,2.329688,63,63,11,5,5,144.6161,0,9999.99,2.8,2.927,2,9,30.3,0,30.29999924,44.57,1556.05817,10/21/21,11:54:39,27.52,65.79,44.57,1.097,7.79,-46.7,-4.5,-3.1,-6208,86.3,5.31,13.1,
25.91274465,-80.13788101,18:25.4,10/21/21,6,1.023,231.35,-7.127411662,1.49,215.6,206.31,1.11,-2.24,35.4,0.01,2.67,2.68,90,30,498.3,16.1,-1.8,D,1111.2,1,11.725,1,0.77,160,144.31,-80.13781261,25.91265901,0,0,1,N,2.832217,67,67,11,5,5,141.3557,0,9999.99,2.68,2.807,2,9,30.3,0,30.29999924,44.59,1556.0794,10/21/21,11:54:41,27.48,65.81,44.59,1.07,7.78,-46.6,-3.6,-6.6,-3882,86.2,5.31,13.1,
25.9127406,-80.13788436,18:26.4,10/21/21,6,1.039,226.93,-7.127411662,1.49,209.2,199.62,1.89,-2.79,35.5,0.01,2.52,2.52,90,30,498.3,16.1,-1.8,D,1111.2,1,11.567,1,0.87,160,141.66,-80.13781261,25.91265901,0,0,1,N,3.313539,68,68,11,5,5,138.0042,0,9999.99,2.53,2.657,2,9,30.3,0,30.29999924,44.59,1556.0794,10/21/21,11:54:41,27.48,65.81,44.59,1.07,7.78,-46.6,-3.6,-6.6,-3882,86.2,5.31,13.1,
25.91273538,-80.13788742,18:27.4,10/21/21,6,1.061,220.1,-7.127411662,1.49,203.2,193.37,1.7,-2.5,35.5,0,2.32,2.32,90,30,498.3,16.1,-1.8,D,1111.2,1,11.317,1,1,160,138.62,-80.13781261,25.91265901,0,0,1,N,3.810831,67,67,11,5,5,134.0932,0,9999.99,2.33,2.457,2,9,30.3,0,30.29999924,44.6,1556.08937,10/21/21,11:54:42,27.48,65.82,44.6,1.079,7.77,-46,-2.9,-2.2,-3798,86.1,5.3,13.1,
25.91272913,-80.13789043,18:28.4,10/21/21,6,1.293,215.37,-7.127411662,1.49,195.4,185.32,1.62,-1.55,35.4,0,2.02,2.03,90,30,498.3,16.1,-1.8,D,1111.2,1,11.017,1,1.02,160,135.05,-80.13781261,25.91265901,0,0,1,N,4.349572,67,67,11,5,5,129.8975,0,9999.99,2.04,2.167,2,9,30.3,0,30.29999924,44.59,1556.07885,10/21/21,11:54:44,27.5,65.81,44.59,1.087,7.79,-46.8,-3.8,-3.3,-1000,85.9,5.29,13.1,
25.91272327,-80.1378923,18:29.4,10/21/21,5,1.104,210.98,-7.127411662,2.74,188.7,178.47,1.92,-2.81,35.4,0.01,1.81,1.82,90,29,498.3,16.1,-1.8,D,1124.4,1,10.704,1,1.1,160,131.88,-80.13781261,25.91265901,0,0,1,N,4.76793,69,69,11,5,5,127.6715,0,9999.99,1.83,1.957,2,9,30.3,0,30.29999924,44.59,1556.07885,10/21/21,11:54:44,27.5,65.81,44.59,1.087,7.79,-46.8,-3.8,-3.3,-1000,85.9,5.29,13.1,
25.91271842,-80.13789354,18:30.4,10/21/21,5,1.107,203.05,-7.127411662,2.74,182.5,172.2,1.58,-1.77,35.4,0.01,1.6,1.6,90,29,498.3,16.1,-1.8,D,1124.4,1,10.448,1,1.11,160,129.22,-80.13781261,25.91265901,0,0,1,N,5.090338,66,66,11,5,5,126.0031,0,9999.99,1.61,1.737,2,9,30.3,0,30.29999924,44.56,1556.04752,10/21/21,11:54:45,27.52,65.77,44.56,1.08,7.79,-46.7,-3.8,-9.4,-443,85.8,5.28,13.1,
25.91271291,-80.13789371,18:31.4,10/21/21,5,1.252,195.07,-7.127411662,2.74,174.8,164.51,1.63,-1.86,35.4,0.01,1.49,1.49,90,29,498.3,16.1,-1.8,D,1124.4,1,10.085,1,1.16,160,126.46,-80.13781261,25.91265901,0,0,1,N,5.339767,67,67,11,5,5,124.7467,0,9999.99,1.5,1.627,2,9,30.2,0,30.20000076,44.54,1555.82918,10/21/21,11:54:47,27.53,65.75,44.54,1.078,7.79,-46.8,-3.7,-6.1,-3559,85.8,5.28,13,
25.91270734,-80.13789285,18:32.4,10/21/21,5,1.209,195.07,-7.127411662,2.74,168.1,157.9,1.44,-2.75,35.4,0,1.37,1.38,90,29,498.2,16.1,-1.8,D,1128,1,9.659,1,1.16,160,123.81,-80.13781261,25.91265901,0,0,1,N,5.496896,66,66,11,5,5,123.9814,0,9999.99,1.39,1.517,2,9,30.2,0,30.20000076,44.54,1555.82918,10/21/21,11:54:47,27.53,65.75,44.54,1.078,7.79,-46.8,-3.7,-6.1,-3559,85.8,5.28,13,
25.91270172,-80.13789228,18:33.4,10/21/21,5,1.233,195.07,-7.127411662,2.74,162,151.96,1.76,-1.74,35.4,0,1.31,1.32,90,29,498.2,16.1,-1.8,D,1128,1,9.276,1,1.17,160,120.8,-80.13781261,25.91265901,0,0,1,N,5.677125,68,68,11,12,12,123.1096,0,9999.99,1.33,1.457,2,9,30.2,0,30.20000076,44.55,1555.83917,10/21/21,11:54:48,27.52,65.76,44.55,1.065,7.79,-46.8,-2.8,0.2,-2790,85.7,5.28,13.1,
25.91269725,-80.13788961,18:34.4,10/21/21,5,1.134,195.07,-7.127411662,2.74,154,144.26,2.09,-1.86,35.4,0.01,1.33,1.34,90,29,498.2,16.1,-1.8,D,1128,1,8.796,1,1.17,160,118.91,-80.13781261,25.91265901,0,0,1,N,5.620317,70,70,11,41,41,123.3809,0,9999.99,1.35,1.477,2,9,30.2,0,30.20000076,44.55,1555.83935,10/21/21,11:54:50,27.5,65.75,44.55,1.077,7.79,-46.8,-2.9,-4.4,-1192,85.8,5.28,13.1,
25.91269195,-80.13788577,18:35.4,10/21/21,5,1.193,195.07,-7.127411662,2.75,148.2,138.75,1.93,-1,35.4,0,1.37,1.37,90,29,498.2,16.1,-1.8,D,1128,1,8.183,1,1.19,160,116.59,-80.13781261,25.91265901,0,0,1,N,5.491227,69,69,11,68,68,124.005,0,9999.99,1.39,1.517,2,9,30.2,0,30.20000076,44.55,1555.83935,10/21/21,11:54:50,27.5,65.75,44.55,1.077,7.79,-46.8,-2.9,-4.4,-1192,85.8,5.28,13.1,
25.91268636,-80.13788341,18:36.5,10/21/21,5,1.303,195.07,-7.127411662,2.75,143.7,134.5,1.35,-0.48,35.4,0,1.42,1.42,90,29,498.2,16.1,-1.8,D,1128.6,1,7.706,1,1.19,160,113.24,-80.13781261,25.91265901,0,0,1,N,5.506542,64,64,11,84,84,123.9305,0,9999.99,1.44,1.567,2,9,30.2,0,30.20000076,44.55,1555.83902,10/21/21,11:54:51,27.49,65.76,44.55,1.082,7.79,-46.7,-3.6,-3.5,-1503,85.8,5.28,12.9,
25.91268156,-80.13787965,18:37.5,10/21/21,5,1.203,195.07,-7.127411662,2.75,139.8,130.84,1,-0.06,35.5,0,1.48,1.48,90,29,498.2,16.1,-1.8,D,1128.6,1,7.159,1,1.22,160,110.51,-80.13781261,25.91265901,0,0,1,N,5.351542,63,63,11,102,102,124.6897,0,9999.99,1.49,1.617,2,9,30.2,0,30.20000076,44.57,1555.86005,10/21/21,11:54:53,27.49,65.79,44.57,1.092,7.77,-46,-3.9,-1.6,-3724,85.7,5.28,13.1,
25.91267728,-80.13787658,18:38.5,10/21/21,5,1.237,195.07,-7.127411662,2.75,137.2,128.4,1.25,-0.83,35.5,0,1.54,1.55,90,29,498.2,16.1,-1.8,D,1128.6,2,17.097,1,1.24,159,105.89,-80.13771217,25.91263518,0,0,1,N,0.3637518,65,65,11,37,37,106.3564,0,9999.99,1.55,1.677,2,9,30.2,0,30.20000076,44.54,1555.82895,10/21/21,11:54:54,27.5,65.75,44.54,1.085,7.79,-46.8,-4,-7.1,-1674,85.6,5.27,13.1,
25.91267237,-80.13787199,18:39.5,10/21/21,5,1.199,195.07,-7.127411662,2.75,132.9,124.4,0.97,-3.62,35.5,0,1.62,1.62,90,29,498.2,16.1,-1.8,D,1136.5,2,16.511,1,1.23,159,104.51,-80.13771217,25.91263518,0,0,1,N,4.95E-02,63,63,11,45,45,104.5529,0,9999.99,1.63,1.757,2,9,30.2,0,30.20000076,44.54,1555.82895,10/21/21,11:54:54,27.5,65.75,44.54,1.085,7.79,-46.8,-4,-7.1,-1674,85.6,5.27,13.1,
25.9126688,-80.13786628,18:40.5,10/21/21,5,1.255,195.07,-7.127411662,2.75,127.6,119.47,1.27,-0.44,35.4,0,1.7,1.7,90,29,498.2,16.1,-1.8,D,1136.5,2,15.861,1,1.25,159,103.63,-80.13771217,25.91263518,0,0,1,N,0.2991535,65,65,11,63,63,103.3591,0,9999.99,1.71,1.837,2,9,30.2,0,30.20000076,44.58,1555.87024,10/21/21,11:54:55,27.5,65.79,44.58,1.086,7.79,-46.8,-3.1,-3.5,-1972,85.5,5.27,13,
25.91266546,-80.13786058,18:41.5,10/21/21,4,1.288,195.07,-7.127411662,2.75,123.6,115.77,1.3,-0.39,35.4,0,1.9,1.9,90,29,498.2,16.1,-1.8,D,1136.5,2,15.22,1,1.28,159,102.78,-80.13771217,25.91263518,0,0,1,N,0.518612,65,65,11,73,73,102.2016,0,9999.99,1.91,2.037,2,9,30.1,0,30.10000038,44.52,1555.60909,10/21/21,11:54:57,27.51,65.72,44.52,1.076,7.79,-46.8,-3.9,-0.9,-4571,85.3,5.25,13.1,
25.91266214,-80.13785724,18:42.5,10/21/21,4,1.055,195.07,-7.127411662,2.75,118.4,110.96,1.5,-0.96,35.5,0,2.08,2.08,90,29,498.2,16.1,-1.8,D,1136.5,2,14.816,1,1.28,158,101.68,-80.13771217,25.91263518,0,0,1,N,0.7948781,66,66,11,86,86,100.7124,0,9999.99,2.09,2.217,2,9,30.1,0,30.10000038,44.49,1555.57803,10/21/21,11:54:58,27.5,65.68,44.49,1.071,7.79,-46.7,-2.4,-2.7,-3939,85.4,5.26,13.1,
25.91265891,-80.13785218,18:43.5,10/21/21,4,1.179,195.07,-7.127411662,2.76,115,107.82,1.06,-0.89,35.5,0,2.25,2.25,90,28,498.2,16.1,-1.7,D,1156.1,2,14.25,1,1.29,158,100.67,-80.13771217,25.91263518,0,0,1,N,1.015995,63,63,11,91,91,99.35387,0,9999.99,2.26,2.387,2,9,30.1,0,30.10000038,44.57,1555.6616,10/21/21,11:54:59,27.47,65.77,44.57,1.093,7.77,-46,-3,-2.5,-3253,85.4,5.26,13,
25.91265816,-80.13784351,18:44.5,10/21/21,4,1.014,195.07,-7.127411662,2.76,111.8,104.86,0.93,-1.62,35.5,0,2.41,2.41,90,28,498.2,16.1,-1.7,D,1156.1,2,13.383,1,1.32,158,101.01,-80.13771217,25.91263518,0,0,1,N,0.8801994,63,63,11,107,107,99.74804,0,9999.99,2.42,2.547,2,9,30.1,0,30.10000038,44.57,1555.66151,10/21/21,11:55:00,27.47,65.78,44.57,1.089,7.79,-47.1,-3.4,-2.3,-4722,85.4,5.26,13.1,
25.91265714,-80.13783899,18:45.5,10/21/21,4,1.168,195.07,-7.127411662,2.76,109.4,102.63,1.12,-0.54,35.4,0,2.63,2.63,90,28,498.2,16.1,-1.7,D,1167.8,2,12.917,1,1.32,157,100.9,-80.13771217,25.91263518,0,0,1,N,0.8776829,64,64,11,117,117,100.1446,0,9999.99,2.64,2.767,2,9,30.1,0,30.10000038,44.53,1555.61967,10/21/21,11:55:01,27.48,65.73,44.53,1.106,7.8,-47.7,-2.7,-0.3,-3525,85.3,5.25,13.1,
25.91265518,-80.13783401,18:46.5,10/21/21,5,1.233,155.02,-7.127411662,2.76,107.2,100.59,0.98,-1.58,35.4,0,2.79,2.79,90,28,498.2,16.1,-1.7,D,1167.8,2,12.387,1,1.27,157,100.34,-80.13771217,25.91263518,0,0,1,N,0.964359,63,63,11,122,122,99.42347,0,9999.99,2.8,2.927,2,9,30.1,0,30.10000038,44.54,1555.63034,10/21/21,11:55:02,27.48,65.75,44.54,1.1,7.79,-47,-3.4,-0.2,-539,85.3,5.25,13.1,
25.91265319,-80.1378278,18:47.5,10/21/21,4,1.196,130.15,-7.127411662,2.76,106.6,100.04,0.66,-1.52,35.5,0,2.91,2.91,90,28,498.2,16.1,-1.7,D,1157.4,2,11.737,1,1.28,157,99.83,-80.13771217,25.91263518,0,0,1,N,1.019847,61,61,11,122,122,98.67561,0,9999.99,2.92,3.047,2,9,30.1,0,30.10000038,44.51,1555.59896,10/21/21,11:55:03,27.48,65.71,44.51,1.101,7.79,-46.9,-3.9,-3.8,-1757,85.1,5.24,12.9,
25.91265251,-80.13782161,18:48.5,10/21/21,5,1.178,130.15,-7.127411662,2.76,105.2,98.74,0.95,-2.13,35.5,0,2.97,2.97,90,28,498.2,16.1,-1.7,D,1157.4,2,11.114,1,1.28,157,99.99,-80.13771217,25.91263518,0,0,1,N,0.9360745,63,63,11,126,126,98.73844,0,9999.99,2.98,3.107,2,9,30.1,0,30.10000038,44.51,1555.59884,10/21/21,11:55:04,27.45,65.71,44.51,1.111,7.79,-46.8,-3.2,-4.5,-3310,85.1,5.25,13.1,
25.91264777,-80.13781911,18:49.5,10/21/21,5,0.95,130.15,-7.127411662,1.49,104.3,97.9,0.92,-1.33,35.5,0,2.92,2.92,90,28,498.2,16.1,-1.7,D,1157.4,2,10.787,1,1.27,157,97.46,-80.13771217,25.91263518,0,0,1,N,1.384336,63,63,11,117,117,95.45036,0,9999.99,2.93,3.057,2,9,30.1,0,30.10000038,44.59,1555.68226,10/21/21,11:55:05,27.43,65.8,44.59,1.139,7.79,-46.7,-2.9,-5.9,-2069,85,5.24,13.1,
25.91264614,-80.13781264,18:50.5,10/21/21,5,1.16,115.98,-7.127411662,1.49,103.9,97.53,0.98,-2.2,35.5,0,3.16,3.16,90,27,498.1,16.1,-1.7,D,1210,2,10.123,1,1.27,156,96.92,-80.13771217,25.91263518,0,0,1,N,1.396003,63,63,11,116,116,94.86704,0,9999.99,3.17,3.297,2,9,30,0,30.10000038,44.59,1555.68226,10/21/21,11:55:05,27.43,65.8,44.59,1.139,7.79,-46.7,-2.9,-5.9,-2069,85,5.24,13.1,
25.9126448,-80.1378063,18:51.5,10/21/21,5,1.131,106.33,-7.127411662,1.49,103.3,96.97,1.18,-2.62,35.4,0,3.25,3.25,90,27,498.1,16.1,-1.7,D,1210,2,9.475,1,1.26,156,96.48,-80.13771217,25.91263518,0,0,1,N,1.37771,64,64,11,119,119,95.00423,0,9999.99,3.26,3.387,2,9,30,0,30,44.57,1555.46222,10/21/21,11:55:06,27.46,65.77,44.57,1.131,7.78,-46.4,-2.4,-2.5,-4464,85.1,5.24,13.1,
25.91264469,-80.13780019,18:52.5,10/21/21,5,1.154,101.72,-7.127411662,1.49,102.7,96.41,1.15,-2.61,35.5,0,3.25,3.25,90,27,498.1,16.1,-1.7,D,1210,2,8.866,1,1.25,156,96.85,-80.13771217,25.91263518,0,0,1,N,1.234537,64,64,11,125,125,96.00501,0,9999.99,3.26,3.387,2,9,30,0,30,44.55,1555.44136,10/21/21,11:55:07,27.47,65.75,44.55,1.121,7.79,-47,-2.4,-5,-1973,85,5.24,13,
25.91264365,-80.13779315,18:53.5,10/21/21,5,1.124,99.04,-7.127411662,1.49,101.9,95.67,0.93,-2.52,35.5,0,3.37,3.37,90,27,498.1,16.1,-1.7,D,1210,2,8.153,1,1.32,156,96.63,-80.13771217,25.91263518,0,0,1,N,1.165407,63,63,11,130,130,96.48788,0,9999.99,3.38,3.507,2,9,30,0,30,44.55,1555.44152,10/21/21,11:55:09,27.47,65.75,44.55,1.121,7.78,-46.5,-2.9,-7.2,-4346,85.1,5.25,13,
25.91264363,-80.13778692,18:54.5,10/21/21,5,1.231,97.43,-7.127411662,1.49,101.2,95.02,1.08,-2.75,35.5,0,3.41,3.41,90,27,498.1,16.1,-1.7,D,1214.9,2,7.535,1,1.28,155,97.16,-80.13771217,25.91263518,0,0,1,N,1.011565,63,63,11,137,137,97.57013,0,9999.99,3.42,3.547,2,9,30,0,30,44.53,1555.42052,10/21/21,11:55:10,27.48,65.74,44.53,1.12,7.79,-47.1,-3.3,-4.2,-1001,85.1,5.24,13.1,
25.91264259,-80.13778202,18:55.5,10/21/21,5,1.121,96.83,-7.127411662,1.49,100.8,94.65,1.14,-2.77,35.5,0,3.49,3.49,90,27,498.1,16.1,-1.7,D,1214.9,2,7.035,1,1.24,155,96.72,-80.13771217,25.91263518,0,0,1,N,0.9979976,64,64,11,139,139,97.66624,0,9999.99,3.5,3.627,2,9,30,0,30,44.53,1555.42052,10/21/21,11:55:10,27.48,65.74,44.53,1.12,7.79,-47.1,-3.3,-4.2,-1001,85.1,5.24,13.1,
25.91264241,-80.13777542,18:56.5,10/21/21,5,1.211,94.85,-7.127411662,1.49,100.6,94.46,1.01,-2.48,35.5,0,3.53,3.53,90,27,498.1,16.1,-1.7,D,1214.9,2,6.377,1,1.22,155,97.24,-80.13771217,25.91263518,0,0,1,N,0.8483537,63,63,11,144,144,98.7233,0,9999.99,3.54,3.667,2,9,30,0,30,44.52,1555.41001,10/21/21,11:55:12,27.47,65.72,44.52,1.126,7.79,-46.9,-3.3,1,-2877,85.2,5.25,13.1,
25.91264212,-80.13776949,18:57.5,10/21/21,5,1.185,94.38,-7.127411662,1.49,100.8,94.65,1.05,-2.3,35.5,0,3.61,3.61,90,27,498.1,16.1,-1.6,D,1229.2,2,5.784,1,1.18,154,97.66,-80.13771217,25.91263518,0,0,1,N,0.729632,63,63,11,147,147,99.56545,0,9999.99,3.62,3.747,2,9,30,0,30,44.52,1555.41001,10/21/21,11:55:12,27.47,65.72,44.52,1.126,7.79,-46.9,-3.3,1,-2877,85.2,5.25,13.1,
25.91264204,-80.13776333,18:58.5,10/21/21,5,1.149,90.53,-7.127411662,1.49,100.9,94.74,0.87,-2.25,35.5,0,3.63,3.63,90,27,498.1,16.1,-1.6,D,1229.2,3,15.196,1,1.14,154,72.63,-80.13761832,25.91268284,0,0,1,N,0.579376,63,63,11,96,96,86.64028,0,9999.99,3.64,3.767,2,9,30,0,30,44.56,1555.45228,10/21/21,11:55:13,27.46,65.77,44.56,1.114,7.79,-46.9,-3.7,-4.3,-5233,85.1,5.24,13.1,
25.91264156,-80.13775695,18:59.5,10/21/21,5,1.16,91.91,-7.127411662,1.49,100.3,94.18,1.14,-6.53,35.5,0,3.64,3.64,90,27,498.1,16.1,-1.6,D,1229.2,3,14.605,1,1.15,154,71.68,-80.13761832,25.91268284,0,0,1,N,2.856384,64,64,11,53,53,75.6896,0,9999.99,3.65,3.777,2,9,30,0,30,44.55,1555.44138,10/21/21,11:55:15,27.44,65.75,44.55,1.148,7.79,-47,-2.9,-2.1,-2155,85,5.24,13,
25.91264194,-80.13774977,19:00.5,10/21/21,5,1.137,94.93,-7.127411662,1.49,97.5,91.57,1.02,-2.77,35.5,0,3.7,3.71,90,27,498.1,16.1,-1.6,D,1229.2,3,13.912,1,1.3,154,70.92,-80.13761832,25.91268284,0,0,1,N,2.538508,63,63,11,58,58,74.72439,0,9999.99,3.71,3.837,0,0,30,0,30,44.55,1555.44138,10/21/21,11:55:15,27.44,65.75,44.55,1.148,7.79,-47,-2.9,-2.1,-2155,85,5.24,13,
25.91264153,-80.13774405,19:01.5,10/21/21,5,1.057,95.19,-7.127411662,1.49,93.5,87.82,1.28,-3.8,35.5,0,3.73,3.73,90,26,498.1,16.1,-1.6,D,1253.7,3,13.388,1,1.24,154,69.93,-80.13761832,25.91268284,0,0,1,N,2.209805,65,65,11,68,68,73.41504,0,9999.99,3.74,3.867,2,9,30,0,30,44.56,1555.45196,10/21/21,11:55:16,27.43,65.77,44.56,1.144,7.79,-47,-3.2,-4.5,-3428,85.1,5.24,13.1,
25.91264125,-80.13773947,19:02.5,10/21/21,5,0.99,93.32,-7.127411662,1.49,89.8,84.34,1,-1.62,35.5,0,3.76,3.76,90,26,498.1,16.1,-1.6,D,1253.7,3,12.97,1,1.18,154,69.11,-80.13761832,25.91268284,0,0,1,N,1.950565,64,64,11,77,77,72.30386,0,9999.99,3.77,3.897,2,9,30,0,30,44.56,1555.45186,10/21/21,11:55:17,27.43,65.77,44.56,1.129,7.8,-47.4,-2,-0.7,-4733,85.1,5.24,13.1,
25.91264145,-80.1377334,19:03.5,10/21/21,5,1.056,89.8,-7.127411662,1.49,86.3,81.03,1.43,-3.16,35.5,0,3.76,3.76,90,26,498.1,16.1,-1.6,D,1253.7,3,12.396,1,1.15,154,68.21,-80.13761832,25.91268284,0,0,1,N,1.668695,66,66,11,84,84,70.24624,0,9999.99,3.77,3.897,2,9,30,0,30,44.58,1555.47288,10/21/21,11:55:19,27.43,65.79,44.58,1.133,7.8,-47.8,-4,-2.2,-2020,85,5.24,13,
25.91264153,-80.13772819,19:04.5,10/21/21,5,1.04,86.8,-7.127411662,1.49,82.2,77.14,1.62,-2.99,35.5,0,3.77,3.77,90,27,498,16.1,-1.6,D,1237.1,3,11.91,1,1.12,154,67.31,-80.13761832,25.91268284,0,0,1,N,1.418255,67,67,11,95,95,69.25303,0,9999.99,3.78,3.907,2,9,30,0,30,44.57,1555.46233,10/21/21,11:55:20,27.43,65.78,44.57,1.136,7.79,-47,-2.5,-4.4,-2398,85,5.24,13.1,
25.9126425,-80.13772257,19:05.6,10/21/21,5,1.079,80.67,-7.127411662,1.49,80.3,75.32,1.11,-2.69,35.5,0,3.79,3.79,90,27,498,16.1,-1.6,D,1237.1,3,11.351,1,1.11,154,66.72,-80.13761832,25.91268284,0,0,1,N,1.236861,64,64,11,100,100,68.67606,0,9999.99,3.8,3.927,2,9,30,0,30,44.55,1555.44138,10/21/21,11:55:21,27.43,65.76,44.55,1.125,7.79,-47,-3.2,-6.4,-2316,85,5.24,13.1,
25.91264365,-80.13771732,19:06.6,10/21/21,5,1.114,76.77,-7.127411662,1.49,77.9,73.03,1.33,-2.31,35.5,0,3.82,3.82,90,27,498,16.1,-1.6,D,1237.1,3,10.819,1,1.11,154,66.25,-80.13761832,25.91268284,0,0,1,N,1.083798,65,65,11,98,98,68.21961,0,9999.99,3.83,3.957,2,9,30,0,30,44.55,1555.44138,10/21/21,11:55:21,27.43,65.76,44.55,1.125,7.79,-47,-3.2,-6.4,-2316,85,5.24,13.1,
25.91264503,-80.13771194,19:07.6,10/21/21,5,1.162,72.84,-7.127411662,1.49,75.9,71.11,1.15,-3.51,35.5,0,3.84,3.84,90,27,498,16.1,-1.6,D,1237.1,3,10.264,1,1.12,154,65.82,-80.13761832,25.91268284,0,0,1,N,0.9502481,64,64,11,112,112,67.32725,0,9999.99,3.85,3.977,2,9,30,0,30,44.56,1555.45189,10/21/21,11:55:22,27.44,65.77,44.56,1.133,7.79,-46.8,-3.4,-2.5,-1030,85,5.24,13.2,
25.91264661,-80.13770624,19:08.6,10/21/21,5,1.159,71.53,-7.127411662,1.49,74.6,69.86,1.38,-3.32,35.5,0,3.84,3.84,90,26,498,16.1,-1.6,D,1242.3,3,9.673,1,1.11,153,65.38,-80.13761832,25.91268284,0,0,1,N,0.821844,65,65,11,112,112,66.41654,0,9999.99,3.85,3.977,2,9,30,0,30,44.56,1555.45177,10/21/21,11:55:24,27.43,65.77,44.56,1.13,7.79,-47.1,-2.3,-3.6,-2399,85.1,5.25,13.1,
25.9126484,-80.13770015,19:09.6,10/21/21,5,1.144,70.58,-7.127411662,1.49,73.6,68.89,1.2,-2.88,35.5,0,3.86,3.86,90,26,498,16.1,-1.6,D,1242.3,3,9.036,1,1.11,153,64.92,-80.13761832,25.91268284,0,0,1,N,0.7037215,64,64,11,114,114,65.57835,0,9999.99,3.87,3.997,2,9,29.9,0,29.89999962,44.55,1555.24159,10/21/21,11:55:25,27.43,65.75,44.55,1.151,7.79,-47.2,-3.3,-3.7,-3314,85.1,5.25,13.1,
25.9126503,-80.13769486,19:10.6,10/21/21,5,1.069,68.26,-7.127411662,1.49,72.2,67.54,1.37,-2.63,35.5,0,3.87,3.87,90,26,498,16.1,-1.6,D,1242.3,3,8.467,1,1.11,153,64.7,-80.13761832,25.91268284,0,0,1,N,0.6169443,65,65,11,117,117,64.96083,0,9999.99,3.88,4.007,2,9,29.9,0,29.89999962,44.55,1555.24159,10/21/21,11:55:25,27.43,65.75,44.55,1.151,7.79,-47.2,-3.3,-3.7,-3314,85.1,5.25,13.1,
25.91265226,-80.13768987,19:11.6,10/21/21,5,1.123,65.36,-7.127411662,1.49,70.9,66.28,1.27,-3.26,35.5,0,3.87,3.87,90,26,498,16.1,-1.6,D,1267.2,3,7.923,1,1.12,153,64.59,-80.13761832,25.91268284,0,0,1,N,0.5598764,65,65,11,121,121,64.55438,0,9999.99,3.88,4.007,2,9,29.9,0,29.89999962,44.53,1555.22075,10/21/21,11:55:27,27.43,65.73,44.53,1.132,7.81,-48.1,-2.4,-4.9,-3723,85,5.24,13,
25.91265454,-80.13768417,19:12.6,10/21/21,5,1.12,62.81,-7.127411662,1.49,70.5,65.89,1.27,-2.83,35.6,0,3.86,3.86,90,26,498,16.1,-1.6,D,1267.2,3,7.299,1,1.19,153,64.46,-80.13761832,25.91268284,0,0,1,N,0.5053187,65,65,11,119,119,64.16537,0,9999.99,3.87,3.997,2,9,29.9,0,29.89999962,44.52,1555.21023,10/21/21,11:55:28,27.42,65.72,44.52,1.132,7.79,-47.1,-3.5,-1,-1144,84.9,5.24,13.1,
25.91265662,-80.13767935,19:13.7,10/21/21,5,1.089,61.85,-7.127411662,1.49,69.3,64.73,1.09,-3.9,35.5,0,3.87,3.87,90,26,498,16.1,-1.6,D,1267.2,3,6.766,1,1.15,153,64.47,-80.13761832,25.91268284,0,0,1,N,0.4654566,64,64,11,123,123,63.88092,0,9999.99,3.88,4.007,2,9,29.9,0,29.89999962,44.51,1555.19974,10/21/21,11:55:29,27.41,65.71,44.51,1.128,7.79,-47.1,-3.1,-2.2,-3038,85,5.24,13.1,
25.91265917,-80.1376745,19:14.7,10/21/21,5,1.012,58.8,-7.127411662,1.49,69,64.44,1.09,-2.79,35.5,0,3.85,3.85,90,26,498,16.1,-1.6,D,1267.2,3,6.205,1,1.13,153,64.9,-80.13761832,25.91268284,0,0,1,N,0.4721153,64,64,11,125,125,63.92836,0,9999.99,3.86,3.987,2,9,29.9,0,29.89999962,44.51,1555.19974,10/21/21,11:55:29,27.41,65.71,44.51,1.128,7.79,-47.1,-3.1,-2.2,-3038,85,5.24,13.1,
25.91266141,-80.13766998,19:15.7,10/21/21,5,1.099,57.05,-7.127411662,1.49,68,63.46,1.09,-4.49,35.5,0,3.83,3.83,90,26,498,16.1,-1.6,D,1278.1,4,13.998,1,1.11,153,28.36,-80.1376035,25.91277218,0,0,1,N,4.815382,64,64,11,9,9,34.1701,0,9999.99,3.84,3.967,2,9,29.9,0,29.89999962,44.55,1555.24158,10/21/21,11:55:31,27.39,65.75,44.55,1.124,7.79,-47.2,-3.2,-7.1,-3243,85.2,5.26,13,
25.91266394,-80.1376649,19:16.7,10/21/21,5,1.044,57.07,-7.127411662,1.49,65.3,60.83,0.84,-4.78,35.5,0,3.84,3.84,90,26,498,16.1,-1.6,D,1278.1,4,13.512,1,1.08,153,27.03,-80.1376035,25.91277218,0,0,1,N,4.349743,62,62,11,14,14,32.54661,0,9999.99,3.85,3.977,2,9,29.9,0,29.89999962,44.54,1555.2313,10/21/21,11:55:32,27.39,65.74,44.54,1.121,7.79,-47.2,-2.5,-4.5,-4405,85.2,5.26,13.1,
25.91266579,-80.13766154,19:17.7,10/21/21,6,0.986,57.52,-7.127411662,1.5,60,55.63,1.3,-3.13,35.6,0,3.86,3.86,90,26,498,16.1,-1.6,D,1278.1,4,13.177,1,1.07,153,26.14,-80.1376035,25.91277218,0,0,1,N,4.037621,65,65,11,30,30,31.40036,0,9999.99,3.87,3.997,2,9,29.9,0,29.89999962,44.54,1555.23124,10/21/21,11:55:33,27.39,65.74,44.54,1.129,7.8,-47.6,-3,-0.9,-5217,85.5,5.27,13.1,
25.912669,-80.13765668,19:18.7,10/21/21,5,0.934,57.22,-7.127411662,1.5,55.2,50.89,1.48,-1.94,35.5,0,3.84,3.84,90,26,497.9,16.1,-1.6,D,1250.4,4,12.646,1,1.03,153,24.87,-80.1376035,25.91277218,0,0,1,N,3.609747,66,66,11,34,34,27.73821,0,9999.99,3.85,3.977,2,9,29.9,0,29.89999962,44.53,1555.22068,10/21/21,11:55:34,27.39,65.73,44.53,1.114,7.79,-47.2,-4.7,-1.7,-4522,85.5,5.28,13.1,
25.91267187,-80.13765349,19:19.7,10/21/21,5,0.987,52.85,-7.127411662,1.5,50,45.72,1.58,-2.73,35.5,0,3.85,3.85,90,26,497.9,16.1,-1.6,D,1250.4,4,12.223,1,1.06,153,24.15,-80.1376035,25.91277218,0,0,1,N,3.334895,66,66,11,52,52,27.00978,0,9999.99,3.86,3.987,2,9,29.9,0,29.89999962,44.54,1555.23133,10/21/21,11:55:35,27.39,65.73,44.54,1.112,7.81,-48.2,-3.3,-2.5,-1208,85.6,5.28,12.8,
25.9126746,-80.13764999,19:20.7,10/21/21,5,1.001,50.51,-7.127411662,1.5,45.9,41.61,1.58,-2.25,35.5,0,3.82,3.82,90,26,497.9,16.1,-1.6,D,1259.4,4,11.805,1,1.05,153,23.2,-80.1376035,25.91277218,0,0,1,N,3.028883,66,66,11,65,65,26.04306,0,9999.99,3.83,3.957,2,9,29.9,0,29.89999962,44.55,1555.24174,10/21/21,11:55:36,27.39,65.75,44.55,1.111,7.79,-47.1,-4.4,-3.9,-1085,85.8,5.29,13.1,
25.91267785,-80.13764664,19:21.8,10/21/21,5,0.994,45.91,-7.127411662,1.5,40.7,36.38,1.72,-2.89,35.6,0,3.77,3.77,90,26,497.9,16.1,-1.6,D,1259.4,4,11.342,1,1.04,153,22.36,-80.1376035,25.91277218,0,0,1,N,2.749857,67,67,11,82,82,25.2252,0,9999.99,3.78,3.907,2,9,29.9,0,29.89999962,44.55,1555.24174,10/21/21,11:55:36,27.39,65.75,44.55,1.111,7.79,-47.1,-4.4,-3.9,-1085,85.8,5.29,13.1,
25.91268262,-80.13764338,19:22.8,10/21/21,5,1.023,39.3,-7.127411662,1.5,37.2,32.85,1.49,-3.29,35.5,0,3.78,3.78,90,26,497.9,16.1,-1.6,D,1259.4,4,10.728,1,1.04,153,21.83,-80.1376035,25.91277218,0,0,1,N,2.497961,66,66,11,94,94,24.84588,0,9999.99,3.79,3.917,2,9,29.9,0,29.89999962,44.54,1555.23124,10/21/21,11:55:38,27.39,65.74,44.54,1.106,7.79,-46.9,-3,-4.3,-4654,85.9,5.3,13.1,
25.91268634,-80.13764015,19:23.8,10/21/21,5,0.981,37.97,-7.127411662,1.5,35.2,30.82,1.36,-3.05,35.5,0,3.75,3.75,90,26,497.9,16.1,-1.6,D,1259.4,4,10.225,1,0.97,153,21.01,-80.1376035,25.91277218,0,0,1,N,2.237722,65,65,11,100,100,24.05411,0,9999.99,3.76,3.887,2,9,29.9,0,29.89999962,44.53,1555.22075,10/21/21,11:55:39,27.39,65.73,44.53,1.11,7.79,-47.2,-4.1,0.3,-4141,85.9,5.3,13,
25.91269087,-80.13763745,19:24.8,10/21/21,6,1.074,31.63,-7.127411662,1.43,33.4,29,1.13,-1.92,35.5,0,3.7,3.7,90,26,497.9,16.1,-1.6,D,1263.2,4,9.658,1,1.02,153,20.58,-80.1376035,25.91277218,0,0,1,N,2.044362,64,64,11,102,102,22.81981,0,9999.99,3.71,3.837,2,9,29.9,0,29.89999962,44.54,1555.23113,10/21/21,11:55:40,27.39,65.74,44.54,1.11,7.79,-47.2,-3.3,-2.4,-1344,86,5.3,13,
25.91269576,-80.13763475,19:25.9,10/21/21,6,1.034,27.1,-7.127411662,1.43,30.7,26.25,1.46,-2.41,35.5,0,3.67,3.67,90,26,497.9,16.1,-1.6,D,1263.2,4,9.054,1,1.05,153,20.19,-80.1376035,25.91277218,0,0,1,N,1.852554,66,66,11,108,108,21.52232,0,9999.99,3.68,3.807,2,9,29.9,0,29.89999962,44.54,1555.23113,10/21/21,11:55:41,27.4,65.74,44.54,1.117,7.8,-47.4,-3.1,-2.6,-4073,86.2,5.32,13.1,
25.9127005,-80.13763217,19:27.0,10/21/21,6,1.023,21.09,-7.127411662,1.43,28.6,24.12,1.34,-3.12,35.5,0,3.64,3.64,90,26,497.9,16.1,-1.6,D,1263.2,4,8.45,1,1.06,153,20.11,-80.1376035,25.91277218,0,0,1,N,1.721966,64,64,11,115,115,20.63282,0,9999.99,3.65,3.777,2,9,29.9,0,29.89999962,44.55,1555.2416,10/21/21,11:55:42,27.4,65.75,44.55,1.123,7.8,-47.3,-2.5,-0.8,-4712,86.2,5.32,13.1,
25.912706,-80.13762957,19:28.1,10/21/21,6,1.097,19.18,-7.127411662,1.43,27.7,23.2,1.17,-2.48,35.5,0,3.6,3.6,90,26,497.9,16.1,-1.6,D,1270.9,4,7.808,1,1.08,153,19.51,-80.1376035,25.91277218,0,0,1,N,1.553337,63,63,11,110,110,19.17411,0,9999.99,3.61,3.737,2,9,29.9,0,29.89999962,44.54,1555.23112,10/21/21,11:55:43,27.4,65.74,44.54,1.115,7.81,-48.1,-4.3,-0.1,-2832,86.2,5.32,12.9,
25.91271067,-80.13762775,19:29.1,10/21/21,6,1.133,16.81,-7.127411662,1.43,26.4,21.87,1.17,-2.68,35.5,0,3.56,3.56,90,26,497.9,16.1,-1.6,D,1270.9,4,7.257,1,1.09,153,19.52,-80.1376035,25.91277218,0,0,1,N,1.410514,64,64,11,112,112,18.43545,0,9999.99,3.57,3.697,2,9,29.9,0,29.89999962,44.51,1555.19974,10/21/21,11:55:44,27.4,65.71,44.51,1.112,7.79,-47.2,-4.4,-1.8,-1529,86.3,5.33,13.2,
25.91271567,-80.1376258,19:30.1,10/21/21,6,1.168,14.85,-7.127411662,1.43,25.6,21.06,1.14,-2.48,35.5,0,3.51,3.51,90,26,497.9,16.1,-1.6,D,1250.2,4,6.667,1,1.05,153,19.54,-80.1376035,25.91277218,0,0,1,N,1.308793,64,64,11,113,113,17.64902,0,9999.99,3.52,3.647,2,9,29.8,0,29.89999962,44.51,1555.19978,10/21/21,11:55:45,27.39,65.7,44.51,1.108,7.79,-47.2,-3.9,-4.3,-4168,86.5,5.34,13.1,
25.91272033,-80.13762383,19:31.1,10/21/21,6,1.074,14.6,-7.127411662,1.43,23.9,19.32,1.15,-1.52,35.5,0,3.44,3.44,90,26,497.9,16.1,-1.6,D,1250.2,4,6.15,1,1.07,153,19.67,-80.1376035,25.91277218,0,0,1,N,1.20279,63,63,11,117,117,17.03558,0,9999.99,3.45,3.577,2,9,29.8,0,29.79999924,44.51,1554.99947,10/21/21,11:55:46,27.38,65.7,44.51,1.113,7.79,-46.9,-3.7,-7.8,-3193,86.5,5.34,13.1,
25.91272594,-80.13762166,19:32.1,10/21/21,6,1.088,13.18,-7.127411662,1.43,22.5,17.89,0.91,-2.65,35.5,0,3.31,3.31,90,26,497.9,16.1,-1.6,D,1250.2,4,5.453,1,1.08,153,19.46,-80.1376035,25.91277218,0,0,1,N,1.098678,62,62,11,119,119,15.92778,0,9999.99,3.32,3.447,2,9,29.8,0,29.79999924,44.5,1554.98901,10/21/21,11:55:48,27.36,65.68,44.5,1.116,7.79,-47.1,-4.2,-1.9,-1648,86.6,5.34,13.1,
25.91273104,-80.13762016,19:33.1,10/21/21,6,1.122,11.67,-7.127411662,1.43,20.6,15.95,0.89,-4.51,35.5,0,3.3,3.3,90,26,497.8,16.1,-1.6,D,1270.8,5,11.62,1,1.11,153,313.86,-80.13770394,25.91280345,0,0,1,N,4.981639,62,62,11,5,5,321.3185,0,9999.99,3.31,3.437,2,9,29.8,0,29.79999924,44.51,1554.99944,10/21/21,11:55:49,27.35,65.7,44.51,1.119,7.8,-47.3,-3.1,-4.8,-3314,86.5,5.34,13,
25.91273587,-80.1376182,19:34.1,10/21/21,6,1.093,13.59,-7.127411662,1.43,17.9,13.19,1,-4.75,35.4,0,3.19,3.19,90,26,497.8,16.1,-1.6,D,1270.8,5,11.401,1,1.09,153,311.23,-80.13770394,25.91280345,0,0,1,N,4.371329,63,63,11,5,5,317.544,0,9999.99,3.2,3.327,2,9,29.8,0,29.79999924,44.51,1554.99944,10/21/21,11:55:49,27.35,65.7,44.51,1.119,7.8,-47.3,-3.1,-4.8,-3314,86.5,5.34,13,
25.91274046,-80.13761709,19:35.2,10/21/21,6,0.986,10.55,-7.127411662,1.43,12.8,7.98,1.36,-4.53,35.5,0,2.98,2.98,90,26,497.8,16.1,-1.6,D,1270.8,5,11.159,1,1.09,153,308.88,-80.13770394,25.91280345,0,0,1,N,3.82293,65,65,11,5,5,314.1817,0,9999.99,2.99,3.117,2,9,29.8,0,29.79999924,44.52,1555.00993,10/21/21,11:55:51,27.35,65.71,44.52,1.11,7.8,-47.4,-4,-5.3,-3870,86.6,5.35,13,
25.91274578,-80.13761603,19:36.2,10/21/21,6,0.983,9.94,-7.127411662,1.43,6.6,1.63,1.36,-2.79,35.5,0,2.92,2.92,90,26,497.8,16.1,-1.6,D,1270.8,5,10.882,1,1.05,153,306.11,-80.13770394,25.91280345,0,0,1,N,3.254887,65,65,11,5,5,311.2258,0,9999.99,2.93,3.057,2,9,29.8,0,29.79999924,44.52,1555.00993,10/21/21,11:55:51,27.35,65.71,44.52,1.11,7.8,-47.4,-4,-5.3,-3870,86.6,5.35,13,
25.91274992,-80.13761606,19:37.2,10/21/21,6,1.039,4.55,-7.127411662,1.43,1.4,356.31,1.41,-3.31,35.5,0,2.88,2.88,90,26,497.8,16.1,-1.6,D,1264.6,5,10.615,1,1.04,153,304.11,-80.13770394,25.91280345,0,0,1,N,2.803292,65,65,11,5,5,308.3653,0,9999.99,2.89,3.017,2,9,29.8,0,29.79999924,44.51,1554.99942,10/21/21,11:55:53,27.37,65.7,44.51,1.093,7.79,-47,-4.5,-2.8,-2366,86.8,5.36,13.1,
25.91275432,-80.13761682,19:38.2,10/21/21,6,1.069,359.61,-7.127411662,1.43,355.6,350.38,1.75,-2.95,35.5,0,2.73,2.73,90,26,497.8,16.1,-1.6,D,1264.6,5,10.284,1,1.02,153,302.09,-80.13770394,25.91280345,0,0,1,N,2.331106,67,67,11,5,5,305.4691,0,9999.99,2.74,2.867,2,9,29.8,0,29.79999924,44.5,1554.98901,10/21/21,11:55:54,27.37,65.69,44.5,1.111,7.79,-47.1,-4.5,-4.7,-4567,86.8,5.36,13.1,
25.91275935,-80.1376184,19:39.2,10/21/21,6,1.026,353.29,-7.127411662,1.43,349.5,344.15,1.97,-3.31,35.6,0,2.6,2.6,90,26,497.8,16.1,-1.6,D,1270,5,9.861,1,1.01,153,299.82,-80.13770394,25.91280345,0,0,1,N,1.887282,68,68,11,5,5,302.3653,0,9999.99,2.61,2.737,2,9,29.8,0,29.79999924,44.5,1554.98918,10/21/21,11:55:55,27.38,65.69,44.5,1.109,7.79,-46.9,-3.3,-6.8,-1115,86.8,5.36,13,
25.91276381,-80.13761986,19:40.2,10/21/21,6,0.979,347.97,-7.127411662,1.43,343.8,338.35,1.65,-3.32,35.5,0,2.69,2.69,90,26,497.8,16.1,-1.6,D,1270,5,9.495,1,1.01,153,297.66,-80.13770394,25.91280345,0,0,1,N,1.462735,67,67,11,5,5,299.4533,0,9999.99,2.7,2.827,2,9,29.8,0,29.79999924,44.5,1554.98918,10/21/21,11:55:55,27.38,65.69,44.5,1.109,7.79,-46.9,-3.3,-6.8,-1115,86.8,5.36,13,
25.91276808,-80.13762165,19:41.2,10/21/21,6,0.938,343.12,-7.127411662,1.43,338.6,333.06,1.69,-3.09,35.5,0,2.7,2.7,90,26,497.8,16.1,-1.6,D,1270,5,9.122,1,1,153,295.54,-80.13770394,25.91280345,0,0,1,N,1.07293,67,67,11,5,5,296.7308,0,9999.99,2.72,2.847,2,9,29.8,0,29.79999924,44.5,1554.98906,10/21/21,11:55:57,27.39,65.69,44.5,1.094,7.79,-47,-3.8,-6.9,-1840,86.8,5.36,13.1,
25.91277222,-80.13762365,19:42.2,10/21/21,6,1.003,339.57,-7.127411662,1.43,330.5,324.84,1.69,-3.57,35.5,0,2.72,2.73,90,26,497.8,16.1,-1.6,D,1254.5,5,8.749,1,0.99,153,293.39,-80.13770394,25.91280345,0,0,1,N,0.7011509,67,67,11,5,5,294.1011,0,9999.99,2.74,2.867,2,9,29.8,0,29.79999924,44.5,1554.98906,10/21/21,11:55:57,27.39,65.69,44.5,1.094,7.79,-47,-3.8,-6.9,-1840,86.8,5.36,13.1,
25.91277612,-80.13762607,19:43.3,10/21/21,6,0.993,335.36,-7.127411662,1.43,325.5,319.78,1.92,-2.63,35.5,0,2.8,2.8,90,26,497.8,16.1,-1.6,D,1254.5,5,8.359,1,0.97,153,291.31,-80.13770394,25.91280345,0,0,1,N,0.3592016,69,69,11,15,15,291.6635,0,9999.99,2.81,2.937,2,9,29.8,0,29.79999924,44.51,1554.99957,10/21/21,11:55:58,27.4,65.71,44.51,1.102,7.79,-47.1,-3.7,-5.9,-1824,86.8,5.36,13.1,
25.91277997,-80.13762947,19:44.3,10/21/21,6,0.969,327.16,-7.127411662,1.43,318.6,312.8,1.75,-2.98,35.5,0,2.82,2.82,90,26,497.8,16.1,-1.6,D,1254.5,5,7.892,1,0.98,153,289.32,-80.13770394,25.91280345,0,0,1,N,5.38E-02,67,67,11,33,33,289.4775,0,9999.99,2.83,2.957,2,9,29.8,0,29.79999924,44.5,1554.98895,10/21/21,11:56:00,27.41,65.68,44.5,1.092,7.78,-46.3,-4.5,-1.4,-1617,86.8,5.35,13.1,
25.91278347,-80.13763349,19:45.3,10/21/21,6,0.994,320.38,-7.127411662,1.43,312.5,306.63,1.8,-2.99,35.5,0,2.95,2.95,90,26,497.8,16.1,-1.6,D,1254.5,5,7.388,1,1,153,287.5,-80.13770394,25.91280345,0,0,1,N,0.1887843,68,68,11,51,51,287.7405,0,9999.99,2.96,3.087,2,9,29.8,0,29.79999924,44.5,1554.98895,10/21/21,11:56:00,27.41,65.68,44.5,1.092,7.78,-46.3,-4.5,-1.4,-1617,86.8,5.35,13.1,
25.91278629,-80.1376373,19:46.3,10/21/21,6,0.988,313.8,-7.127411662,1.43,308.1,302.19,1.64,-3,35.5,0,3.11,3.11,90,26,497.8,16.1,-1.6,D,1251.5,5,6.932,1,1.01,153,285.98,-80.13770394,25.91280345,0,0,1,N,0.3618105,67,67,11,64,64,286.5025,0,9999.99,3.13,3.257,2,9,29.8,0,29.79999924,44.5,1554.98896,10/21/21,11:56:01,27.41,65.68,44.5,1.1,7.8,-47.3,-4.1,-5.2,-3252,86.8,5.35,13.1,
25.91278882,-80.13764156,19:47.3,10/21/21,6,0.994,309.73,-7.127411662,1.43,302.5,296.52,1.35,-2.61,35.5,0,3.2,3.2,90,26,497.8,16.1,-1.6,D,1251.5,5,6.448,1,1.01,153,284.61,-80.13770394,25.91280345,0,0,1,N,0.4943764,65,65,11,83,83,285.5557,0,9999.99,3.21,3.337,2,9,29.8,0,29.79999924,44.49,1554.97849,10/21/21,11:56:02,27.42,65.67,44.49,1.109,7.79,-47.1,-4.1,-2.9,-4395,86.9,5.36,13.1,
25.91279107,-80.13764598,19:48.4,10/21/21,6,1,304.38,-7.127411662,1.43,299.1,293.07,1.08,-3.03,35.5,0,3.27,3.27,90,26,497.8,16.1,-1.6,D,1251.5,6,20.386,1,1.03,153,260.8,-80.13784719,25.91276176,0,0,1,N,3.133138,63,63,11,17,17,265.6774,0,9999.99,3.28,3.407,2,9,29.8,0,29.79999924,44.47,1554.9575,10/21/21,11:56:03,27.42,65.65,44.47,1.099,7.79,-47,-5.8,-5.1,-3448,86.9,5.36,12.9,
25.91279365,-80.13765107,19:49.4,10/21/21,6,1.044,300.64,-7.127411662,1.43,293.7,287.59,1.5,-3.75,35.5,0,3.32,3.32,90,26,497.7,16.1,-1.6,D,1243.8,6,19.933,1,1.05,153,259.75,-80.13784719,25.91276176,0,0,1,N,2.709557,66,66,11,34,34,264.2306,0,9999.99,3.33,3.457,2,9,29.8,0,29.79999924,44.49,1554.97843,10/21/21,11:56:05,27.41,65.67,44.49,1.096,7.79,-46.7,-4.8,-1.6,-1611,87,5.37,13.1,
25.91279518,-80.1376561,19:50.4,10/21/21,6,1.025,294.89,-7.127411662,1.43,286.5,280.26,1.4,-3.33,35.5,0,3.35,3.35,90,26,497.7,16.1,-1.6,D,1243.8,6,19.47,1,1.02,153,259,-80.13784719,25.91276176,0,0,1,N,2.378824,65,65,11,54,54,263.1437,0,9999.99,3.36,3.487,2,9,29.8,0,29.79999924,44.49,1554.97843,10/21/21,11:56:05,27.41,65.67,44.49,1.096,7.79,-46.7,-4.8,-1.6,-1611,87,5.37,13.1,
25.91279625,-80.13766136,19:51.4,10/21/21,6,1.023,289.97,-7.127411662,1.43,281.6,275.25,1.6,-2.62,35.5,0,3.38,3.38,90,26,497.7,16.1,-1.6,D,1243.8,6,18.977,1,1.02,153,258.34,-80.13784719,25.91276176,0,0,1,N,2.105174,67,67,11,75,75,262.2531,0,9999.99,3.4,3.527,2,9,29.8,0,29.79999924,44.48,1554.96798,10/21/21,11:56:06,27.4,65.66,44.48,1.09,7.79,-46.9,-3.1,-7.7,-1752,87,5.37,13.1,
25.91279644,-80.13766576,19:52.4,10/21/21,6,0.982,284.77,-7.127411662,1.43,278.3,271.87,1.45,-2.43,35.5,0,3.4,3.41,90,26,497.7,16.1,-1.6,D,1243.8,6,18.552,1,1.05,153,258,-80.13784719,25.91276176,0,0,1,N,1.937931,66,66,11,87,87,261.8015,0,9999.99,3.42,3.547,2,9,29.8,0,29.79999924,44.51,1554.99952,10/21/21,11:56:07,27.4,65.7,44.51,1.102,7.79,-46.9,-3.6,-3.9,-5090,87,5.37,12.9,
25.91279732,-80.13767086,19:53.4,10/21/21,6,1.003,280.77,-7.127411662,1.43,274.9,268.37,1.21,-2.11,35.6,0,3.46,3.46,90,26,497.7,16.1,-1.6,D,1252.8,6,18.073,1,1.05,153,257.36,-80.13784719,25.91276176,0,0,1,N,1.686765,64,64,11,97,97,260.8928,0,9999.99,3.47,3.597,2,9,29.8,0,29.79999924,44.49,1554.97853,10/21/21,11:56:08,27.42,65.68,44.49,1.106,7.79,-47,-5.2,-4.6,-412,87.1,5.37,13.1,
25.91279778,-80.13767612,19:54.4,10/21/21,6,0.997,276.99,-7.127411662,1.43,272,265.38,1.08,-1.88,35.6,0,3.46,3.46,90,26,497.7,16.1,-1.6,D,1252.8,6,17.572,1,1.06,153,256.82,-80.13784719,25.91276176,0,0,1,N,1.474903,64,64,11,104,104,260.1418,0,9999.99,3.47,3.597,2,9,29.7,0,29.70000076,44.49,1554.77744,10/21/21,11:56:09,27.42,65.68,44.49,1.092,7.79,-47,-3.9,-3,-3129,87.1,5.37,13.2,
25.91279792,-80.13768134,19:55.4,10/21/21,6,1.023,273.96,-7.127411662,1.43,270.8,264.15,1.13,-3.3,35.6,0,3.53,3.53,90,26,497.7,16.1,-1.6,D,1252.8,6,17.069,1,1.08,153,256.37,-80.13784719,25.91276176,0,0,1,N,1.301676,64,64,11,108,108,259.534,0,9999.99,3.54,3.667,2,9,29.7,0,29.70000076,44.49,1554.77744,10/21/21,11:56:11,27.44,65.68,44.49,1.099,7.79,-46.8,-4.1,-5,-1403,87.2,5.37,13,
25.91279833,-80.13768707,19:56.4,10/21/21,6,1.176,275.33,-7.127411662,1.43,269,262.29,1.29,-1.48,35.5,0,3.54,3.54,90,26,497.7,16.1,-1.6,D,1253.6,6,16.522,1,1.08,153,255.75,-80.13784719,25.91276176,0,0,1,N,1.076663,65,65,11,112,112,258.5918,0,9999.99,3.55,3.677,2,9,29.7,0,29.70000076,44.48,1554.76696,10/21/21,11:56:12,27.44,65.66,44.48,1.118,7.79,-46.7,-3.2,-7.7,-2747,87.2,5.38,13.1,
25.91279846,-80.1376944,19:57.4,10/21/21,6,1.09,272.63,-7.127411662,1.43,266.9,260.11,1.09,-4.59,35.6,0,3.57,3.57,90,26,497.7,16.1,-1.6,D,1253.6,6,15.817,1,1.06,153,255.05,-80.13784719,25.91276176,0,0,1,N,0.83446,64,64,11,117,117,257.5129,0,9999.99,3.58,3.707,2,9,29.7,0,29.70000076,44.5,1554.78795,10/21/21,11:56:13,27.44,65.69,44.5,1.122,7.78,-46.6,-2.3,-6.1,-2589,87.2,5.37,13.2,
25.9127982,-80.13769873,19:58.4,10/21/21,6,1.081,265.97,-7.127411662,1.43,265.1,258.25,0.98,-3.19,35.6,0,3.58,3.58,90,26,497.7,16.1,-1.6,D,1253.6,6,15.392,1,1.07,153,254.74,-80.13784719,25.91276176,0,0,1,N,0.7275819,63,63,11,122,122,257.0441,0,9999.99,3.59,3.717,2,9,29.7,0,29.70000076,44.5,1554.78795,10/21/21,11:56:13,27.44,65.69,44.5,1.122,7.78,-46.6,-2.3,-6.1,-2589,87.2,5.37,13.2,
25.91279768,-80.13770418,19:59.4,10/21/21,6,1.059,263.8,-7.127411662,1.43,265.1,258.25,1.03,-3.33,35.5,0,3.6,3.6,90,26,497.7,16.1,-1.6,D,1253.6,6,14.851,1,1.08,153,254.4,-80.13784719,25.91276176,0,0,1,N,0.6179174,63,63,11,120,120,256.4928,0,9999.99,3.61,3.737,2,9,29.7,0,29.70000076,44.47,1554.75649,10/21/21,11:56:14,27.44,65.66,44.47,1.098,7.77,-45.7,-3.9,-2.3,-3901,87.2,5.37,13.1,
25.91279729,-80.13770864,20:00.4,10/21/21,7,1.029,266.14,-7.127411662,1.43,263.9,257,1.22,-2.4,35.6,0,3.61,3.61,90,26,497.7,16.1,-1.6,D,1248.1,6,14.409,1,1.08,153,254.09,-80.13784719,25.91276176,0,0,1,N,0.5160139,64,64,11,122,122,255.7615,0,9999.99,3.62,3.747,2,9,29.7,0,29.70000076,44.48,1554.76699,10/21/21,11:56:16,27.43,65.67,44.48,1.103,7.79,-46.8,-3.8,-0.2,-3088,87.2,5.38,13.1,
25.91279701,-80.13771375,20:01.4,10/21/21,7,1.111,265.53,-7.127411662,1.43,263,256.07,1.11,-2.98,35.6,0,3.64,3.64,90,26,497.7,16.1,-1.6,D,1248.1,6,13.91,1,1.1,153,253.63,-80.13784719,25.91276176,0,0,1,N,0.3892535,64,64,11,122,122,254.8568,0,9999.99,3.65,3.777,2,9,29.7,0,29.70000076,44.48,1554.76699,10/21/21,11:56:16,27.43,65.67,44.48,1.103,7.79,-46.8,-3.8,-0.2,-3088,87.2,5.38,13.1,
25.91279627,-80.1377197,20:02.4,10/21/21,7,1.046,263.93,-7.127411662,1.43,261.6,254.61,1.14,-2.12,35.6,0,3.64,3.64,90,26,497.7,16.1,-1.6,D,1248.1,6,13.316,1,1.08,153,253.25,-80.13784719,25.91276176,0,0,1,N,0.2803167,65,65,11,125,125,254.0774,0,9999.99,3.65,3.777,2,9,29.7,0,29.70000076,44.48,1554.7671,10/21/21,11:56:17,27.43,65.67,44.48,1.099,7.78,-46.3,-5.2,-5.1,-4087,87.2,5.38,13.1,
25.91279574,-80.13772546,20:03.5,10/21/21,7,1.067,261.66,-7.127411662,1.43,260.3,253.26,1.14,-2.59,35.5,0,3.65,3.65,90,26,497.6,16.1,-1.6,D,1273.4,6,12.748,1,1.08,153,252.76,-80.13784719,25.91276176,0,0,1,N,0.158553,64,64,11,125,125,253.2059,0,9999.99,3.66,3.787,2,9,29.7,0,29.70000076,44.46,1554.74604,10/21/21,11:56:18,27.42,65.64,44.46,1.104,7.79,-46.9,-3.5,-4,-3163,87.2,5.38,13.1,
25.91279498,-80.13773015,20:04.5,10/21/21,7,1.056,259.55,-7.127411662,1.43,259.4,252.32,1.02,-2.75,35.5,0,3.67,3.67,90,26,497.6,16.1,-1.6,D,1273.4,6,12.274,1,1.07,153,252.49,-80.13784719,25.91276176,0,0,1,N,9.31E-02,63,63,11,129,129,252.7374,0,9999.99,3.68,3.807,2,9,29.7,0,29.70000076,44.48,1554.76698,10/21/21,11:56:20,27.41,65.66,44.48,1.101,7.79,-46.7,-4.1,0.7,-1105,87,5.37,13.1,
25.912794,-80.13773579,20:05.5,10/21/21,7,1.08,260.07,-7.127411662,1.43,258.4,251.28,1.04,-2.83,35.5,0,3.68,3.68,90,26,497.6,16.1,-1.6,D,1273.4,6,11.704,1,1.06,153,252.16,-80.13784719,25.91276176,0,0,1,N,2.13E-02,63,63,11,131,131,252.2231,0,9999.99,3.69,3.817,2,9,29.7,0,29.70000076,44.48,1554.76698,10/21/21,11:56:20,27.41,65.66,44.48,1.101,7.79,-46.7,-4.1,0.7,-1105,87,5.37,13.1,
25.91279296,-80.13774153,20:06.5,10/21/21,7,1.043,258.1,-7.127411662,1.43,257.4,250.24,1.01,-3.06,35.5,0,3.72,3.72,90,26,497.6,16.1,-1.6,D,1273.4,6,11.122,1,1.07,153,251.82,-80.13784719,25.91276176,0,0,1,N,0.0469254,63,63,11,133,133,251.7345,0,9999.99,3.73,3.857,2,9,29.7,0,29.70000076,44.5,1554.78793,10/21/21,11:56:21,27.41,65.69,44.5,1.094,7.78,-46.6,-2.9,-3.4,-4257,86.9,5.36,13,
25.912792,-80.13774597,20:07.5,10/21/21,7,1.097,255.09,-7.127411662,1.43,256.7,249.51,1.01,-2.98,35.5,0,3.77,3.77,90,25,497.6,16.1,-1.6,D,1288.5,6,10.668,1,1.08,153,251.63,-80.13784719,25.91276176,0,0,1,N,8.27E-02,63,63,11,133,133,251.4785,0,9999.99,3.78,3.907,2,9,29.7,0,29.70000076,44.47,1554.75654,10/21/21,11:56:23,27.4,65.65,44.47,1.121,7.79,-46.7,-5.9,-4.4,-3641,86.9,5.36,13,
25.91279067,-80.13775152,20:08.5,10/21/21,7,1.027,254.25,-7.127411662,1.43,256.7,249.51,1.13,-3.33,35.5,0,3.79,3.79,90,25,497.6,16.1,-1.6,D,1288.5,6,10.095,1,1.1,153,251.43,-80.13784719,25.91276176,0,0,1,N,0.1140229,64,64,11,134,134,251.2539,0,9999.99,3.8,3.927,2,9,29.7,0,29.70000076,44.45,1554.73554,10/21/21,11:56:24,27.4,65.63,44.45,1.11,7.79,-46.7,-3,-1.2,-879,86.8,5.36,13.1,
25.91278933,-80.1377567,20:09.5,10/21/21,7,1.107,256.21,-7.127411662,1.43,255.7,248.46,1.1,-2.74,35.5,0,3.82,3.82,90,25,497.6,16.1,-1.6,D,1288.5,6,9.555,1,1.11,153,251.28,-80.13784719,25.91276176,0,0,1,N,0.1324821,64,64,11,137,137,251.1218,0,9999.99,3.83,3.957,2,9,29.7,0,29.70000076,44.45,1554.73554,10/21/21,11:56:24,27.4,65.63,44.45,1.11,7.79,-46.7,-3,-1.2,-879,86.8,5.36,13.1,
25.91278778,-80.13776152,20:10.5,10/21/21,7,1.071,254.21,-7.127411662,1.43,255.5,248.26,1.1,-2.91,35.5,0,3.85,3.85,90,26,497.6,16.1,-1.6,D,1285.1,6,9.043,1,1.11,153,251.34,-80.13784719,25.91276176,0,0,1,N,0.1162827,64,64,11,139,139,251.2377,0,9999.99,3.86,3.987,2,9,29.7,0,29.70000076,44.43,1554.71458,10/21/21,11:56:25,27.39,65.59,44.43,1.11,7.79,-46.7,-5.2,1.1,-3727,86.9,5.36,13,
25.91278637,-80.13776682,20:11.5,10/21/21,7,1.051,251.85,-7.127411662,1.43,255.4,248.15,1.02,-3.23,35.5,0,3.85,3.85,90,26,497.6,16.1,-1.6,D,1285.1,6,8.491,1,1.1,153,251.2,-80.13784719,25.91276176,0,0,1,N,0.1313932,63,63,11,139,139,251.1295,0,9999.99,3.86,3.987,2,9,29.7,0,29.70000076,44.45,1554.73555,10/21/21,11:56:27,27.37,65.62,44.45,1.087,7.77,-45.8,-3.4,-10.1,-4732,86.8,5.36,12.9,
25.91278511,-80.13777266,20:12.5,10/21/21,7,1.112,254,-7.127411662,1.43,254.9,247.63,1.17,-1.66,35.5,0,3.88,3.88,90,25,497.6,16.1,-1.5,D,1298.8,6,7.894,1,1.1,153,250.8,-80.13784719,25.91276176,0,0,1,N,0.1781557,64,64,11,140,140,250.7948,0,9999.99,3.89,4.017,2,9,29.7,0,29.70000076,44.45,1554.73555,10/21/21,11:56:27,27.37,65.62,44.45,1.087,7.77,-45.8,-3.4,-10.1,-4732,86.8,5.36,12.9,
25.91278377,-80.13777822,20:13.5,10/21/21,7,1.076,255.07,-7.127411662,1.43,255.7,248.46,1.02,-3.51,35.5,0,3.89,3.89,90,25,497.6,16.1,-1.5,D,1298.8,6,7.32,1,1.09,153,250.46,-80.13784719,25.91276176,0,0,1,N,0.2076091,63,63,11,135,135,250.584,0,9999.99,3.9,4.027,2,9,29.7,0,29.70000076,44.42,1554.70413,10/21/21,11:56:28,27.37,65.59,44.42,1.101,7.79,-46.7,-5.3,-3.7,-1577,86.9,5.37,13.1,
25.91278215,-80.13778403,20:14.5,10/21/21,8,1.098,255.42,-7.127411662,1.43,255.7,248.46,1.1,-2.06,35.5,0,3.88,3.88,90,25,497.6,16.1,-1.5,D,1298.8,6,6.712,1,1.12,152,250.25,-80.13784719,25.91276176,0,0,1,N,0.2159844,64,64,11,135,135,250.524,0,9999.99,3.89,4.017,2,9,29.7,0,29.70000076,44.48,1554.76698,10/21/21,11:56:29,27.37,65.66,44.48,1.106,7.79,-46.7,-2.6,-3.3,-3320,86.9,5.36,13.2,
25.91278064,-80.13778985,20:15.5,10/21/21,8,1.125,253.27,-7.127411662,1.43,256.1,248.88,1.15,-3.37,35.5,0,3.88,3.88,90,25,497.6,16.1,-1.5,D,1298.8,7,6.107,1,1.11,160,249.89,-80.13784719,25.91276176,0,0,6,N,0.2407029,64,64,11,131,131,249.8968,0,9999.99,3.89,4.017,2,9,29.7,0,29.70000076,44.49,1554.7775,10/21/21,11:56:31,27.44,65.68,44.49,1.105,7.79,-46.9,-3.6,-7.1,-1824,86.7,5.34,12.9,
25.91277951,-80.13779538,20:16.5,10/21/21,7,1.143,253.79,-7.127411662,1.43,256.6,249.4,1.34,-2.48,35.5,0,3.83,3.83,90,25,497.6,16.1,-1.6,D,1293.9,7,5.545,1,1.11,160,249.14,-80.13784719,25.91276176,0,0,6,N,0.2407029,65,65,11,126,126,249.176,0,9999.99,3.84,3.967,2,9,29.7,0,29.70000076,44.49,1554.7775,10/21/21,11:56:31,27.44,65.68,44.49,1.105,7.79,-46.9,-3.6,-7.1,-1824,86.7,5.34,12.9,
25.91277781,-80.13780148,20:17.5,10/21/21,7,1.187,253.66,-7.127411662,1.43,255.8,248.57,0.95,-1.01,35.5,0,3.75,3.75,90,25,497.6,16.1,-1.6,D,1293.9,7,4.908,1,1.13,128,248.68,-80.13784719,25.91276176,0,0,6,N,0.2407029,63,63,11,128,128,248.6992,0,9999.99,3.76,3.887,2,9,29.7,0,29.70000076,44.47,1554.75656,10/21/21,11:56:33,27.5,65.65,44.47,1.098,7.78,-46.5,-3.5,-7.5,-568,86.6,5.33,13.1,
25.9127758,-80.13780796,20:18.5,10/21/21,7,1.21,253.16,-7.127411662,1.43,255,247.73,0.64,-6.02,35.5,0,3.67,3.67,90,25,497.6,16.1,-1.6,D,1293.9,7,4.223,1,1.18,128,248.3,-80.13784719,25.91276176,0,0,6,N,0.2407029,61,61,11,129,129,248.3244,0,9999.99,3.67,3.797,2,9,29.7,0,29.70000076,44.47,1554.75656,10/21/21,11:56:33,27.5,65.65,44.47,1.098,7.78,-46.5,-3.5,-7.5,-568,86.6,5.33,13.1,
25.91277461,-80.13781338,20:19.5,10/21/21,7,1.095,255.44,-7.127411662,1.43,254.5,247.21,1.27,-2.8,35.5,0,3.68,3.68,90,23,497.5,16.1,-1.4,D,1398.7,7,3.671,1,1.16,128,247.09,-80.13784719,25.91276176,0,0,6,N,0.2407029,65,65,11,127,127,247.1234,0,9999.99,3.69,3.817,2,9,29.7,0,29.70000076,44.47,1554.75648,10/21/21,11:56:34,27.52,65.65,44.47,1.102,7.78,-46.4,-3,-2.6,-3133,86.6,5.33,13.1,
25.91277382,-80.13781826,20:20.5,10/21/21,7,1.003,255,-7.127411662,1.43,253.8,246.48,1.11,-4.67,35.5,0,3.46,3.46,90,23,497.5,16.1,-1.4,D,1398.7,7,3.19,1,1.08,128,245.13,-80.13784719,25.91276176,0,0,6,N,0.2407029,65,65,11,120,120,245.21,0,9999.99,3.47,3.597,2,9,29.7,0,29.70000076,44.41,1554.69386,10/21/21,11:56:36,27.55,65.58,44.41,1.088,7.78,-46.7,-3.7,-0.8,-3952,86.6,5.33,13,
25.91277236,-80.13782251,20:21.5,10/21/21,7,0.89,252.95,-7.127411662,1.43,253,245.64,1.11,-4.35,35.5,0,3.38,3.38,90,23,497.5,16.1,-1.4,D,1398.7,7,2.735,1,1.03,128,244.47,-80.13784719,25.91276176,0,0,6,N,0.2407029,64,64,11,120,120,244.3807,0,9999.99,3.39,3.517,2,9,29.7,0,29.70000076,44.41,1554.69386,10/21/21,11:56:36,27.55,65.58,44.41,1.088,7.78,-46.7,-3.7,-0.8,-3952,86.6,5.33,13,
25.91277074,-80.13782715,20:22.5,10/21/21,7,0.886,250.26,-7.127411662,1.43,251.9,244.49,1.05,-3.79,35.5,0,3.4,3.4,90,23,497.5,16.1,-1.4,D,1398.7,7,2.239,1,0.91,128,243.51,-80.13784719,25.91276176,0,0,6,N,0.2407029,63,63,11,123,123,243.4978,0,9999.99,3.41,3.537,2,9,29.7,0,29.70000076,44.41,1554.69367,10/21/21,11:56:37,27.56,65.58,44.41,1.088,7.79,-46.7,-3.3,-4.9,-1472,86.6,5.33,13.1,
25.91276939,-80.13783074,20:23.6,10/21/21,7,0.813,249.86,-7.127411662,1.43,252,244.6,1.17,-4.96,35.5,0,3.3,3.3,90,22,497.5,16.1,-1.3,D,1484.9,7,1.851,1,0.85,128,242.71,-80.13784719,25.91276176,0,0,6,N,0.2407029,64,64,11,120,120,242.7449,0,9999.99,3.31,3.437,2,9,29.7,0,29.70000076,44.39,1554.67269,10/21/21,11:56:39,27.56,65.55,44.39,1.078,7.79,-46.8,-2.9,-4.7,-2018,86.5,5.33,13,
25.91276868,-80.13783406,20:24.6,10/21/21,7,0.651,249.86,-7.127411662,1.43,251.6,244.18,1.05,-5.1,35.5,0,3.23,3.23,90,22,497.5,16.1,-1.3,D,1484.9,7,1.519,1,0.78,128,239.63,-80.13784719,25.91276176,0,0,6,N,0.2407029,63,63,11,109,109,239.7861,0,9999.99,3.24,3.367,2,9,29.7,0,29.70000076,44.39,1554.67269,10/21/21,11:56:39,27.56,65.55,44.39,1.078,7.79,-46.8,-2.9,-4.7,-2018,86.5,5.33,13,
25.91276786,-80.13783711,20:25.6,10/21/21,7,0.663,249.86,-7.127411662,1.43,251,243.55,1.05,-4.45,35.4,0,3.16,3.16,90,22,497.5,16.1,-1.3,D,1484.9,7,1.216,1,0.73,128,236.09,-80.13784719,25.91276176,0,0,6,N,0.2407029,63,63,11,98,98,236.3488,0,9999.99,3.17,3.297,2,9,29.7,0,29.70000076,44.37,1554.65174,10/21/21,11:56:40,27.54,65.52,44.37,1.088,7.8,-47.6,-3.8,-4.1,-584,86.4,5.32,13.2,
25.91276744,-80.13783924,20:26.6,10/21/21,7,0.487,249.86,-7.127411662,1.43,250.9,243.44,1.06,-5.67,35.4,0,3.12,3.12,90,22,497.5,16.1,-1.3,D,1494.4,7,1.018,1,0.68,128,231.53,-80.13784719,25.91276176,0,0,6,N,0.2407029,64,64,11,79,79,232.0348,0,9999.99,3.13,3.257,2,9,29.7,0,29.70000076,44.39,1554.67268,10/21/21,11:56:42,27.48,65.55,44.39,1.08,7.78,-46.6,-1.9,-3.5,-1067,86.3,5.32,13.1,
25.91276647,-80.13784197,20:27.6,10/21/21,7,0.547,249.86,-7.127411662,1.43,250,242.5,1.06,-5.25,35.5,0,3.07,3.07,90,22,497.5,16.1,-1.3,D,1494.4,7,0.735,1,0.63,128,224.89,-80.13784719,25.91276176,0,0,6,N,0.2407029,63,63,11,60,60,225.7513,0,9999.99,3.08,3.207,2,9,29.7,0,29.70000076,44.39,1554.67268,10/21/21,11:56:42,27.48,65.55,44.39,1.08,7.78,-46.6,-1.9,-3.5,-1067,86.3,5.32,13.1,
25.91276633,-80.13784413,20:28.6,10/21/21,7,0.506,249.86,-7.127411662,1.43,249,241.45,0.8,-5.48,35.5,0,3.03,3.03,90,22,497.5,16.1,-1.3,D,1494.4,7,0.593,1,0.59,128,211.08,-80.13784719,25.91276176,0,0,6,N,0.2407029,62,62,11,12,12,212.6551,0,9999.99,3.04,3.167,2,9,29.6,0,29.70000076,44.41,1554.69372,10/21/21,11:56:43,27.46,65.57,44.41,1.09,7.78,-46.4,-4.3,-4.3,-1815,86.2,5.32,12.9,
25.91276546,-80.13784675,20:29.6,10/21/21,7,0.525,249.86,-7.127411662,1.43,247.1,239.46,1.23,-5.06,35.4,0,3,3,90,22,497.5,16.1,-1.3,D,1494.4,7,0.414,1,0.55,128,186.08,-80.13784719,25.91276176,0,0,6,N,0.2407029,64,64,11,5,5,189.4289,0,9999.99,3.01,3.137,2,9,29.7,0,29.70000076,44.4,1554.68325,10/21/21,11:56:45,27.44,65.56,44.4,1.114,7.78,-46.6,-3.5,-2.7,-3302,86.2,5.32,13.1,
25.91276478,-80.13784929,20:30.6,10/21/21,7,0.506,249.86,-7.127411662,1.43,245,237.25,1,-5.56,35.5,0,2.97,2.97,90,22,497.5,16.1,-1.3,D,1480.4,7,0.391,1,0.52,128,148.01,-80.13784719,25.91276176,0,0,6,N,0.2407029,63,63,11,5,5,152.2814,0,9999.99,2.98,3.107,2,9,29.7,0,29.70000076,44.4,1554.68325,10/21/21,11:56:45,27.44,65.56,44.4,1.114,7.78,-46.6,-3.5,-2.7,-3302,86.2,5.32,13.1,
25.91276406,-80.13785138,20:31.6,10/21/21,7,0.39,249.86,-7.127411662,1.43,242.8,234.94,1.11,-4.54,35.4,0,2.96,2.96,90,22,497.5,16.1,-1.3,D,1480.4,7,0.493,1,0.48,128,121.42,-80.13784719,25.91276176,0,0,6,N,0.2407029,64,64,11,5,5,124.3257,0,9999.99,2.97,3.097,2,9,29.7,0,29.70000076,44.42,1554.70412,10/21/21,11:56:46,27.43,65.58,44.42,1.087,7.78,-46.6,-3,-5.4,-3199,86.1,5.31,13.2,
25.91276319,-80.13785328,20:32.6,10/21/21,7,0.427,249.86,-7.127411662,1.43,240.9,232.94,1.13,-4.6,35.5,0,2.93,2.93,90,22,497.5,16.1,-1.3,D,1480.4,7,0.63,1,0.45,128,104.63,-80.13784719,25.91276176,0,0,6,N,0.2407029,64,64,11,5,5,106.4535,0,9999.99,2.94,3.067,2,9,29.6,0,29.60000038,44.42,1554.50244,10/21/21,11:56:48,27.44,65.59,44.42,1.09,7.78,-46.6,-4.9,-5.3,-3698,86,5.3,13.1,
25.9127627,-80.13785465,20:33.6,10/21/21,7,0.255,249.86,-7.127411662,1.43,239.1,231.05,1.16,-5.9,35.5,0,2.85,2.85,90,22,497.4,16.1,-1.3,D,1489,7,0.748,1,0.42,128,97.98,-80.13784719,25.91276176,0,0,6,N,0.2407029,64,64,11,5,5,99.29945,0,9999.99,2.86,2.987,2,9,29.7,0,29.60000038,44.42,1554.50244,10/21/21,11:56:48,27.44,65.59,44.42,1.09,7.78,-46.6,-4.9,-5.3,-3698,86,5.3,13.1,
25.91276277,-80.13785687,20:34.6,10/21/21,7,0.381,249.86,-7.127411662,1.43,236.9,228.73,1.04,-5.96,35.5,0,2.76,2.76,90,22,497.4,16.1,-1.3,D,1489,7,0.973,1,0.4,128,96.6,-80.13784719,25.91276176,0,0,6,N,0.2407029,63,63,11,5,5,97.56846,0,9999.99,2.77,2.897,2,9,29.6,0,29.70000076,44.41,1554.69379,10/21/21,11:56:49,27.45,65.57,44.41,1.083,7.79,-47.2,-3,-9.4,-2049,85.9,5.3,13.2,
25.91276229,-80.1378578,20:35.6,10/21/21,8,0.305,249.86,-7.127411662,1.43,234.1,225.78,1.04,-3.83,35.5,0,2.74,2.74,90,22,497.4,16.1,-1.3,D,1489,7,1.061,1,0.38,128,93.2,-80.13784719,25.91276176,0,0,6,N,0.2407029,63,63,11,5,5,94.07678,0,9999.99,2.75,2.877,2,9,29.6,0,29.60000038,44.4,1554.48147,10/21/21,11:56:51,27.43,65.57,44.4,1.091,7.78,-46.5,-3.6,-9.6,-923,85.7,5.29,13,
25.91276106,-80.13785904,20:36.6,10/21/21,8,0.29,249.86,-7.127411662,1.18,231.8,223.36,1.14,-6.06,35.4,0,2.72,2.72,90,22,497.4,16.1,-1.3,D,1489,7,1.19,1,0.36,128,86.24,-80.13784719,25.91276176,0,0,6,N,0.2407029,64,64,11,5,5,86.89935,0,9999.99,2.73,2.857,2,9,29.7,0,29.60000038,44.4,1554.48147,10/21/21,11:56:51,27.43,65.57,44.4,1.091,7.78,-46.5,-3.6,-9.6,-923,85.7,5.29,13,
25.91276003,-80.13786063,20:37.6,10/21/21,7,0.344,249.86,-7.127411662,1.18,231.2,222.73,1.14,-5.8,35.4,0,2.72,2.72,90,22,497.4,16.1,-1.3,D,1492.1,7,1.359,1,0.35,128,81.88,-80.13784719,25.91276176,0,0,6,N,0.2407029,64,64,11,5,5,82.40353,0,9999.99,2.73,2.857,2,9,29.6,0,29.70000076,44.43,1554.71467,10/21/21,11:56:52,27.42,65.59,44.43,1.067,7.78,-46.4,-3.6,-2.3,-2333,85.7,5.28,13.2,
25.9127589,-80.13786174,20:38.7,10/21/21,7,0.293,249.86,-7.127411662,1.18,227.8,219.14,0.87,-4.06,35.5,0,2.72,2.72,90,22,497.4,16.1,-1.3,D,1492.1,7,1.492,1,0.33,128,77.68,-80.13784719,25.91276176,0,0,6,N,0.2407029,62,62,11,5,5,78.11094,0,9999.99,2.73,2.857,2,9,29.6,0,29.60000038,44.41,1554.49199,10/21/21,11:56:54,27.43,65.58,44.41,1.085,7.78,-46.5,-2.8,-1.1,-1051,85.4,5.27,13.2,
25.91275767,-80.13786277,20:39.7,10/21/21,7,0.258,249.86,-7.127411662,1.18,225.9,217.14,1.11,-6.28,35.5,0,2.89,2.89,90,22,497.4,16.1,-1.3,D,1492.1,7,1.622,1,0.31,128,73.73,-80.13784719,25.91276176,0,0,6,N,0.2407029,64,64,11,5,5,74.07775,0,9999.99,2.9,3.027,2,9,29.7,0,29.60000038,44.41,1554.49199,10/21/21,11:56:54,27.43,65.58,44.41,1.085,7.78,-46.5,-2.8,-1.1,-1051,85.4,5.27,13.2,
25.91275679,-80.13786359,20:40.7,10/21/21,8,0.242,249.86,-7.127411662,1.18,224,215.14,1.28,-3.84,35.4,0,2.9,2.9,90,22,497.4,16.1,-1.3,D,1493,7,1.73,1,0.29,128,71.37,-80.13784719,25.91276176,0,0,6,N,0.2407029,65,65,11,5,5,71.68456,0,9999.99,2.91,3.037,2,9,29.6,0,29.70000076,44.41,1554.69368,10/21/21,11:56:55,27.43,65.58,44.41,1.084,7.78,-46.5,-3.2,-4.9,-4078,85.2,5.26,13.1,
25.912756,-80.13786452,20:41.7,10/21/21,8,0.217,249.86,-7.127411662,1.18,221.3,212.3,1.04,-3.71,35.5,0,2.91,2.91,90,22,497.4,16.1,-1.3,D,1493,7,1.848,1,0.27,128,69.73,-80.13784719,25.91276176,0,0,6,N,0.2407029,63,63,11,5,5,70.00446,0,9999.99,2.92,3.047,2,9,29.7,0,29.70000076,44.4,1554.6833,10/21/21,11:56:57,27.42,65.56,44.4,1.076,7.78,-46.6,-3.4,-6.5,-2834,85,5.25,13,
25.91275507,-80.13786527,20:42.7,10/21/21,7,0.196,249.86,-7.127411662,1.18,220.9,211.88,0.88,-7.33,35.5,0,2.94,2.94,90,22,497.4,16.1,-1.3,D,1493,7,1.953,1,0.26,128,67.65,-80.13784719,25.91276176,0,0,6,N,0.2407029,62,62,11,5,5,67.87932,0,9999.99,2.95,3.077,2,9,29.6,0,29.70000076,44.4,1554.6833,10/21/21,11:56:57,27.42,65.56,44.4,1.076,7.78,-46.6,-3.4,-6.5,-2834,85,5.25,13,
25.91275408,-80.13786675,20:43.7,10/21/21,8,0.273,249.86,-7.127411662,1.18,218.7,209.57,0.99,-5.06,35.4,0,2.97,2.97,90,22,497.4,16.1,-1.3,D,1493,7,2.136,1,0.24,128,66.41,-80.13784719,25.91276176,0,0,6,N,0.2407029,63,63,11,5,5,66.64183,0,9999.99,2.98,3.107,2,9,29.6,0,29.60000038,44.4,1554.48151,10/21/21,11:56:58,27.42,65.56,44.4,1.079,7.77,-45.6,-2.9,-4.2,-2760,84.8,5.23,13.2,
25.91275274,-80.13786744,20:44.7,10/21/21,8,0.219,249.86,-7.127411662,1.18,216,206.73,1.09,-3.7,35.5,0,2.98,2.98,90,22,497.4,16.1,-1.3,D,1482.3,7,2.261,1,0.24,128,63.65,-80.13784719,25.91276176,0,0,6,N,0.2407029,64,64,11,5,5,63.8592,0,9999.99,2.99,3.117,2,9,29.6,0,29.60000038,44.4,1554.48147,10/21/21,11:57:00,27.41,65.56,44.4,1.072,7.77,-45.5,-2.3,-3.8,-4157,84.9,5.24,13.1,
25.91275193,-80.13786843,20:45.7,10/21/21,8,0.224,249.86,-7.127411662,1.18,215.6,206.31,0.92,-7.09,35.5,0,2.99,2.99,90,22,497.4,16.1,-1.3,D,1482.3,7,2.389,1,0.23,128,62.78,-80.13784719,25.91276176,0,0,6,N,0.2407029,63,63,11,5,5,62.95922,0,9999.99,3,3.127,2,9,29.6,0,29.60000038,44.4,1554.48147,10/21/21,11:57:00,27.41,65.56,44.4,1.072,7.77,-45.5,-2.3,-3.8,-4157,84.9,5.24,13.1,
25.9127508,-80.13786958,20:46.7,10/21/21,8,0.283,249.86,-7.127411662,1.18,213.8,204.42,0.95,-5.1,35.4,0,3.01,3.01,90,22,497.4,16.1,-1.3,D,1482.3,7,2.547,1,0.22,128,61.44,-80.13784719,25.91276176,0,0,6,N,0.2407029,63,63,11,5,5,61.59991,0,9999.99,3.02,3.147,2,9,29.6,0,29.60000038,44.41,1554.49195,10/21/21,11:57:01,27.42,65.57,44.41,1.075,7.78,-46.2,-1.7,-3.7,-2353,84.8,5.23,13,
25.91274946,-80.13787069,20:47.7,10/21/21,8,0.193,249.86,-7.127411662,1.18,212,202.54,1.06,-5.4,35.4,0,3.03,3.03,90,22,497.4,16.1,-1.3,D,1482.3,7,2.72,1,0.22,128,59.8,-80.13784719,25.91276176,0,0,6,N,0.2407029,63,63,11,5,5,59.95534,0,9999.99,3.04,3.167,2,9,29.6,0,29.60000038,44.41,1554.49195,10/21/21,11:57:03,27.44,65.57,44.41,1.083,7.78,-46.5,-3.4,-3,-1885,84.7,5.22,13.1,
25.91274833,-80.137872,20:48.7,10/21/21,8,0.27,249.86,-7.127411662,1.18,210.8,201.29,1.06,-4.93,35.5,0,3.02,3.02,90,22,497.4,16.1,-1.3,D,1496.3,7,2.895,1,0.2,128,58.97,-80.13784719,25.91276176,0,0,6,N,0.2407029,63,63,11,5,5,59.11382,0,9999.99,3.03,3.157,2,9,29.6,0,29.60000038,44.41,1554.49195,10/21/21,11:57:03,27.44,65.57,44.41,1.083,7.78,-46.5,-3.4,-3,-1885,84.7,5.22,13.1,
25.91274717,-80.1378728,20:49.7,10/21/21,8,0.17,249.86,-7.127411662,1.18,209,199.41,1.06,-5.34,35.5,0,3.02,3.02,90,22,497.4,16.1,-1.3,D,1496.3,7,3.032,1,0.2,128,57.65,-80.13784719,25.91276176,0,0,6,N,0.2407029,63,63,11,5,5,57.77911,0,9999.99,3.03,3.157,2,9,29.6,0,29.60000038,44.39,1554.47099,10/21/21,11:57:04,27.44,65.55,44.39,1.086,7.78,-46.3,-2.7,-2.6,-1657,84.6,5.22,13.2,
25.91274568,-80.13787343,20:50.7,10/21/21,8,0.223,249.86,-7.127411662,1.18,208.5,198.88,1.2,-5.2,35.5,0,3.02,3.02,90,22,497.4,16.1,-1.3,D,1496.3,7,3.176,1,0.19,128,55.74,-80.13784719,25.91276176,0,0,6,N,0.2407029,64,64,11,5,5,55.85262,0,9999.99,3.03,3.157,2,9,29.6,0,29.60000038,44.38,1554.46056,10/21/21,11:57:06,27.45,65.54,44.38,1.09,7.78,-46.5,-3.1,-1.1,-3288,84.4,5.21,13.3,
25.91274457,-80.13787391,20:51.7,10/21/21,8,0.258,249.86,-7.127411662,1.18,206.9,197.22,0.89,-5.84,35.5,0,3.02,3.02,90,22,497.3,16.1,-1.3,D,1494,7,3.286,1,0.18,128,54.43,-80.13784719,25.91276176,0,0,6,N,0.2407029,62,62,11,5,5,54.53092,0,9999.99,3.03,3.157,2,9,29.7,0,29.60000038,44.38,1554.46056,10/21/21,11:57:06,27.45,65.54,44.38,1.09,7.78,-46.5,-3.1,-1.1,-3288,84.4,5.21,13.3,