Latitude,Longitude,Time,Date,Number of Sats,GPS Speed (Kn),GPS True Heading,GPS Magnetic Variation,HDOP,C Magnetic Heading,C True Heading,Pitch Angle,Roll Angle,C Inside Temp (c),DFS Depth (m),DTB Height (m),Total Water Column (m),Batt Percent,Power Watts,Watt-Hours,Batt Volts,Batt Ampers,Batt State,Time to Empty,Current Step,Dist To Next (m),Next Speed (kn),Vehicle Speed (kn),Motor Speed CMD,Next Heading,Next Long,Next Lat,Next Depth (m),Depth Goal (m),Vehicle State,Error State,Distance to Track (m),Fin Pitch R,Fin Pitch L,Pitch Goal,Fin Yaw T,Fin Yaw B,Yaw Goal,Fin Roll,DVL-Depth (m),DVL -Altitude (m),DVL -Water Column (m),DVL-FixType,DVL-FixQuality,DVL-Temperature,Conductivity (mmhos/cm),Temperature (c),Salinity (ppt),Sound Speed (m/s),Date m/d/y   ,Time hh:mm:ss,Temp C,SpCond mS/cm,Sal ppt,Depth feet,pH,pH mV,Turbid+ NTU,Chl ug/L,BGA-PC cells/mL,ODOsat %,ODO mg/L,Battery volts,ROSEM Command Type,
25.9097835,-80.1373215,12:05:15.97,8/28/2022,8,0.187,147.66,-7.21052280767524,1.32,45.1,40.73,0.78,-9.9,36.8,.01,.18,.18,84,21,464.3,15.9,-1.3,D,1439.5,19,333.959,0,0.08,128,350.17,-80.13789169,25.91274273,0,0,0,N,0.594453,90,90,11,128,128,98.95628,0,9999.99,.18,0.307,0,0,33.6,0,33.5999984741211,38.25,1555.79943,08/28/22,11:38:20,32.38,57.74,38.25,0.893,8.14,-68.7,-0.5,-3.9,17811,100.8,5.95,12.9,,
25.9097831666667,-80.1373205,12:05:16.98,8/28/2022,8,0.3,147.66,-7.21052298286081,1.32,43.8,39.42,0.72,2.97,36.8,.01,.18,.18,84,21,464.3,15.9,-1.3,D,1439.5,19,334.012,0,0.08,128,350.15,-80.13789169,25.91274273,0,0,0,N,0.594453,90,90,11,128,128,98.95628,0,9999.99,.18,0.307,0,0,33.6,0,33.5999984741211,38.25,1555.79943,08/28/22,11:38:20,32.38,57.74,38.25,0.893,8.14,-68.7,-0.5,-3.9,17811,100.8,5.95,12.9,,
25.9097835,-80.1373206666667,12:05:17.98,8/28/2022,8,0.182,147.66,-7.21052353048807,1.32,44.1,39.72,0.97,-3.74,36.8,.01,.18,.18,84,21,464.3,15.9,-1.3,D,1439.5,19,333.973,0,0.08,128,350.15,-80.13789169,25.91274273,0,0,0,N,0.594453,90,90,11,128,128,98.95628,0,9999.99,.18,0.307,0,0,33.6,0,33.5999984741211,38.35,1555.90141,08/28/22,11:38:22,32.39,57.87,38.35,0.888,8.14,-68.7,-1.3,-2.9,17570,100.7,5.94,12.9,,
25.9097836666667,-80.1373188333333,12:05:18.98,8/28/2022,8,0.225,147.66,-7.21052347600114,1.32,42.8,38.41,1.01,7.35,36.9,.01,.18,.18,84,21,464.3,15.9,-1.3,D,1412.1,19,333.986,0,0.08,128,350.12,-80.13789169,25.91274273,0,0,0,N,0.594453,90,90,11,128,128,98.95628,0,9999.99,.18,0.307,0,0,33.6,0,33.5999984741211,38.35,1555.90141,08/28/22,11:38:22,32.39,57.87,38.35,0.888,8.14,-68.7,-1.3,-2.9,17570,100.7,5.94,12.9,,
25.9097853333333,-80.1373203333333,12:05:19.98,8/28/2022,8,0.768,147.66,-7.21052458298045,1.32,44.1,39.72,1.16,-14.7,36.9,.01,.18,.18,84,21,464.3,15.9,-1.3,D,1412.1,19,333.778,0,0.08,128,350.14,-80.13789169,25.91274273,0,0,0,N,0.594453,90,90,11,128,128,98.95628,0,9999.99,.18,0.307,0,0,33.6,0,33.5999984741211,38.26,1555.80959,08/28/22,11:38:24,32.39,57.75,38.26,0.862,8.14,-68.7,-0.7,-3.8,20487,100.7,5.94,12.9,,
25.9097846666667,-80.1373195,12:05:20.98,8/28/2022,9,0.443,147.66,-7.21052391603363,1.32,44.4,40.02,0.9,0.95,36.8,.01,.18,.18,84,21,464.3,15.9,-1.3,D,1412.1,19,333.865,0,0.08,128,350.13,-80.13789169,25.91274273,0,0,0,N,0.594453,90,90,11,128,128,98.95628,0,9999.99,.18,0.307,0,0,33.6,0,33.5999984741211,38.26,1555.80959,08/28/22,11:38:24,32.39,57.75,38.26,0.862,8.14,-68.7,-0.7,-3.8,20487,100.7,5.94,12.9,,
25.9097838333333,-80.1373183333333,12:05:21.98,8/28/2022,10,0.067,147.66,-7.21052432089165,1.32,41.3,36.9,1.53,-6.02,36.8,.01,.18,.19,84,21,464.3,15.9,-1.3,D,1412.1,19,333.976,0,0.08,128,350.11,-80.13789169,25.91274273,0,0,0,N,0.594453,90,90,11,128,128,98.95628,0,9999.99,.18,0.307,0,0,33.6,0,33.5999984741211,38.27,1555.8199,08/28/22,11:38:26,32.38,57.76,38.27,0.855,8.14,-68.7,-2.2,-7.4,11208,101.1,5.97,12.9,,
25.9097836666667,-80.1373185,12:05:23.00,8/28/2022,10,0.158,147.66,-7.2105249009352,1.32,43.2,38.82,1.12,-10.9,36.8,.01,.18,.18,84,21,464.3,15.9,-1.3,D,1456.8,19,333.992,0,0.08,128,350.12,-80.13789169,25.91274273,0,0,0,N,0.594453,90,90,11,128,128,98.95628,0,9999.99,.18,0.307,0,0,33.6,0,33.5999984741211,38.27,1555.8199,08/28/22,11:38:26,32.38,57.76,38.27,0.855,8.14,-68.7,-2.2,-7.4,11208,101.1,5.97,12.9,,
25.9097826666667,-80.1373165,12:05:24.00,8/28/2022,9,0.351,147.66,-7.21052478023655,1.32,43.7,39.32,1.12,-2.76,36.9,.01,.18,.18,84,21,464.3,15.9,-1.3,D,1456.8,19,334.136,0,0.08,128,350.09,-80.13789169,25.91274273,0,0,0,N,0.594453,90,90,11,128,128,98.95628,0,9999.99,.18,0.307,0,0,33.6,0,33.5999984741211,38.27,1555.82003,08/28/22,11:38:28,32.37,57.76,38.27,0.863,8.14,-68.9,0.6,-4.7,14417,101.5,5.99,12.9,,
25.909783,-80.1373165,12:05:25.00,8/28/2022,9,0.328,147.66,-7.21052583134983,1.32,42.7,38.31,1.4,-12.3,36.9,.01,.18,.19,84,21,464.3,15.9,-1.3,D,1456.8,19,334.099,0,0.08,128,350.08,-80.13789169,25.91274273,0,0,0,N,0.594453,90,90,11,128,128,98.95628,0,9999.99,.18,0.307,0,0,33.6,0,33.5999984741211,38.27,1555.82003,08/28/22,11:38:28,32.37,57.76,38.27,0.863,8.14,-68.9,0.6,-4.7,14417,101.5,5.99,12.9,,
25.9097828333333,-80.1373176666667,12:05:26.02,8/28/2022,9,0.187,147.66,-7.21052587549098,1.32,41.8,37.41,1.59,-12.7,36.9,.01,.18,.19,84,21,464.2,15.9,-1.3,D,1438.3,19,334.097,0,0.08,128,350.11,-80.13789169,25.91274273,0,0,0,N,0.594453,90,90,11,128,128,98.95628,0,9999.99,.18,0.307,0,0,33.6,0,33.5999984741211,38.45,1556.00371,08/28/22,11:38:30,32.36,58.00,38.45,0.867,8.14,-68.6,0.5,-3.3,12038,101.4,5.98,12.9,,
25.9097825,-80.1373171666667,12:05:27.03,8/28/2022,9,0.052,147.66,-7.21052516302399,1.32,44.5,40.12,1,-5.16,36.9,.01,.18,.18,84,21,464.2,15.9,-1.3,D,1438.3,19,334.143,0,0.08,128,350.1,-80.13789169,25.91274273,0,0,0,N,0.594453,90,90,11,128,128,98.95628,0,9999.99,.18,0.307,0,0,33.6,0,33.5999984741211,38.45,1556.00371,08/28/22,11:38:30,32.36,58.00,38.45,0.867,8.14,-68.6,0.5,-3.3,12038,101.4,5.98,12.9,,
25.9097815,-80.137317,12:05:28.03,8/28/2022,8,0.303,147.66,-7.21052541476702,1.32,43.5,39.12,0.77,0.26,36.9,.01,.18,.18,84,21,464.2,15.9,-1.3,D,1438.3,19,334.255,0,0.08,128,350.1,-80.13789169,25.91274273,0,0,0,N,0.594453,90,90,11,128,128,98.95628,0,9999.99,.18,0.307,0,0,33.6,0,33.5999984741211,38.38,1555.93211,08/28/22,11:38:32,32.36,57.91,38.38,0.887,8.14,-68.7,-1.8,-3.0,13894,101.5,5.99,12.9,,
25.9097821666667,-80.1373166666666,12:05:29.03,8/28/2022,8,0.176,147.66,-7.2105253809716,1.32,41.7,37.31,0.72,-3.1,36.8,.01,.18,.18,84,21,464.2,15.9,-1.3,D,1438.3,19,334.188,0,0.08,128,350.09,-80.13789169,25.91274273,0,0,0,N,0.594453,90,90,11,128,128,98.95628,0,9999.99,.18,0.307,0,0,33.6,0,33.5999984741211,38.38,1555.93211,08/28/22,11:38:32,32.36,57.91,38.38,0.887,8.14,-68.7,-1.8,-3.0,13894,101.5,5.99,12.9,,
25.9097843333333,-80.137316,12:05:30.05,8/28/2022,8,0.355,147.66,-7.21052566651005,1.32,43.9,39.52,0.42,-1.58,36.9,.00,.18,.18,84,21,464.2,15.9,-1.3,D,1424.4,19,333.962,0,0.08,128,350.07,-80.13789169,25.91274273,0,0,0,N,0.594453,90,90,11,128,128,98.95628,0,9999.99,.18,0.307,0,0,33.6,0,33.5999984741211,38.26,1555.8096,08/28/22,11:38:34,32.37,57.75,38.26,0.880,8.14,-68.7,-1.9,-1.9,13745,101.5,5.99,12.9,,
25.9097855,-80.1373161666667,12:05:31.05,8/28/2022,9,0.393,147.66,-7.21052634793979,1.32,45.4,41.03,0.48,-0.73,36.9,.00,.18,.18,84,21,464.2,15.9,-1.3,D,1424.4,19,333.831,0,0.08,128,350.07,-80.13789169,25.91274273,0,0,0,N,0.594453,90,90,11,128,128,98.95628,0,9999.99,.18,0.307,0,0,33.6,0,33.5999984741211,38.26,1555.8096,08/28/22,11:38:34,32.37,57.75,38.26,0.880,8.14,-68.7,-1.9,-1.9,13745,101.5,5.99,12.9,,
25.9097863333333,-80.1373173333333,12:05:32.06,8/28/2022,10,0.294,147.66,-7.21052640380575,1.32,46.5,42.13,0.59,-10.8,36.9,.00,.18,.18,84,21,464.2,15.9,-1.3,D,1424.4,19,333.720,0,0.08,128,350.09,-80.13789169,25.91274273,0,0,0,N,0.594453,90,90,11,128,128,98.95628,0,9999.99,.18,0.307,0,0,33.6,0,33.5999984741211,38.19,1555.73795,08/28/22,11:38:36,32.36,57.65,38.19,0.886,8.13,-68.5,-0.4,-5.1,13181,101.7,6.01,12.9,,
25.9097863333333,-80.137317,12:05:33.09,8/28/2022,10,0.293,147.66,-7.21052582376222,1.32,46.3,41.93,0.64,-3.46,36.8,.00,.18,.18,84,21,464.2,15.9,-1.3,D,1424.4,19,333.725,0,0.08,128,350.08,-80.13789169,25.91274273,0,0,0,N,0.594453,90,90,11,128,128,98.95628,0,9999.99,.18,0.307,0,0,33.6,0,33.5999984741211,38.34,1555.89116,08/28/22,11:38:37,32.32,57.86,38.34,0.893,8.14,-68.7,-0.8,-1.5,11562,101.9,6.01,12.8,,
25.9097865,-80.1373171666667,12:05:34.13,8/28/2022,9,0.108,147.66,-7.21052602101835,1.32,45.5,41.13,0.73,-3.96,36.8,.01,.18,.18,84,21,464.2,15.9,-1.3,D,1444.6,19,333.704,0,0.08,128,350.08,-80.13789169,25.91274273,0,0,0,N,0.594453,90,90,11,128,128,98.95628,0,9999.99,.18,0.307,0,0,33.6,0,33.5999984741211,38.15,1555.69728,08/28/22,11:38:38,32.34,57.60,38.15,0.903,8.14,-68.6,-1.8,-5.2,13619,101.9,6.02,12.9,,
25.9097871666667,-80.137318,12:05:35.13,8/28/2022,10,0.281,147.66,-7.21052594446087,1.32,47.3,42.93,1.12,-11.3,36.8,.01,.18,.18,84,21,464.2,15.9,-1.3,D,1444.6,19,333.617,0,0.08,128,350.1,-80.13789169,25.91274273,0,0,0,N,0.594453,90,90,11,128,128,98.95628,0,9999.99,.18,0.307,0,0,33.6,0,33.5999984741211,38.59,1556.14648,08/28/22,11:38:39,32.33,58.19,38.59,0.899,8.14,-68.7,-1.9,-6.5,14380,101.9,6.01,12.9,,
25.909787,-80.137317,12:05:36.14,8/28/2022,9,0.393,147.66,-7.21052553960287,1.32,42,37.61,1.09,-4.65,36.9,.01,.18,.18,84,21,464.2,15.9,-1.3,D,1444.6,19,333.652,0,0.08,128,350.08,-80.13789169,25.91274273,0,0,0,N,0.594453,90,90,11,128,128,98.95628,0,9999.99,.18,0.307,0,0,33.6,0,33.5999984741211,38.23,1555.77932,08/28/22,11:38:40,32.32,57.71,38.23,0.894,8.14,-68.7,-2.8,-1.9,10486,101.9,6.02,12.8,,
25.9097868333333,-80.1373158333333,12:05:37.16,8/28/2022,9,0.143,147.66,-7.21052610930065,1.32,44.7,40.33,-1.95,-1.37,36.9,.00,.18,.16,84,21,464.2,15.9,-1.3,D,1420.2,19,333.691,0,0.08,128,350.06,-80.13789169,25.91274273,0,0,0,N,0.594453,90,90,11,128,128,98.95628,0,9999.99,.18,0.307,0,0,33.6,0,33.5999984741211,38.31,1555.85905,08/28/22,11:38:41,32.34,57.82,38.31,0.857,8.14,-68.7,-2.0,-2.8,12073,101.7,6.00,12.9,,
25.9097855,-80.1373163333333,12:05:38.16,8/28/2022,9,0.407,147.66,-7.21052677762649,1.32,45.1,40.73,0.55,-1.41,36.9,.00,.18,.18,84,21,464.2,15.9,-1.3,D,1420.2,19,333.828,0,0.08,128,350.07,-80.13789169,25.91274273,0,0,0,N,0.594453,90,90,11,128,128,98.95628,0,9999.99,.18,0.307,0,0,33.6,0,33.5999984741211,38.37,1555.91968,08/28/22,11:38:42,32.31,57.90,38.37,0.881,8.14,-68.7,-1.6,-2.5,14928,101.9,6.02,12.9,,
25.9097843333333,-80.1373186666667,12:05:39.16,8/28/2022,9,0.517,147.66,-7.2105263051777,1.81,47.3,42.93,1.3,3.65,36.9,.01,.18,.18,84,21,464.2,15.9,-1.3,D,1420.2,19,333.916,0,0.08,128,350.12,-80.13789169,25.91274273,0,0,0,N,0.594453,90,90,11,128,128,98.95628,0,9999.99,.18,0.307,0,0,33.6,0,33.5999984741211,16.33,1533.50099,08/28/22,11:38:43,32.24,26.88,16.33,0.858,8.14,-68.6,-3.3,23.4,13891,102.2,6.81,12.8,,
25.9097851666667,-80.1373191666667,12:05:40.16,8/28/2022,10,0.474,147.66,-7.2105247698908,1.81,50.1,45.73,-1.37,3.21,36.8,.00,.18,.17,84,21,464.2,15.9,-1.3,D,1420.2,19,333.816,0,0.08,128,350.12,-80.13789169,25.91274273,0,0,0,N,0.594453,90,90,11,128,128,98.95628,0,9999.99,.18,0.307,0,0,33.6,0,33.5999984741211,38.21,1555.75911,08/28/22,11:38:44,32.31,57.68,38.21,0.853,8.14,-68.6,-0.2,-5.6,11202,102.3,6.04,12.8,,
25.9097876666667,-80.1373185,12:05:41.16,8/28/2022,10,0.707,147.66,-7.2105245843595,1.81,54.9,50.51,-0.55,1.16,36.9,.00,.18,.17,84,21,464.2,15.9,-1.3,D,1435.9,19,333.554,0,0.08,128,350.1,-80.13789169,25.91274273,0,0,0,N,0.594453,90,90,11,128,128,98.95628,0,9999.99,.18,0.307,0,0,33.6,0,33.5999984741211,38.53,1556.0843,08/28/22,11:38:45,32.36,58.11,38.53,0.815,8.14,-68.6,-0.5,-6.5,12570,102.4,6.04,12.8,,
25.9097893333333,-80.137318,12:05:42.16,8/28/2022,10,0.174,147.66,-7.2105253099304,1.32,48.9,44.53,-0.4,-0.13,36.8,.00,.18,.17,84,21,464.2,15.9,-1.3,D,1435.9,19,333.380,0,0.08,128,350.09,-80.13789169,25.91274273,0,0,0,N,0.594453,90,90,11,128,128,98.95628,0,9999.99,.18,0.307,0,0,33.6,0,33.5999984741211,4.96,1521.98282,08/28/22,11:38:46,32.43,8.985,4.96,0.822,8.12,-67.6,-3.1,-3.3,14997,102.5,7.24,12.9,,
25.9097903333333,-80.1373181666667,12:05:43.16,8/28/2022,10,0.239,147.66,-7.21052582652036,1.32,48.5,44.13,-1.84,5.8,36.8,.00,.18,.16,84,21,464.2,15.9,-1.3,D,1435.9,19,333.267,0,0.08,128,350.09,-80.13789169,25.91274273,0,0,0,N,0.594453,90,90,11,128,128,98.95628,0,9999.99,.18,0.307,0,0,33.6,0,33.5999984741211,23,1540.27091,08/28/22,11:38:47,32.39,36.67,23.00,0.807,8.14,-68.7,0.0,-5.3,12281,102.3,6.56,12.9,,
25.9097878333333,-80.1373185,12:05:44.16,8/28/2022,10,0.532,147.66,-7.21052586031575,1.32,44.1,39.72,0.33,10.6,36.8,.00,.18,.18,84,21,464.2,15.9,-1.3,D,1429.5,19,333.535,0,0.08,128,350.1,-80.13789169,25.91274273,0,0,0,N,0.594453,90,90,11,128,128,98.95628,0,9999.99,.18,0.307,0,0,33.6,0,33.5999984741211,8.57,1525.63354,08/28/22,11:38:48,32.30,14.90,8.57,0.816,8.14,-68.9,2.0,-5.0,13521,102.4,7.11,12.9,,
25.9097841666667,-80.1373183333333,12:05:45.16,8/28/2022,10,0.608,147.66,-7.21052533200098,1.32,39.3,34.89,0.64,44.1,36.9,.00,.18,.18,84,21,464.2,15.9,-1.3,D,1429.5,19,333.940,0,0.08,128,350.11,-80.13789169,25.91274273,0,0,0,N,0.594453,90,90,11,128,128,98.95628,0,9999.99,.18,0.307,0,0,33.6,0,33.5999984741211,20.42,1537.65194,08/28/22,11:38:49,32.45,32.95,20.42,0.842,8.14,-68.6,1.5,23.3,17328,102.3,6.64,12.8,,
25.9097845,-80.1373153333333,12:05:46.16,8/28/2022,10,0.523,147.66,-7.21052494507635,1.01,33,28.5,0.67,41.6,36.8,.00,.18,.18,84,21,464.2,15.9,-1.3,D,1429.5,19,333.955,0,0.08,128,350.06,-80.13789169,25.91274273,0,0,0,N,0.594453,90,90,11,128,128,98.95628,0,9999.99,.18,0.307,0,0,33.6,0,33.5999984741211,38.3,1555.85036,08/28/22,11:38:50,32.35,57.80,38.30,0.914,8.14,-68.7,1.3,-5.5,21846,102.5,6.05,13.0,,
25.9097868333333,-80.1373121666667,12:05:47.17,8/28/2022,9,0.532,147.66,-7.2105267645226,1.32,18.8,14.03,0.7,43.3,36.9,.00,.18,.18,84,21,464.2,15.9,-1.3,D,1429.5,19,333.754,0,0.08,128,350,-80.13789169,25.91274273,0,0,0,N,0.594453,90,90,11,128,128,98.95628,0,9999.99,.18,0.307,0,0,33.6,0,33.5999984741211,38.01,1555.55435,08/28/22,11:38:51,32.40,57.42,38.01,0.935,8.14,-68.8,-0.7,-8.4,52806,102.7,6.07,12.8,,
25.9097861666667,-80.1373091666667,12:05:48.19,8/28/2022,9,0.439,147.66,-7.21052894744369,1.32,6.1,1.03,-0.32,44,36.9,.00,.18,.17,84,21,464.1,15.9,-1.3,D,1418.9,19,333.880,0,0.08,128,349.95,-80.13789169,25.91274273,0,0,0,N,0.594453,90,90,11,128,128,98.95628,0,9999.99,.18,0.307,0,0,33.6,0,33.5999984741211,38.1,1555.64649,08/28/22,11:38:52,32.37,57.55,38.10,0.918,8.14,-68.8,1.6,2.1,60055,102.6,6.06,13.1,,
25.9097853333333,-80.1373061666667,12:05:49.19,8/28/2022,9,0.982,147.66,-7.21053063446627,1.32,358.3,353.05,-0.15,39,36.9,.00,.18,.17,84,21,464.1,15.9,-1.3,D,1418.9,19,334.023,0,0.08,128,349.9,-80.13789169,25.91274273,0,0,0,N,0.594453,90,90,11,128,128,98.95628,0,.38,.18,0.687,0,0,33.6,0,33.5999984741211,38.16,1555.70717,08/28/22,11:38:53,32.37,57.62,38.16,0.964,8.13,-68.5,-1.1,-2.1,58230,102.9,6.08,12.6,,
25.9097826666667,-80.1373036666667,12:05:50.19,8/28/2022,9,0.981,147.66,-7.21053229941814,1.32,0.5,355.3,-0.69,24.3,36.8,.00,.12,.12,84,21,464.1,15.9,-1.3,D,1418.9,19,334.359,0,0.08,128,349.87,-80.13789169,25.91274273,0,0,0,N,0.594453,90,90,11,128,128,98.95628,0,9999.99,.12,0.247,0,0,33.6,0,33.5999984741211,38.3,1555.8499,08/28/22,11:38:54,32.30,57.80,38.30,0.934,8.14,-68.8,0.2,-4.5,60800,102.9,6.08,12.8,,
25.9097821666667,-80.1373036666667,12:05:51.19,8/28/2022,10,0.704,147.66,-7.21053342570942,1.32,9.8,4.82,1.61,-7.08,36.8,.01,.17,.18,84,21,464.1,15.9,-1.3,D,1427.2,19,334.414,0,0.08,128,349.87,-80.13789169,25.91274273,0,0,0,N,0.594453,90,90,11,128,128,98.95628,0,.47,.17,0.767,0,0,33.6,0,33.5999984741211,38.19,1555.73809,08/28/22,11:38:55,32.30,57.66,38.19,1.043,8.14,-68.8,1.9,0.4,58164,103.3,6.11,13.0,,
25.9097815,-80.1373038333333,12:05:52.19,8/28/2022,10,0.319,147.66,-7.21053335949768,1.32,6,0.93,-1.04,16.1,36.8,.00,.21,.21,84,21,464.1,15.9,-1.3,D,1427.2,19,334.484,0,0.08,128,349.88,-80.13789169,25.91274273,0,0,0,N,0.594453,90,90,11,128,128,98.95628,0,9999.99,.25,0.377,0,0,33.6,0,33.5999984741211,38.45,1556.00516,08/28/22,11:38:56,32.26,58.00,38.45,0.973,8.14,-68.7,3.1,-1.9,54599,103.6,6.12,12.9,,
25.909782,-80.1373026666667,12:05:53.19,8/28/2022,9,0.789,147.66,-7.21053317258733,1.32,333.9,328.2,-1.37,27.3,36.8,.00,.21,.20,84,21,464.1,15.9,-1.3,D,1427.2,19,334.450,0,0.08,128,349.85,-80.13789169,25.91274273,0,0,0,N,0.594453,90,90,11,128,128,98.95628,0,9999.99,.21,0.337,0,0,33.6,0,33.5999984741211,38.22,1555.76779,08/28/22,11:38:57,32.26,57.69,38.22,1.016,8.14,-68.7,1.5,-12.2,51397,103.5,6.12,12.7,,
25.9097863333333,-80.137296,12:05:54.19,8/28/2022,9,0.67,147.66,-7.21053392919531,1.32,321.6,315.75,1.15,2.99,36.8,.01,.22,.23,84,21,464.1,15.9,-1.3,D,1427.2,19,334.094,0,0.08,128,349.73,-80.13789169,25.91274273,0,0,0,N,0.594453,90,90,11,128,128,98.95628,0,9999.99,.21,0.337,0,0,33.5,0,33.5999984741211,38.52,1556.07339,08/28/22,11:38:58,32.25,58.09,38.52,0.844,8.14,-68.7,1.2,-1.4,56191,103.5,6.11,12.9,,
25.9097861666667,-80.1372936666667,12:05:55.19,8/28/2022,9,0.59,147.66,-7.21053844815146,1.07,319.3,313.42,0.18,-1.24,36.8,.00,.24,.24,84,21,464.1,15.9,-1.3,D,1435.6,19,334.154,0,0.08,128,349.69,-80.13789169,25.91274273,0,0,0,N,0.594453,90,90,11,128,128,98.95628,0,9999.99,.24,0.367,0,0,33.5,0,33.5,38.22,1555.586,08/28/22,11:38:59,32.26,57.70,38.22,0.906,8.14,-68.7,14.5,-3.0,52419,103.2,6.10,13.0,,
25.9097845,-80.1372925,12:05:56.19,8/28/2022,9,0.648,147.66,-7.21053980687314,1.07,313.7,307.76,5.03,-0.47,36.9,.04,.23,.26,84,21,464.1,15.9,-1.3,D,1435.6,19,334.357,0,0.08,128,349.67,-80.13789169,25.91274273,0,0,0,N,0.594453,90,90,11,128,128,98.95628,0,9999.99,.25,0.377,0,0,33.6,0,33.5999984741211,38.64,1556.19977,08/28/22,11:39:00,32.28,58.26,38.64,0.980,8.14,-68.5,-2.0,-3.9,54701,103.2,6.09,12.9,,
25.9097841666667,-80.137294,12:05:57.19,8/28/2022,9,0.288,147.66,-7.21054027656345,1.15,307.7,301.7,-0.96,4.76,36.9,.00,.31,.30,84,21,464.1,15.9,-1.3,D,1435.6,19,334.366,0,0.08,128,349.7,-80.13789169,25.91274273,0,0,0,N,0.594453,90,90,11,128,128,98.95628,0,9999.99,.33,0.457,0,0,33.6,0,33.5999984741211,38.3,1555.85331,08/28/22,11:39:01,32.26,57.80,38.30,0.909,8.14,-68.7,1.0,-1.5,53928,103.0,6.09,12.8,,
25.9097846666667,-80.1372975,12:05:58.19,8/28/2022,8,0.125,147.66,-7.21053934477014,1.15,314.2,308.27,3.66,-0.97,36.9,.03,.31,.33,84,21,464.1,15.9,-1.3,D,1434.6,19,334.249,0,0.08,128,349.76,-80.13789169,25.91274273,0,0,0,N,0.594453,90,90,11,128,128,98.95628,0,9999.99,.33,0.457,0,0,33.6,0,33.5999984741211,38.26,1555.81118,08/28/22,11:39:02,32.29,57.75,38.26,0.882,8.14,-68.6,13.2,-2.4,53562,103.1,6.09,12.9,,
25.909784,-80.1373008333333,12:05:59.19,8/28/2022,8,0.143,147.66,-7.21053733979346,1.15,313.6,307.66,2.02,-0.01,36.8,.01,.25,.26,84,21,464.1,15.9,-1.3,D,1434.6,19,334.263,0,0.08,128,349.82,-80.13789169,25.91274273,0,0,0,N,0.594453,90,90,11,128,128,98.95628,0,9999.99,.27,0.397,0,0,33.5,0,33.5999984741211,38.29,1555.8418,08/28/22,11:39:03,32.26,57.79,38.29,0.882,8.14,-68.6,-0.2,-4.9,54085,103.0,6.09,12.9,,
25.9097836666667,-80.1373015,12:06:00.19,8/28/2022,9,0.345,147.66,-7.21053527895061,1.15,315.2,309.28,1.18,-3.76,36.9,.01,.24,.25,84,21,464.1,15.9,-1.3,D,1434.6,19,334.288,0,0.08,128,349.83,-80.13789169,25.91274273,0,0,0,N,0.594453,90,90,11,128,128,98.95628,0,9999.99,.26,0.387,0,0,33.5,0,33.5,37.91,1555.27034,08/28/22,11:39:04,32.31,57.28,37.91,0.928,8.14,-68.6,-1.2,-0.7,61934,102.8,6.09,12.9,,
25.9097845,-80.1373036666667,12:06:01.19,8/28/2022,9,0.362,147.66,-7.21053484029732,1.15,312.9,306.95,-0.13,-2.38,36.9,.00,.25,.25,84,21,464.1,15.9,-1.3,D,1434.6,19,334.158,0,0.08,128,349.86,-80.13789169,25.91274273,0,0,0,N,0.594453,90,90,11,128,128,98.95628,0,9999.99,.25,0.377,0,0,33.5,0,33.5,38.33,1555.69866,08/28/22,11:39:05,32.26,57.85,38.33,0.914,8.14,-68.6,2.5,3.2,62826,102.8,6.07,12.7,,
25.909785,-80.1373051666667,12:06:02.19,8/28/2022,9,0.208,147.66,-7.2105336684858,1.07,314.5,308.57,0.93,-1.67,36.8,.01,.24,.25,84,21,464.1,15.9,-1.3,D,1449.5,19,334.077,0,0.08,128,349.89,-80.13789169,25.91274273,0,0,0,N,0.594453,90,90,11,128,128,98.95628,0,9999.99,.25,0.377,0,0,33.5,0,33.5,38.07,1555.4335,08/28/22,11:39:06,32.29,57.50,38.07,0.979,8.14,-68.7,0.2,24.1,62045,102.8,6.08,12.9,,
25.9097863333333,-80.1373053333333,12:06:03.19,8/28/2022,9,0.345,147.66,-7.21053284704522,1.07,308.2,302.2,-0.53,29.4,36.9,.00,.23,.23,84,21,464.1,15.9,-1.3,D,1449.5,19,333.928,0,0.08,128,349.89,-80.13789169,25.91274273,0,0,0,N,0.594453,90,90,11,128,128,98.95628,0,9999.99,.23,0.357,0,0,33.5,0,33.5,38.31,1555.67762,08/28/22,11:39:07,32.27,57.82,38.31,0.900,8.13,-68.5,5.9,-9.2,62440,102.7,6.07,12.9,,
25.909786,-80.137304,12:06:04.19,8/28/2022,10,0.445,147.66,-7.21053292498179,1.07,308.3,302.3,-0.79,34.6,36.9,.00,.31,.30,84,21,464.1,15.9,-1.3,D,1449.5,19,333.988,0,0.08,128,349.86,-80.13789169,25.91274273,0,0,0,N,0.594453,90,90,11,128,128,98.95628,0,9999.99,.31,0.4368661,0,0,33.5,0,33.5,38.06,1555.42284,08/28/22,11:39:08,32.28,57.49,38.06,0.918,8.14,-68.6,0.9,-0.8,62831,102.3,6.06,12.8,,
25.9097845,-80.137301,12:06:05.19,8/28/2022,11,0.707,147.66,-7.21053366986495,1.07,315.4,309.48,-1.85,31,36.8,.00,.29,.27,84,21,464.1,15.9,-1.3,D,1449.5,19,334.205,0,0.08,128,349.82,-80.13789169,25.91274273,0,0,0,N,0.594453,90,90,11,128,128,98.95628,0,.71,.27,1.102699,0,0,33.5,0,33.5,38.62,1555.99307,08/28/22,11:39:09,32.27,58.22,38.62,0.950,8.14,-68.6,-0.9,-5.3,61964,102.6,6.05,12.8,,
25.909782,-80.1372966666667,12:06:06.19,8/28/2022,9,1.215,147.66,-7.21053524653432,1.33,326.2,320.4,0.78,11.6,36.9,.01,.33,.33,84,21,464.0,15.9,-1.3,D,1458.2,19,334.556,0,0.08,128,349.75,-80.13789169,25.91274273,0,0,0,N,0.594453,90,90,11,128,128,98.95628,0,.63,.33,1.084062,2,9,33.5,0,33.5,38.21,1555.57511,08/28/22,11:39:10,32.26,57.68,38.21,1.159,8.13,-68.4,3.8,-0.1,61445,102.6,6.07,12.9,,
25.9097795,-80.1372908333333,12:06:07.19,8/28/2022,9,0.92,147.66,-7.21053747980428,1.33,330.6,324.86,-1.73,47,36.9,.00,.37,.35,84,21,464.0,15.9,-1.3,D,1458.2,19,334.934,0,0.08,128,349.66,-80.13789169,25.91274273,0,0,0,N,0.594453,90,90,11,128,128,98.95628,0,.72,.36,1.210667,0,0,33.5,0,33.5,38.26,1555.62589,08/28/22,11:39:11,32.26,57.75,38.26,0.933,8.13,-68.5,5.6,-1.1,62815,102.7,6.07,12.9,,
25.9097781666667,-80.1372873333333,12:06:08.19,8/28/2022,9,0.866,147.66,-7.21054060072611,1.07,338.3,332.67,-3.29,42.2,36.9,.00,.45,.42,84,21,464.0,15.9,-1.3,D,1458.2,19,335.142,0,0.08,128,349.61,-80.13789169,25.91274273,0,0,0,N,0.594453,90,90,11,128,128,98.95628,0,9999.99,.42,0.5430102,2,9,33.5,0,33.5,38.07,1555.43141,08/28/22,11:39:12,32.22,57.50,38.07,1.143,8.14,-68.5,1.2,-4.2,62421,102.8,6.09,12.9,,
25.9097778333333,-80.137284,12:06:09.19,8/28/2022,10,0.512,147.66,-7.2105424953496,1.07,341.9,336.33,-0.29,34.1,36.9,.00,.45,.45,84,21,464.0,15.9,-1.3,D,1442.9,19,335.239,0,0.08,128,349.55,-80.13789169,25.91274273,0,0,0,N,0.594453,90,90,11,128,128,98.95628,0,.86,.44,1.431174,2,9,33.5,0,33.5,38.05,1555.41231,08/28/22,11:39:13,32.24,57.47,38.05,1.300,8.13,-68.5,-4.1,-6.4,61207,102.6,6.08,12.7,,
25.909779,-80.1372786666667,12:06:10.19,8/28/2022,11,0.613,147.66,-7.21054442376843,1.07,342.1,336.53,-1.93,44.8,36.8,.00,.48,.46,84,21,464.0,15.9,-1.3,D,1442.9,19,335.209,0,0.08,128,349.46,-80.13789169,25.91274273,0,0,0,N,0.594453,90,90,11,128,128,98.95628,0,.76,.47,1.356906,2,9,33.5,0,33.5,38.2,1555.56548,08/28/22,11:39:14,32.19,57.67,38.20,1.015,8.13,-68.4,-2.3,-5.7,64580,102.7,6.08,13.0,,
25.90978,-80.1372753333333,12:06:11.19,8/28/2022,10,0.827,113.9,-7.21054773435828,0.85,339.7,334.09,1.4,45.8,36.9,.01,.49,.50,84,21,464.0,15.9,-1.3,D,1442.9,19,335.161,0,0.08,128,349.4,-80.13789169,25.91274273,0,0,0,N,0.594453,90,90,11,128,128,98.95628,0,1.00,.48,1.611183,2,9,33.5,0,33.5,38.07,1555.43377,08/28/22,11:39:15,32.21,57.50,38.07,1.147,8.13,-68.3,-3.5,-2.1,63448,102.9,6.09,12.8,,
25.9097806666667,-80.1372725,12:06:12.19,8/28/2022,10,0.892,113.9,-7.21054983934147,0.85,333.7,328,-2.65,51.5,36.8,.00,.53,.52,84,21,464.0,15.9,-1.3,D,1442.9,19,335.140,0,0.08,128,349.35,-80.13789169,25.91274273,0,0,0,N,0.594453,90,90,11,128,128,98.95628,0,.91,.53,1.568127,0,0,33.5,0,33.5,38.49,1555.86057,08/28/22,11:39:16,32.19,58.05,38.49,0.916,8.14,-68.6,-2.7,-5.7,60975,103.0,6.09,12.9,,
25.9097801666667,-80.1372673333333,12:06:13.19,8/28/2022,10,0.835,103.24,-7.21055160429944,0.85,339.4,333.79,-0.58,46.3,36.9,.00,.57,.57,84,21,464.0,15.9,-1.3,D,1448.3,19,335.291,0,0.08,128,349.27,-80.13789169,25.91274273,0,0,0,N,0.594453,90,90,11,128,128,98.95628,0,9999.99,.55,0.6729428,2,9,33.5,0,33.5,38.17,1555.53318,08/28/22,11:39:17,32.19,57.62,38.17,1.136,8.13,-68.5,-2.3,-5.6,62843,102.7,6.09,12.6,,
25.9097796666667,-80.1372623333333,12:06:14.19,8/28/2022,10,0.908,100.61,-7.2105545955548,0.85,339,333.38,-1.48,53.6,36.8,.00,.58,.57,84,21,464.0,15.9,-1.3,D,1448.3,19,335.439,0,0.08,128,349.18,-80.13789169,25.91274273,0,0,0,N,0.594453,90,90,11,128,128,98.95628,0,.87,.59,1.585842,2,9,33.5,0,33.5,38.35,1555.7179,08/28/22,11:39:18,32.21,57.86,38.35,1.087,8.13,-68.4,-4.0,-3.3,64829,102.6,6.07,13.0,,
25.9097795,-80.1372583333333,12:06:15.19,8/28/2022,11,0.865,101.9,-7.21055748818188,0.85,346.8,341.32,-2.36,47.7,36.9,.00,.65,.63,84,21,464.0,15.9,-1.3,D,1448.3,19,335.532,0,0.08,128,349.12,-80.13789169,25.91274273,0,0,0,N,0.594453,90,90,11,128,128,98.95628,0,1.00,.63,1.752065,2,9,33.5,0,33.5,38.07,1555.43156,08/28/22,11:39:19,32.15,57.49,38.07,1.067,8.13,-68.4,-4.4,-6.5,63033,102.8,6.09,12.9,,
25.9097788333333,-80.1372535,12:06:16.20,8/28/2022,11,0.927,101.9,-7.21055983318218,0.85,352.6,347.23,0.21,51.1,36.9,.00,.63,.64,84,21,464.0,15.9,-1.3,D,1448.2,19,335.697,0,0.08,128,349.04,-80.13789169,25.91274273,0,0,0,N,0.594453,90,90,11,128,128,98.95628,0,1.04,.62,1.78492,0,0,33.5,0,33.5,38.06,1555.42258,08/28/22,11:39:20,32.17,57.47,38.06,1.168,8.13,-68.4,-3.7,-4.3,67230,103.0,6.11,12.9,,
25.9097781666667,-80.1372488333333,12:06:17.23,8/28/2022,11,0.846,99.89,-7.21056260511024,0.85,350.6,345.19,-3.66,51.9,36.9,.00,.63,.60,84,21,464.0,15.9,-1.3,D,1448.2,19,335.858,0,0.08,128,348.96,-80.13789169,25.91274273,0,0,0,N,0.594453,90,90,11,128,128,98.95628,0,1.09,.63,1.843278,2,9,33.5,0,33.5,38.26,1555.62719,08/28/22,11:39:21,32.17,57.74,38.26,1.036,8.13,-68.5,-3.3,-3.9,67314,102.8,6.09,12.9,,
25.9097788333333,-80.1372455,12:06:18.25,8/28/2022,11,0.717,90.31,-7.21056527841008,0.85,354.3,348.97,-4.8,47.1,36.9,.00,.74,.70,84,21,464.0,15.9,-1.3,D,1448.2,19,335.850,0,0.08,128,348.91,-80.13789169,25.91274273,0,0,0,N,0.594453,90,90,11,128,128,98.95628,0,1.36,.68,2.166413,2,9,33.5,0,33.5,38.17,1555.53167,08/28/22,11:39:22,32.19,57.62,38.17,1.223,8.13,-68.3,-3.1,-5.3,68570,102.6,6.08,12.9,,
25.9097781666667,-80.1372426666667,12:06:19.27,8/28/2022,11,0.635,90.31,-7.21056733925099,0.8,345.1,339.58,0.08,55.9,36.8,.00,.66,.66,84,21,464.0,15.9,-1.3,D,1448.2,19,335.977,0,0.08,128,348.86,-80.13789169,25.91274273,0,0,0,N,0.594453,90,90,11,128,128,98.95628,0,.89,.66,1.680587,2,9,33.5,0,33.5,38.45,1555.81871,08/28/22,11:39:23,32.16,57.99,38.45,1.407,8.13,-68.4,-4.1,0.1,66842,102.3,6.05,12.9,,
25.9097771666667,-80.137239,12:06:20.28,8/28/2022,11,0.88,96.04,-7.21056892764332,0.8,350.6,345.19,-6.2,47,36.9,.00,.92,.88,84,21,464.0,15.9,-1.3,D,1436.3,19,336.157,0,0.08,128,348.8,-80.13789169,25.91274273,0,0,0,N,0.594453,90,90,11,128,128,98.95628,0,9999.99,.89,1.01665,2,9,33.5,0,33.5,38.12,1555.48086,08/28/22,11:39:24,32.12,57.55,38.12,0.889,8.13,-68.4,-2.0,-2.4,67047,101.9,6.04,12.9,,
25.9097753333333,-80.1372345,12:06:21.28,8/28/2022,11,1.094,96.04,-7.21057096503393,0.85,355.1,349.78,0.54,58.9,36.9,.00,.80,.80,84,21,464.0,15.9,-1.3,D,1436.3,19,336.445,0,0.08,128,348.73,-80.13789169,25.91274273,0,0,0,N,0.594453,90,90,11,128,128,98.95628,0,9999.99,.76,0.8854685,2,9,33.5,0,33.5,38.21,1555.57226,08/28/22,11:39:25,32.14,57.67,38.21,1.390,8.13,-68.2,-3.6,-2.7,67290,101.8,6.04,12.7,,
25.9097743333333,-80.1372301666667,12:06:22.30,8/28/2022,11,0.769,104.48,-7.21057338521096,0.85,356.3,351.01,-4.89,45.1,36.8,.00,.98,.95,84,21,464.0,15.9,-1.3,D,1436.3,19,336.639,0,0.08,128,348.67,-80.13789169,25.91274273,0,0,0,N,0.594453,90,90,11,128,128,98.95628,0,1.48,.99,2.598462,2,9,33.5,0,33.5,38.28,1555.64534,08/28/22,11:39:26,32.11,57.76,38.28,1.090,8.13,-68.4,-3.2,-6.0,68326,101.7,6.03,12.9,,
25.9097723333333,-80.1372265,12:06:23.31,8/28/2022,10,0.783,106.61,-7.2105758171128,0.85,357.6,352.34,-7.08,55.3,36.8,.00,.97,.92,84,21,463.9,15.9,-1.3,D,1432,19,336.929,0,0.08,128,348.61,-80.13789169,25.91274273,0,0,0,N,0.594453,90,90,11,128,128,98.95628,0,.37,.89,1.384761,2,9,33.5,0,33.5,37.95,1555.30673,08/28/22,11:39:27,32.16,57.33,37.95,1.217,8.13,-68.4,-3.4,-4.0,8708,101.8,6.04,12.9,,
25.9097701666667,-80.1372226666667,12:06:24.31,8/28/2022,11,1.023,111.04,-7.21057772207931,0.85,358.6,353.36,0.83,51.2,36.9,.01,1.05,1.06,84,21,463.9,15.9,-1.3,D,1432,19,337.241,0,0.08,128,348.56,-80.13789169,25.91274273,0,0,0,N,0.594453,90,90,11,128,128,98.95628,0,9999.99,1.03,1.161622,0,0,33.5,0,33.5,38.25,1555.61708,08/28/22,11:39:28,32.16,57.73,38.25,1.618,8.13,-68.5,-3.6,-4.9,7554,101.6,6.02,12.9,,
25.9097666666667,-80.1372181666667,12:06:25.31,8/28/2022,11,0.95,121.87,-7.21057970360296,0.85,5,359.91,-4.86,55.4,36.9,.00,1.18,1.15,84,21,463.9,15.9,-1.3,D,1432,19,337.712,0,0.08,128,348.49,-80.13789169,25.91274273,0,0,0,N,0.594453,90,90,11,128,128,98.95628,0,9999.99,1.17,1.296059,2,9,33.5,0,33.5,38.06,1555.42323,08/28/22,11:39:29,32.19,57.48,38.06,0.931,8.13,-68.3,-2.1,-6.5,11047,101.3,6.00,12.7,,
25.9097638333333,-80.1372136666667,12:06:26.31,8/28/2022,11,0.969,124.61,-7.21058190307313,0.8,8.9,3.9,1.74,53.3,36.9,.01,1.08,1.10,84,21,463.9,15.9,-1.3,D,1432,19,338.111,0,0.08,128,348.43,-80.13789169,25.91274273,0,0,0,N,0.594453,90,90,11,128,128,98.95628,0,9999.99,1.05,1.179228,2,9,33.5,0,33.5,38.29,1555.65785,08/28/22,11:39:30,32.20,57.78,38.29,1.293,8.13,-68.4,-2.7,-5.8,10675,101.3,5.99,13.1,,
25.9097616666667,-80.1372091666667,12:06:27.31,8/28/2022,11,0.783,122.12,-7.21058419082542,0.8,9.3,4.31,-3.96,51.7,36.9,.00,1.30,1.28,84,21,463.9,15.9,-1.3,D,1424.6,19,338.437,0,0.08,128,348.36,-80.13789169,25.91274273,0,0,0,N,0.594453,90,90,11,128,128,98.95628,0,9999.99,1.31,1.433775,2,9,33.5,0,33.5,38.18,1555.54647,08/28/22,11:39:31,32.20,57.63,38.18,0.997,8.13,-68.4,-2.0,-1.9,9401,101.1,5.99,12.9,,
25.9097596666667,-80.137205,12:06:28.31,8/28/2022,11,0.902,117.25,-7.21058656685986,0.8,12.9,7.99,-1.79,52.3,36.9,.00,1.28,1.26,84,21,463.9,15.9,-1.3,D,1424.6,19,338.739,0,0.08,128,348.3,-80.13789169,25.91274273,0,0,0,N,0.594453,90,90,11,128,128,98.95628,0,.32,1.23,1.676133,2,9,33.5,0,33.5,38.03,1555.3897,08/28/22,11:39:32,32.23,57.44,38.03,1.161,8.13,-68.3,-1.5,-4.6,11344,101.1,5.99,13.0,,
25.9097586666667,-80.1372001666667,12:06:29.31,8/28/2022,11,0.878,111.46,-7.21058876770892,0.8,7.5,2.46,-0.32,45.3,36.9,.00,1.41,1.41,84,21,463.9,15.9,-1.3,D,1424.6,19,338.946,0,0.08,128,348.23,-80.13789169,25.91274273,0,0,0,N,0.594453,90,90,11,128,128,98.95628,0,9999.99,1.42,1.548482,2,9,33.5,0,33.5,38.15,1555.51357,08/28/22,11:39:33,32.18,57.60,38.15,1.300,8.13,-68.3,-3.1,-2.8,10579,100.8,5.97,12.7,,
25.9097571666667,-80.1371958333333,12:06:30.31,8/28/2022,11,0.867,111.46,-7.21059149549275,0.8,9.1,4.1,-5.5,39.1,36.9,.00,1.63,1.59,84,21,463.9,15.9,-1.3,D,1430.8,19,339.198,0,0.08,128,348.16,-80.13789169,25.91274273,0,0,0,N,0.594453,90,90,11,128,128,98.95628,0,9999.99,1.59,1.720336,2,9,33.5,0,33.5,38.04,1555.39944,08/28/22,11:39:34,32.18,57.45,38.04,0.918,8.13,-68.4,-1.6,-5.1,8636,100.7,5.97,13.0,,
25.9097556666667,-80.1371921666667,12:06:31.31,8/28/2022,11,0.782,111.46,-7.210593861181,0.82,13.3,8.4,0.22,47,36.9,.00,1.41,1.41,84,21,463.9,15.9,-1.3,D,1430.8,19,339.437,0,0.08,128,348.11,-80.13789169,25.91274273,0,0,0,N,0.594453,90,90,11,128,128,98.95628,0,9999.99,1.37,1.49357,2,9,33.5,0,33.5,38.32,1555.68494,08/28/22,11:39:35,32.16,57.83,38.32,1.345,8.13,-68.3,-2.5,-6.8,14063,100.8,5.96,13.0,,
25.909755,-80.1371891666667,12:06:32.31,8/28/2022,11,0.595,111.46,-7.21059583235775,0.8,8.7,3.69,-0.51,42.2,36.9,.00,1.66,1.66,84,21,463.9,15.9,-1.3,D,1430.8,19,339.572,0,0.08,128,348.06,-80.13789169,25.91274273,0,0,0,N,0.594453,90,90,11,128,128,98.95628,0,9999.99,1.68,1.805116,2,9,33.4,0,33.4000015258789,38.13,1555.3117,08/28/22,11:39:36,32.18,57.56,38.13,1.181,8.13,-68.3,-2.4,-1.3,13894,100.5,5.96,12.9,,
25.9097541666667,-80.137186,12:06:33.31,8/28/2022,11,0.715,111.46,-7.2105975193761,0.8,8.5,3.49,-2.21,50.1,36.9,.00,1.67,1.66,84,21,463.9,15.9,-1.3,D,1430.8,19,339.728,0,0.08,128,348.01,-80.13789169,25.91274273,0,0,0,N,0.594453,90,90,11,128,128,98.95628,0,9999.99,1.65,1.780743,2,9,33.4,0,33.4000015258789,38.3,1555.48458,08/28/22,11:39:37,32.16,57.80,38.30,0.974,8.13,-68.4,-1.2,-1.3,13125,100.7,5.96,12.8,,
25.909753,-80.1371825,12:06:34.31,8/28/2022,11,0.821,111.46,-7.21059928295152,0.8,4.2,359.09,0.1,44.4,36.9,.00,1.72,1.72,84,21,463.9,15.9,-1.3,D,1451.2,19,339.928,0,0.08,128,347.96,-80.13789169,25.91274273,0,0,0,N,0.594453,90,90,11,128,128,98.95628,0,9999.99,1.70,1.829472,2,9,33.4,0,33.4000015258789,38.15,1555.33129,08/28/22,11:39:38,32.14,57.60,38.15,1.166,8.13,-68.4,-1.7,-4.1,12419,100.9,5.98,13.0,,
25.9097518333333,-80.1371793333334,12:06:35.31,8/28/2022,11,0.644,111.46,-7.21060119964124,0.8,357.8,352.54,-1.2,44.8,36.9,.00,1.84,1.84,84,21,463.9,15.9,-1.3,D,1451.2,19,340.121,0,0.08,128,347.91,-80.13789169,25.91274273,0,0,0,N,0.594453,90,90,11,128,128,98.95628,0,9999.99,1.84,1.968644,2,9,33.4,0,33.4000015258789,37.83,1555.00492,08/28/22,11:39:39,32.18,57.17,37.83,0.957,8.13,-68.5,-2.4,-3.3,13553,100.7,5.97,12.9,,
25.909749,-80.1371763333333,12:06:36.31,8/28/2022,11,1.153,125.63,-7.21060291907522,0.8,7.3,2.26,-1.13,45.2,36.8,.00,1.85,1.84,84,21,463.9,15.9,-1.3,D,1431.8,19,340.492,0,0.08,128,347.87,-80.13789169,25.91274273,0,0,0,N,0.594453,90,90,11,128,128,98.95628,0,9999.99,1.84,1.964906,2,9,33.4,0,33.4000015258789,38.22,1555.40245,08/28/22,11:39:40,32.14,57.68,38.22,1.004,8.13,-68.4,-3.0,0.1,15000,100.9,5.98,12.9,,
25.9097435,-80.137173,12:06:37.31,8/28/2022,11,1.248,142.61,-7.21060431917524,0.8,16.4,11.57,-1.5,49.4,36.9,.00,2.07,2.06,84,21,463.9,15.9,-1.3,D,1431.8,19,341.160,0,0.08,128,347.84,-80.13789169,25.91274273,0,0,0,N,0.594453,90,90,11,128,128,98.95628,0,9999.99,2.06,2.184478,2,9,33.4,0,33.4000015258789,38.04,1555.21867,08/28/22,11:39:41,32.14,57.45,38.04,1.050,8.13,-68.1,-3.4,-1.9,12809,100.7,5.97,12.8,,
25.9097388333333,-80.1371693333333,12:06:38.31,8/28/2022,11,1.105,151.28,-7.21060556340101,0.8,28.5,23.93,-2.35,52.2,36.8,.00,1.94,1.92,84,21,463.9,15.9,-1.3,D,1431.8,19,341.744,0,0.08,128,347.8,-80.13789169,25.91274273,0,0,0,N,0.594453,90,90,11,128,128,98.95628,0,9999.99,1.92,2.048779,2,9,33.4,0,33.4000015258789,38.27,1555.45318,08/28/22,11:39:42,32.14,57.75,38.27,1.114,8.13,-68.4,-2.9,-1.5,15609,100.5,5.95,13.0,,
25.9097348333333,-80.1371668333333,12:06:39.31,8/28/2022,11,0.908,152.3,-7.21060711523518,0.8,34.9,30.43,-0.68,56.5,36.8,.00,2.10,2.10,84,21,463.9,15.9,-1.3,D,1437,19,342.232,0,0.08,128,347.77,-80.13789169,25.91274273,0,0,0,N,0.594453,90,90,11,128,128,98.95628,0,9999.99,2.08,2.206712,2,9,33.4,0,33.4000015258789,38.1,1555.27924,08/28/22,11:39:43,32.12,57.52,38.10,1.181,8.13,-68.3,-0.7,-1.0,-300,100.4,5.95,13.0,,
25.9097318333333,-80.1371638333333,12:06:40.31,8/28/2022,11,0.839,152.3,-7.21060806495718,0.8,33.8,29.32,-1.7,53.4,36.9,.00,1.86,1.85,84,21,463.9,15.9,-1.3,D,1437,19,342.622,0,0.08,128,347.73,-80.13789169,25.91274273,0,0,0,N,0.594453,90,90,11,128,128,98.95628,0,9999.99,1.86,1.989187,2,9,33.4,0,33.4000015258789,37.99,1555.16755,08/28/22,11:39:44,32.14,57.39,37.99,1.135,8.13,-68.3,-1.6,-4.5,-1363,100.1,5.94,12.9,,
25.9097305,-80.1371605,12:06:41.31,8/28/2022,11,0.779,152.3,-7.21060944298603,0.8,36.4,31.95,-0.67,56.9,36.8,.00,2.23,2.23,84,21,463.9,15.9,-1.3,D,1437,19,342.837,0,0.08,128,347.68,-80.13789169,25.91274273,0,0,0,N,0.594453,90,90,11,128,128,98.95628,0,9999.99,2.21,2.334213,2,9,33.4,0,33.4000015258789,38.19,1555.37124,08/28/22,11:39:45,32.08,57.64,38.19,1.109,8.13,-68.4,-1.9,-4.2,-1309,100.1,5.94,12.8,,
25.9097288333333,-80.1371573333333,12:06:42.31,8/28/2022,11,0.696,152.3,-7.2106112389764,0.8,30.9,26.37,-1.87,48.6,36.8,.00,2.26,2.24,84,21,463.9,15.9,-1.3,D,1437,19,343.086,0,0.08,128,347.64,-80.13789169,25.91274273,0,0,0,N,0.594453,90,90,11,128,128,98.95628,0,9999.99,2.27,2.392223,2,9,33.4,0,33.4000015258789,37.98,1555.15801,08/28/22,11:39:46,32.10,57.37,37.98,1.140,8.13,-68.3,-2.5,-3.7,-1475,100.4,5.96,12.9,,
25.9097255,-80.137154,12:06:43.31,8/28/2022,11,1.126,152.3,-7.21061289219764,0.8,34.2,29.72,-2.39,51,36.8,.00,2.75,2.73,84,21,463.8,15.9,-1.3,D,1419,19,343.520,0,0.08,128,347.6,-80.13789169,25.91274273,0,0,0,N,0.594453,90,90,11,128,128,98.95628,0,9999.99,2.71,2.835683,2,9,33.4,0,33.4000015258789,38.3,1555.48379,08/28/22,11:39:47,32.09,57.79,38.30,1.036,8.13,-68.1,-3.5,-3.0,-2658,100.3,5.94,12.9,,
25.90972,-80.137151,12:06:44.31,8/28/2022,11,1.105,152.3,-7.21061442334038,0.8,32,27.49,0.19,48.4,36.9,.00,2.70,2.70,84,21,463.8,15.9,-1.3,D,1419,19,344.182,0,0.08,128,347.57,-80.13789169,25.91274273,0,0,0,N,0.594453,90,90,11,128,128,98.95628,0,9999.99,2.71,2.838255,2,9,33.4,0,33.4000015258789,38.07,1555.25058,08/28/22,11:39:48,32.09,57.48,38.07,1.296,8.13,-68.3,-2.9,-2.5,-559,100.3,5.95,12.8,,
25.9097163333333,-80.1371491666667,12:06:45.31,8/28/2022,11,0.827,152.3,-7.21061547030951,0.8,32.8,28.3,-6.13,46.2,36.8,.00,3.18,3.14,84,21,463.8,15.9,-1.3,D,1419,19,344.619,0,0.08,128,347.56,-80.13789169,25.91274273,0,0,0,N,0.594453,90,90,11,128,128,98.95628,0,9999.99,3.15,3.272754,2,9,33.4,0,33.4000015258789,37.97,1555.14741,08/28/22,11:39:49,32.10,57.36,37.97,0.923,8.13,-68.2,-3.1,-1.7,-2867,100.1,5.94,12.8,,
25.909713,-80.1371468333333,12:06:46.33,8/28/2022,11,0.803,152.3,-7.21061606966111,0.8,38.5,34.08,-1.4,41.6,36.8,.00,3.10,3.09,84,21,463.8,15.9,-1.3,D,1419,19,345.031,0,0.08,128,347.53,-80.13789169,25.91274273,0,0,0,N,0.594453,90,90,11,128,128,98.95628,0,9999.99,3.06,3.183135,2,9,33.4,0,33.4000015258789,38.16,1555.33977,08/28/22,11:39:50,32.08,57.60,38.16,1.404,8.13,-68.2,-3.6,-5.2,-351,99.9,5.93,12.9,,
25.9097106666667,-80.1371448333333,12:06:47.33,8/28/2022,11,0.56,152.3,-7.21061700903708,0.8,33.1,28.61,-0.16,36.3,36.8,.00,3.19,3.19,84,21,463.8,15.9,-1.3,D,1419,19,345.328,0,0.08,128,347.51,-80.13789169,25.91274273,0,0,0,N,0.594453,90,90,11,128,128,98.95628,0,9999.99,3.20,3.326571,2,9,33.4,0,33.4000015258789,38.04,1555.21852,08/28/22,11:39:51,32.11,57.45,38.04,1.232,8.13,-68.1,-2.0,-4.3,606,99.7,5.92,12.9,,
25.9097076666667,-80.1371433333334,12:06:48.34,8/28/2022,11,0.823,152.3,-7.21061788358119,0.8,37.4,32.96,-2.3,45.9,36.9,.00,3.57,3.55,84,21,463.8,15.9,-1.3,D,1419,19,345.686,0,0.08,128,347.5,-80.13789169,25.91274273,0,0,0,N,0.594453,90,90,11,128,128,98.95628,0,9999.99,3.55,3.681933,2,9,33.4,0,33.4000015258789,38.46,1555.64821,08/28/22,11:39:52,32.08,58.00,38.46,0.933,8.13,-68.1,-3.3,32.6,-1988,99.7,5.91,12.9,,
25.9097048333333,-80.1371426666666,12:06:49.36,8/28/2022,11,0.696,152.3,-7.21061837395959,0.8,36.9,32.46,1.56,45.6,36.9,.01,3.27,3.28,84,21,463.8,15.9,-1.3,D,1419,19,346.008,0,0.08,128,347.5,-80.13789169,25.91274273,0,0,0,N,0.594453,90,90,11,128,128,98.95628,0,9999.99,3.26,3.389548,2,9,33.4,0,33.4000015258789,37.71,1554.88322,08/28/22,11:39:54,32.09,57.01,37.71,0.924,8.13,-68.3,-2.8,-6.3,-367,99.5,5.92,12.9,,
25.909702,-80.1371401666667,12:06:50.36,8/28/2022,11,0.833,152.3,-7.21061839327002,0.8,39.6,35.19,-0.79,42,36.9,.00,3.56,3.56,84,21,463.8,15.9,-1.3,D,1439.1,19,346.370,0,0.08,128,347.47,-80.13789169,25.91274273,0,0,0,N,0.594453,90,90,11,128,128,98.95628,0,9999.99,3.56,3.689894,2,9,33.4,0,33.4000015258789,37.71,1554.88322,08/28/22,11:39:54,32.09,57.01,37.71,0.924,8.13,-68.3,-2.8,-6.3,-367,99.5,5.92,12.9,,
25.9097023333333,-80.1371376666667,12:06:51.36,8/28/2022,11,0.491,152.3,-7.21061949748529,0.8,40.7,36.3,0.87,47.3,36.8,.01,3.46,3.47,84,21,463.8,15.9,-1.3,D,1439.1,19,346.388,0,0.08,128,347.43,-80.13789169,25.91274273,0,0,0,N,0.594453,90,90,11,128,128,98.95628,0,9999.99,3.45,3.579124,2,9,33.4,0,33.4000015258789,38.13,1555.31116,08/28/22,11:39:55,32.07,57.57,38.13,1.048,8.13,-68.3,-3.1,-1.0,-2922,99.2,5.89,12.9,,
25.9096995,-80.1371348333333,12:06:52.36,8/28/2022,11,0.661,152.3,-7.21062102104223,0.8,37.3,32.86,-0.15,41.3,36.8,.00,3.59,3.59,84,21,463.8,15.9,-1.3,D,1439.1,19,346.757,0,0.08,128,347.39,-80.13789169,25.91274273,0,0,0,N,0.594453,90,90,11,128,128,98.95628,0,4.84,3.61,8.573296,2,9,33.4,0,33.4000015258789,38.08,1555.2601,08/28/22,11:39:57,32.08,57.50,38.08,0.967,8.13,-68.1,-3.4,-4.1,-970,99.3,5.90,12.8,,
25.9096975,-80.1371315,12:06:53.38,8/28/2022,11,0.563,152.3,-7.21062232251274,0.8,37.9,33.47,-2.78,41.1,36.8,.00,3.97,3.95,84,21,463.8,15.9,-1.3,D,1431.5,19,347.047,0,0.08,128,347.34,-80.13789169,25.91274273,0,0,0,N,0.594453,90,90,11,128,128,98.95628,0,4.86,3.95,8.939416,2,9,33.4,0,33.4000015258789,38.07,1555.24835,08/28/22,11:39:58,32.05,57.48,38.07,1.178,8.13,-68.2,-2.3,-6.2,-1163,99.3,5.90,13.0,,
25.9096953333333,-80.1371286666667,12:06:54.38,8/28/2022,11,0.826,152.3,-7.21062403021935,0.8,36.5,32.05,0.3,48.3,36.8,.00,1.91,1.92,84,21,463.8,15.9,-1.3,D,1431.5,19,347.345,0,0.08,128,347.31,-80.13789169,25.91274273,0,0,0,N,0.594453,90,90,11,128,128,98.95628,0,9999.99,1.90,2.023736,2,9,33.4,0,33.4000015258789,38.07,1555.24835,08/28/22,11:39:58,32.05,57.48,38.07,1.178,8.13,-68.2,-2.3,-6.2,-1163,99.3,5.90,13.0,,
25.9096915,-80.1371241666667,12:06:55.39,8/28/2022,11,0.91,144,-7.21062541997213,0.8,31.7,27.18,-3.42,41.9,36.8,.00,1.91,1.89,84,21,463.8,15.9,-1.3,D,1431.5,19,347.859,0,0.08,128,347.25,-80.13789169,25.91274273,0,0,0,N,0.594453,90,90,11,128,128,98.95628,0,9999.99,1.90,2.023736,2,9,33.4,0,33.4000015258789,37.97,1555.14695,08/28/22,11:39:59,32.08,57.35,37.97,1.061,8.13,-68.2,-2.2,-2.1,-784,99.0,5.88,13.0,,
25.9096883333333,-80.1371203333333,12:06:56.41,8/28/2022,11,0.866,144,-7.21062757529543,0.8,31,26.47,-3.43,39.4,36.8,.00,3.41,3.39,84,21,463.8,15.9,-1.3,D,1431.5,19,348.288,0,0.08,128,347.2,-80.13789169,25.91274273,0,0,0,N,0.594453,90,90,11,128,128,98.95628,0,9999.99,3.37,3.497,2,9,33.4,0,33.4000015258789,38.06,1555.23776,08/28/22,11:40:01,32.06,57.48,38.06,1.302,8.13,-68.1,-3.0,-2.0,-691,98.9,5.87,12.7,,
25.909684,-80.1371165,12:06:57.41,8/28/2022,11,1.053,144,-7.21062942439025,0.8,22.5,17.81,0.23,51.4,36.8,.00,4.05,4.05,84,21,463.8,15.9,-1.3,D,1436.7,19,348.842,0,0.08,128,347.16,-80.13789169,25.91274273,0,0,0,N,0.594453,90,90,11,128,128,98.95628,0,9999.99,4.05,4.178342,2,9,33.4,0,33.4000015258789,38.06,1555.23776,08/28/22,11:40:01,32.06,57.48,38.06,1.302,8.13,-68.1,-3.0,-2.0,-691,98.9,5.87,12.7,,
25.9096781666667,-80.1371103333333,12:06:58.41,8/28/2022,11,0.852,142.33,-7.21063111899049,0.8,23.1,18.42,-4.06,47.3,36.8,.00,4.05,4.02,84,21,463.8,15.9,-1.3,D,1436.7,19,349.612,0,0.08,128,347.08,-80.13789169,25.91274273,0,0,0,N,0.594453,90,90,11,128,128,98.95628,0,9999.99,4.05,4.178342,2,9,33.4,0,33.4000015258789,37.87,1555.04353,08/28/22,11:40:02,32.07,57.21,37.87,0.878,8.13,-68.2,-2.5,1.0,2113,98.8,5.87,12.9,,
25.9096743333333,-80.1371083333333,12:06:59.41,8/28/2022,11,0.935,146.54,-7.2106339957421,0.8,28.5,23.93,0.37,42.1,36.8,.00,3.10,3.11,84,21,463.8,15.9,-1.3,D,1436.7,19,350.072,0,0.08,128,347.07,-80.13789169,25.91274273,0,0,0,N,0.594453,90,90,11,128,128,98.95628,0,9999.99,3.07,3.197,2,9,33.4,0,33.4000015258789,38.02,1555.19912,08/28/22,11:40:04,32.05,57.42,38.02,1.144,8.13,-68.2,-3.8,0.2,2088,98.8,5.87,13.0,,
25.9096713333333,-80.1371063333334,12:07:00.41,8/28/2022,11,0.673,146.54,-7.21063467164955,0.8,29,24.44,-1.94,47.5,36.8,.00,4.29,4.28,84,21,463.8,15.9,-1.3,D,1436.7,19,350.442,0,0.08,128,347.05,-80.13789169,25.91274273,0,0,0,N,0.594453,90,90,11,128,128,98.95628,0,9999.99,4.29,4.420197,2,9,33.4,0,33.4000015258789,38.02,1555.19912,08/28/22,11:40:04,32.05,57.42,38.02,1.144,8.13,-68.2,-3.8,0.2,2088,98.8,5.87,13.0,,
25.9096696666667,-80.1371053333333,12:07:01.41,8/28/2022,11,0.571,146.54,-7.21063545791002,0.8,30.7,26.17,-3.46,47.6,36.8,.00,4.19,4.17,84,21,463.7,15.9,-1.3,D,1457.3,19,350.645,0,0.08,128,347.04,-80.13789169,25.91274273,0,0,0,N,0.594453,90,90,11,128,128,98.95628,0,9999.99,4.16,4.28868,2,9,33.4,0,33.4000015258789,38.13,1555.30887,08/28/22,11:40:05,32.06,57.56,38.13,1.008,8.13,-68.1,-3.8,-3.5,22,98.8,5.86,12.8,,
25.9096671666667,-80.1371021666667,12:07:02.41,8/28/2022,10,0.749,137.84,-7.21063582896962,0.96,26.9,22.3,0.67,55.1,36.9,.00,4.22,4.23,84,21,463.7,15.9,-1.3,D,1457.3,19,350.987,0,0.08,128,347,-80.13789169,25.91274273,0,0,0,N,0.594453,90,90,11,128,128,98.95628,0,9999.99,4.21,4.334789,2,9,33.4,0,33.4000015258789,37.48,1554.64795,08/28/22,11:40:07,32.06,56.70,37.48,0.963,8.13,-68.2,-3.7,-2.9,2087,99.0,5.89,13.0,,
25.9096661666667,-80.137099,12:07:03.41,8/28/2022,11,0.718,137.84,-7.2106373718354,0.8,18.5,13.72,-5.92,42.8,36.8,.00,3.96,3.92,84,21,463.7,15.9,-1.3,D,1457.3,19,351.167,0,0.08,128,346.95,-80.13789169,25.91274273,0,0,0,N,0.594453,90,90,11,128,128,98.95628,0,9999.99,3.95,4.07633,2,9,33.4,0,33.4000015258789,38.17,1555.34866,08/28/22,11:40:08,32.04,57.61,38.17,1.221,8.13,-68.3,-2.5,-4.3,330,98.8,5.86,13.0,,
25.9096641666667,-80.137095,12:07:04.44,8/28/2022,11,0.842,121.87,-7.21063911333671,0.8,17.3,12.49,-5.49,46.7,36.8,.00,3.96,3.93,84,21,463.7,15.9,-1.3,D,1427.1,19,351.474,0,0.08,128,346.9,-80.13789169,25.91274273,0,0,0,N,0.594453,90,90,11,128,128,98.95628,0,9999.99,3.95,4.07633,2,9,33.4,0,33.4000015258789,38.17,1555.34866,08/28/22,11:40:08,32.04,57.61,38.17,1.221,8.13,-68.3,-2.5,-4.3,330,98.8,5.86,13.0,,
25.9096608333333,-80.1370916666666,12:07:05.45,8/28/2022,11,1.074,132.84,-7.21064121555224,0.8,15.8,10.96,1.45,40.7,36.8,.01,4.33,4.34,84,21,463.7,15.9,-1.3,D,1427.1,19,351.911,0,0.08,128,346.86,-80.13789169,25.91274273,0,0,0,N,0.594453,90,90,11,128,128,98.95628,0,9999.99,4.31,4.439218,2,9,33.4,0,33.4000015258789,38.12,1555.3019,08/28/22,11:40:09,32.04,57.54,38.12,1.499,8.13,-68.1,-3.3,-3.8,-327,98.6,5.86,12.9,,
25.909656,-80.1370898333333,12:07:06.45,8/28/2022,11,0.99,152.94,-7.21064274669206,0.8,16,11.16,-6.4,40.5,36.8,.00,4.87,4.83,84,21,463.7,15.9,-1.3,D,1427.1,19,352.476,0,0.08,128,346.85,-80.13789169,25.91274273,0,0,0,N,0.594453,90,90,11,128,128,98.95628,0,9999.99,4.87,4.994902,2,9,33.4,0,33.4000015258789,38.17,1555.34839,08/28/22,11:40:11,32.03,57.61,38.17,1.450,8.13,-68.3,-2.1,-3.4,433,98.2,5.83,12.9,,
25.9096515,-80.1370876666667,12:07:07.48,8/28/2022,11,1.045,153.22,-7.21064319154746,0.8,26.8,22.2,-0.48,43.8,36.8,.00,4.40,4.40,84,21,463.7,15.9,-1.3,D,1427.1,19,353.013,0,0.08,128,346.83,-80.13789169,25.91274273,0,0,0,N,0.594453,90,90,11,128,128,98.95628,0,9999.99,4.35,4.472902,2,9,33.3,0,33.4000015258789,38.17,1555.34839,08/28/22,11:40:11,32.03,57.61,38.17,1.450,8.13,-68.3,-2.1,-3.4,433,98.2,5.83,12.9,,
25.9096475,-80.137086,12:07:08.48,8/28/2022,11,0.843,153.22,-7.21064387779931,0.85,28.5,23.93,0.29,28.1,36.8,.00,4.78,4.79,84,21,463.7,15.9,-1.3,D,1415.4,19,353.484,0,0.08,128,346.82,-80.13789169,25.91274273,0,0,0,N,0.594453,90,90,11,128,128,98.95628,0,9999.99,4.80,4.924726,2,9,33.4,0,33.4000015258789,37.98,1555.15901,08/28/22,11:40:12,32.06,57.37,37.98,1.370,8.13,-68.2,-2.7,-5.3,-591,98.3,5.84,12.9,,
25.9096443333333,-80.137084,12:07:09.48,8/28/2022,11,0.46,153.22,-7.21064433438014,0.8,28.9,24.34,-4.53,12.4,36.7,.00,5.09,5.06,84,21,463.7,15.9,-1.3,D,1415.4,19,353.872,0,0.08,128,346.8,-80.13789169,25.91274273,0,0,0,N,0.594453,90,90,11,128,128,98.95628,0,9999.99,5.08,5.208997,2,9,33.4,0,33.4000015258789,38.08,1555.25787,08/28/22,11:40:14,32.05,57.50,38.08,1.322,8.13,-68.1,-2.5,-1.6,-844,98.1,5.82,12.9,,
25.9096411666667,-80.1370815,12:07:10.50,8/28/2022,11,0.333,153.22,-7.2106450985693,0.8,27.9,23.32,-4.85,41.8,36.8,.00,4.89,4.86,84,21,463.7,15.9,-1.3,D,1415.4,19,354.272,0,0.08,128,346.78,-80.13789169,25.91274273,0,0,0,N,0.594453,90,90,11,128,128,98.95628,0,9999.99,4.85,4.975475,2,9,33.4,0,33.4000015258789,38.08,1555.25787,08/28/22,11:40:14,32.05,57.50,38.08,1.322,8.13,-68.1,-2.5,-1.6,-844,98.1,5.82,12.9,,
25.9096395,-80.1370796666667,12:07:11.52,8/28/2022,10,0.621,153.22,-7.21064615864119,0.81,23.5,18.83,0.17,42.9,36.8,.00,4.68,4.68,84,21,463.7,15.9,-1.3,D,1443,19,354.494,0,0.08,128,346.76,-80.13789169,25.91274273,0,0,0,N,0.594453,90,90,11,128,128,98.95628,0,9999.99,4.65,4.780391,2,9,33.4,0,33.4000015258789,37.91,1555.08561,08/28/22,11:40:15,32.08,57.27,37.91,1.515,8.13,-68.2,-4.0,-4.9,5525,97.8,5.81,12.9,,
25.9096391666667,-80.1370765,12:07:12.52,8/28/2022,11,0.677,153.22,-7.21064702283838,0.8,19.3,14.54,0.38,23.2,36.8,.00,4.82,4.82,84,21,463.7,15.9,-1.3,D,1443,19,354.603,0,0.08,128,346.71,-80.13789169,25.91274273,0,0,0,N,0.594453,90,90,11,128,128,98.95628,0,9999.99,4.83,4.953649,2,9,33.4,0,33.4000015258789,38.04,1555.21961,08/28/22,11:40:17,32.07,57.44,38.04,0.992,8.13,-68.2,-3.0,-1.6,-1746,97.6,5.80,12.8,,
25.9096393333333,-80.137074,12:07:13.53,8/28/2022,11,0.459,153.22,-7.21064885262131,0.8,13.7,8.81,-0.58,12.3,36.8,.00,5.13,5.13,84,21,463.7,15.9,-1.3,D,1443,19,354.643,0,0.08,128,346.67,-80.13789169,25.91274273,0,0,0,N,0.594453,90,90,11,128,128,98.95628,0,9999.99,5.13,5.260931,2,9,33.3,0,33.4000015258789,38.04,1555.21961,08/28/22,11:40:17,32.07,57.44,38.04,0.992,8.13,-68.2,-3.0,-1.6,-1746,97.6,5.80,12.8,,
25.9096393333333,-80.1370721666667,12:07:14.55,8/28/2022,11,0.172,153.22,-7.21065035410572,0.8,14.5,9.63,1.31,1.04,36.8,.01,5.00,5.01,84,21,463.7,15.9,-1.3,D,1443,19,354.685,0,0.08,128,346.64,-80.13789169,25.91274273,0,0,0,N,0.594453,90,90,11,128,128,98.95628,0,9999.99,4.99,5.118059,2,9,33.4,0,33.4000015258789,37.78,1554.95374,08/28/22,11:40:18,32.09,57.10,37.78,1.229,8.13,-68.0,-3.0,-4.3,196,97.3,5.79,12.9,,
25.909639,-80.1370708333333,12:07:15.56,8/28/2022,11,0.159,153.22,-7.2106514390091,0.8,8.9,3.9,2.15,0.37,36.8,.02,5.07,5.08,84,21,463.7,15.9,-1.3,D,1430.1,19,354.752,0,0.08,128,346.62,-80.13789169,25.91274273,0,0,0,N,0.594453,90,90,11,128,128,98.95628,0,9999.99,5.09,5.217,2,9,33.4,0,33.4000015258789,37.96,1555.13938,08/28/22,11:40:20,32.09,57.33,37.96,0.890,8.13,-68.1,-3.2,-5.3,5622,97.2,5.77,12.9,,
25.90964,-80.1370698333333,12:07:16.56,8/28/2022,11,0.262,153.22,-7.21065218388845,0.8,4,358.88,0.04,3.98,36.8,.00,5.16,5.16,84,21,463.7,15.9,-1.3,D,1430.1,19,354.667,0,0.08,128,346.6,-80.13789169,25.91274273,0,0,0,N,0.594453,90,90,11,128,128,98.95628,0,9999.99,5.16,5.287,2,9,33.4,0,33.4000015258789,37.96,1555.13938,08/28/22,11:40:20,32.09,57.33,37.96,0.890,8.13,-68.1,-3.2,-5.3,5622,97.2,5.77,12.9,,
25.9096365,-80.1370651666667,12:07:17.56,8/28/2022,11,0.501,153.22,-7.21065290807773,0.8,350.4,344.98,3.31,-2.53,36.8,.02,5.10,5.13,84,21,463.7,15.9,-1.3,D,1430.1,19,355.154,0,0.08,128,346.54,-80.13789169,25.91274273,0,0,0,N,0.594453,90,90,11,128,128,98.95628,0,9999.99,5.11,5.235703,2,9,33.4,0,33.4000015258789,37.98,1555.15959,08/28/22,11:40:21,32.10,57.36,37.98,1.018,8.13,-68.3,-3.5,-2.6,-3168,97.4,5.78,12.8,,
25.9096358333333,-80.1370653333333,12:07:18.56,8/28/2022,11,0.383,153.22,-7.21065520616626,0.8,349.2,343.76,2.51,5.72,36.8,.02,5.15,5.17,84,21,463.6,15.9,-1.3,D,1430.1,19,355.222,0,0.08,128,346.55,-80.13789169,25.91274273,0,0,0,N,0.594453,90,90,11,128,128,98.95628,0,9999.99,5.17,5.30191,2,9,33.3,0,33.2999992370605,38.03,1555.02691,08/28/22,11:40:23,32.07,57.43,38.03,0.935,8.13,-68.3,-3.7,-5.0,-919,97.5,5.79,12.9,,
25.9096345,-80.137063,12:07:19.56,8/28/2022,11,0.541,153.22,-7.21065501925613,0.8,344.5,338.97,1.24,-7.8,36.8,.01,5.18,5.18,84,21,463.6,15.9,-1.3,D,1430.1,19,355.421,0,0.08,128,346.51,-80.13789169,25.91274273,0,0,0,N,0.594453,90,90,11,128,128,98.95628,0,9999.99,5.20,5.327,2,9,33.4,0,33.2999992370605,38.03,1555.02691,08/28/22,11:40:23,32.07,57.43,38.03,0.935,8.13,-68.3,-3.7,-5.0,-919,97.5,5.79,12.9,,
25.9096346666667,-80.137062,12:07:20.56,8/28/2022,11,0.291,153.22,-7.21065622347689,0.8,340.1,334.5,0.69,1.1,36.8,.00,5.19,5.20,84,21,463.6,15.9,-1.3,D,1430.1,19,355.426,0,0.08,128,346.5,-80.13789169,25.91274273,0,0,0,N,0.594453,90,90,11,128,128,98.95628,0,9999.99,5.20,5.327,2,9,33.4,0,33.4000015258789,37.69,1554.86232,08/28/22,11:40:24,32.11,56.98,37.69,0.891,8.13,-68.2,-3.1,-3.1,-192,97.4,5.79,12.9,,
25.9096331666667,-80.1370616666667,12:07:21.56,8/28/2022,11,0.267,153.22,-7.21065683731291,0.8,335.6,329.93,1.46,-1.88,36.8,.01,5.17,5.18,84,21,463.6,15.9,-1.3,D,1430.1,19,355.596,0,0.08,128,346.5,-80.13789169,25.91274273,0,0,0,N,0.594453,90,90,11,128,128,98.95628,0,9999.99,5.18,5.307,2,9,33.4,0,33.4000015258789,37.99,1555.16912,08/28/22,11:40:26,32.09,57.38,37.99,0.913,8.13,-68.2,-4.3,-3.3,150,97.5,5.79,12.9,,
25.9096316666667,-80.1370593333333,12:07:22.56,8/28/2022,11,0.468,153.22,-7.21065683593224,0.8,333.3,327.6,1.86,-2.72,36.8,.01,5.19,5.20,84,21,463.6,15.9,-1.3,D,1433.1,19,355.813,0,0.08,128,346.47,-80.13789169,25.91274273,0,0,0,N,0.594453,90,90,11,128,128,98.95628,0,9999.99,5.20,5.327,2,9,33.4,0,33.4000015258789,37.99,1555.16912,08/28/22,11:40:26,32.09,57.38,37.99,0.913,8.13,-68.2,-4.3,-3.3,150,97.5,5.79,12.9,,
25.9096305,-80.1370576666667,12:07:23.56,8/28/2022,10,0.276,153.22,-7.21065801808223,0.94,330.6,324.86,1.74,0.46,36.8,.01,5.18,5.19,84,21,463.6,15.9,-1.3,D,1433.1,19,355.978,0,0.08,128,346.45,-80.13789169,25.91274273,0,0,0,N,0.594453,90,90,11,128,128,98.95628,0,9999.99,5.20,5.327,2,9,33.3,0,33.2999992370605,37.84,1554.83274,08/28/22,11:40:27,32.12,57.18,37.84,0.937,8.13,-68.3,-3.4,-5.2,-1133,97.3,5.78,13.0,,
25.9096295,-80.1370558333333,12:07:24.56,8/28/2022,11,0.359,153.22,-7.21065884986326,0.94,330.4,324.66,1.13,-3.31,36.7,.01,5.21,5.21,84,21,463.6,15.9,-1.3,D,1433.1,19,356.129,0,0.08,128,346.42,-80.13789169,25.91274273,0,0,0,N,0.594453,90,90,11,128,128,98.95628,0,9999.99,5.22,5.347,2,9,33.3,0,33.2999992370605,37.96,1554.9547,08/28/22,11:40:29,32.12,57.33,37.96,0.929,8.13,-68.2,-3.4,-0.6,-265,97.2,5.77,12.9,,
25.9096295,-80.137055,12:07:25.56,8/28/2022,11,0.279,153.22,-7.21065980234244,0.94,330.9,325.16,0.89,-0.11,36.8,.01,5.22,5.23,84,21,463.6,15.9,-1.3,D,1432,19,356.149,0,0.08,128,346.41,-80.13789169,25.91274273,0,0,0,N,0.594453,90,90,11,128,128,98.95628,0,9999.99,5.23,5.357,2,9,33.4,0,33.2999992370605,37.96,1554.9547,08/28/22,11:40:29,32.12,57.33,37.96,0.929,8.13,-68.2,-3.4,-0.6,-265,97.2,5.77,12.9,,
25.9096285,-80.1370551666667,12:07:26.56,8/28/2022,11,0.222,153.22,-7.21066029548018,0.8,333,327.29,0.72,-0.13,36.8,.01,5.23,5.24,84,21,463.6,15.9,-1.3,D,1432,19,356.253,0,0.08,128,346.42,-80.13789169,25.91274273,0,0,0,N,0.594453,90,90,11,128,128,98.95628,0,9999.99,5.24,5.367,2,9,33.4,0,33.4000015258789,38.18,1555.36289,08/28/22,11:40:30,32.11,57.63,38.18,0.925,8.13,-68.2,-3.5,-1.1,-3011,97.0,5.75,13.0,,
25.9096288333333,-80.1370545,12:07:27.56,8/28/2022,11,0.118,153.22,-7.21066006442878,0.8,334.8,329.12,1.15,-2.11,36.8,.01,5.23,5.24,84,21,463.6,15.9,-1.3,D,1432,19,356.232,0,0.08,128,346.41,-80.13789169,25.91274273,0,0,0,N,0.594453,90,90,11,128,128,98.95628,0,9999.99,5.24,5.367,2,9,33.3,0,33.2999992370605,37.92,1554.91384,08/28/22,11:40:32,32.13,57.29,37.92,0.913,8.13,-68.4,-3.6,-5.3,1117,96.8,5.75,13.1,,
25.9096285,-80.1370541666667,12:07:28.56,8/28/2022,11,0.189,153.22,-7.21066050308025,0.8,336,330.33,1.13,-0.26,36.8,.01,5.22,5.23,84,21,463.6,15.9,-1.3,D,1432,19,356.276,0,0.08,128,346.4,-80.13789169,25.91274273,0,0,0,N,0.594453,90,90,11,128,128,98.95628,0,9999.99,5.23,5.357,2,9,33.3,0,33.2999992370605,37.92,1554.91384,08/28/22,11:40:32,32.13,57.29,37.92,0.913,8.13,-68.4,-3.6,-5.3,1117,96.8,5.75,13.1,,
25.9096283333333,-80.1370536666667,12:07:29.56,8/28/2022,11,0.213,153.22,-7.21066065619403,0.8,336.9,331.25,1.06,-1.99,36.8,.01,5.22,5.23,84,21,463.6,15.9,-1.3,D,1433,19,356.306,0,0.08,128,346.39,-80.13789169,25.91274273,0,0,0,N,0.594453,90,90,11,128,128,98.95628,0,9999.99,5.23,5.357,2,9,33.4,0,33.4000015258789,38.13,1555.31209,08/28/22,11:40:33,32.11,57.57,38.13,0.959,8.13,-68.4,-3.7,-1.1,111,97.0,5.75,12.8,,
25.9096285,-80.1370531666667,12:07:30.56,8/28/2022,10,0.166,153.22,-7.21066093000602,0.94,338.2,332.57,1.84,4.51,36.8,.01,5.24,5.25,84,21,463.6,15.9,-1.3,D,1433,19,356.300,0,0.08,128,346.39,-80.13789169,25.91274273,0,0,0,N,0.594453,90,90,11,128,128,98.95628,0,9999.99,5.25,5.377,2,9,33.4,0,33.4000015258789,37.78,1554.95478,08/28/22,11:40:35,32.13,57.10,37.78,0.926,8.13,-68.3,-4.4,-1.6,-475,96.6,5.74,12.9,,
25.9096286666667,-80.1370521666667,12:07:31.56,8/28/2022,10,0.255,153.22,-7.2106612479593,0.94,337.4,331.76,0.08,6.66,36.8,.00,5.23,5.23,84,21,463.6,15.9,-1.3,D,1433,19,356.305,0,0.08,128,346.37,-80.13789169,25.91274273,0,0,0,N,0.594453,90,90,11,128,128,98.95628,0,9999.99,5.24,5.367,2,9,33.4,0,33.4000015258789,37.78,1554.95478,08/28/22,11:40:35,32.13,57.10,37.78,0.926,8.13,-68.3,-4.4,-1.6,-475,96.6,5.74,12.9,,
25.9096295,-80.1370505,12:07:32.56,8/28/2022,11,0.49,153.22,-7.21066186179517,0.94,312.2,306.25,-0.27,33.8,36.8,.00,5.14,5.14,84,21,463.6,15.9,-1.3,D,1435.2,19,356.255,0,0.08,128,346.34,-80.13789169,25.91274273,0,0,0,N,0.594453,90,90,11,128,128,98.95628,0,9999.99,5.14,5.268572,2,9,33.3,0,33.2999992370605,38.18,1555.17803,08/28/22,11:40:36,32.11,57.63,38.18,0.905,8.13,-68.3,-3.7,-3.9,209,96.6,5.73,12.9,,
25.9096293333333,-80.1370468333333,12:07:33.56,8/28/2022,11,0.894,153.22,-7.21066295842378,0.8,303.9,297.85,2.35,-7.71,36.8,.02,4.83,4.84,84,21,463.6,15.9,-1.3,D,1406.9,19,356.359,0,0.08,128,346.28,-80.13789169,25.91274273,0,0,0,N,0.594453,90,90,11,128,128,98.95628,0,9999.99,4.83,4.95633,2,9,33.4,0,33.4000015258789,38.16,1555.34317,08/28/22,11:40:38,32.13,57.61,38.16,0.959,8.13,-68.3,-2.6,-5.4,1,97.0,5.75,13.0,,
25.909629,-80.1370426666667,12:07:34.61,8/28/2022,11,0.953,129.63,-7.21066510615887,0.8,302.9,296.84,-1.37,11.7,36.9,.00,5.24,5.23,84,21,463.6,15.9,-1.3,D,1406.9,19,356.494,0,0.08,128,346.22,-80.13789169,25.91274273,0,0,0,N,0.594453,90,90,11,128,128,98.95628,0,9999.99,5.26,5.387,2,9,33.4,0,33.4000015258789,38.16,1555.34317,08/28/22,11:40:38,32.13,57.61,38.16,0.959,8.13,-68.3,-2.6,-5.4,1,97.0,5.75,13.0,,
25.9096275,-80.1370376666667,12:07:35.63,8/28/2022,11,1.221,120.79,-7.21066752770574,0.94,310.9,304.93,-0.37,0.41,36.9,.00,5.35,5.34,84,21,463.6,15.9,-1.3,D,1406.9,19,356.776,0,0.08,128,346.15,-80.13789169,25.91274273,0,0,0,N,0.594453,90,90,11,128,128,98.95628,0,9999.99,5.33,5.457,2,9,33.4,0,33.4000015258789,37.98,1555.15662,08/28/22,11:40:39,32.11,57.37,37.98,0.933,8.13,-68.2,-3.1,-1.1,400,96.9,5.75,12.9,,
25.9096235,-80.1370316666667,12:07:36.64,8/28/2022,11,1.623,120.1,-7.21067028789545,0.94,316.3,310.39,2.8,-1.73,36.9,.02,5.29,5.31,84,21,463.6,15.9,-1.3,D,1446.8,19,357.352,0,0.08,128,346.07,-80.13789169,25.91274273,0,0,0,N,0.594453,90,90,11,128,128,98.95628,0,9999.99,5.29,5.417,2,9,33.4,0,33.4000015258789,38.13,1555.31193,08/28/22,11:40:41,32.14,57.57,38.13,0.954,8.13,-68.4,-4.2,-3.9,-1582,97.1,5.75,12.8,,
25.9096165,-80.1370196666667,12:07:37.64,8/28/2022,11,1.545,121.58,-7.21067635175505,0.94,317.4,311.5,-0.58,3.2,36.8,.00,5.29,5.29,84,21,463.6,15.9,-1.3,D,1446.8,19,358.397,0,0.08,128,345.92,-80.13789169,25.91274273,0,0,0,N,0.594453,90,90,11,128,128,98.95628,0,9999.99,5.32,5.447,2,9,33.3,0,33.4000015258789,38.13,1555.31193,08/28/22,11:40:41,32.14,57.57,38.13,0.954,8.13,-68.4,-4.2,-3.9,-1582,97.1,5.75,12.8,,
25.9096116666667,-80.1370138333333,12:07:38.64,8/28/2022,11,1.553,125.86,-7.2106794830021,1.14,318.7,312.82,-1.44,-4.02,36.8,.00,5.35,5.34,84,21,463.6,15.9,-1.3,D,1446.8,19,359.061,0,0.08,128,345.85,-80.13789169,25.91274273,0,0,0,N,0.594453,90,90,11,128,128,98.95628,0,9999.99,5.34,5.467,2,9,33.3,0,33.2999992370605,38.04,1555.0347,08/28/22,11:40:42,32.12,57.44,38.04,0.965,8.13,-68.3,-3.6,-0.9,-2068,97.2,5.77,12.9,,
25.9096071666667,-80.137008,12:07:39.66,8/28/2022,11,1.554,125.97,-7.21068229491468,0.8,321.9,316.05,1.25,1.2,36.8,.01,5.38,5.38,84,21,463.6,15.9,-1.3,D,1446.8,19,359.061,0,0.08,128,345.85,-80.13789169,25.91274273,0,0,0,N,0.594453,90,90,11,128,128,98.95628,0,9999.99,5.37,5.497,2,9,33.3,0,33.2999992370605,38.11,1555.10792,08/28/22,11:40:44,32.12,57.53,38.11,0.928,8.13,-68.3,-2.9,-4.2,-1295,97.1,5.76,13.0,,
25.9096021666667,-80.1370008333333,12:07:40.67,8/28/2022,11,1.793,128.16,-7.21068515096813,0.8,322.7,316.86,0.11,2.33,36.8,.00,5.39,5.39,84,21,463.5,15.9,-1.3,D,1451.1,19,359.689,0,0.08,128,345.78,-80.13789169,25.91274273,0,0,0,N,0.594453,90,90,11,128,128,98.95628,0,9999.99,5.40,5.527,2,9,33.3,0,33.2999992370605,38.11,1555.10792,08/28/22,11:40:44,32.12,57.53,38.11,0.928,8.13,-68.3,-2.9,-4.2,-1295,97.1,5.76,13.0,,
