Latitude,Longitude,Time,Date,Number of Sats,GPS Speed (Kn),GPS True Heading,GPS Magnetic Variation,HDOP,C Magnetic Heading,C True Heading,Pitch Angle,Roll Angle,C Inside Temp (c),DFS Depth (m),DTB Height (m),Total Water Column (m),Batt Percent,Power Watts,Watt-Hours,Batt Volts,Batt Ampers,Batt State,Time to Empty,Current Step,Dist To Next (m),Next Speed (kn),Vehicle Speed (kn),Motor Speed CMD,Next Heading,Next Long,Next Lat,Next Depth (m),Depth Goal (m),Vehicle State,Error State,Distance to Track (m),Fin Pitch R,Fin Pitch L,Pitch Goal,Fin Yaw T,Fin Yaw B,Yaw Goal,Fin Roll,DVL-Depth (m),DVL -Altitude (m),DVL -Water Column (m),DVL-FixType,DVL-FixQuality,DVL-Temperature,Conductivity (mmhos/cm),Temperature (c),Salinity (ppt),Sound Speed (m/s),Date m/d/y   ,Time hh:mm:ss,Temp C,SpCond mS/cm,Sal ppt,Depth feet,pH,pH mV,Turbid+ NTU,Chl ug/L,BGA-PC cells/mL,ODOsat %,ODO mg/L,Battery volts,ROSEM Command Type,
25.9127206666667,-80.1379265,10:56:56.30,8/28/2022,8,0.374,177.3,-7.21055149298455,2.01,102.4,96.06,1.21,-1.97,30.4,.00,1.46,1.46,89,21,488.7,16.1,-1.3,D,1500.7,0,10.909,2,0.09,128,69.74,-80.13782418,25.91275464,0,0,1,N,1.737362,64,64,11,68,68,81.12208,0,9999.99,1.47,1.597,2,9,31.1,0,31.1000003814697,36.07,1548.80523,08/28/22,10:30:01,31.45,54.77,36.07,0.995,8.15,-69.2,-0.4,-5.5,-2511,90.8,5.50,12.6,,
25.9127223333333,-80.1379258333333,10:56:57.31,8/28/2022,8,0.511,177.3,-7.21055149298455,2.01,103.1,96.71,1.34,-1.44,30.5,.00,1.45,1.45,89,21,488.7,16.1,-1.3,D,1500.7,0,10.783,2,0.09,128,70.54,-80.13782418,25.91275464,0,0,1,N,1.568365,65,65,11,66,66,81.41817,0,9999.99,1.46,1.587,2,9,31.1,0,31.1000003814697,36.07,1548.80523,08/28/22,10:30:01,31.45,54.77,36.07,0.995,8.15,-69.2,-0.4,-5.5,-2511,90.8,5.50,12.6,,
25.9127349637126,-80.1379231648124,10:56:58.31,8/28/2022,8,0.997,177.3,-7.21055149298455,2.01,101.5,95.22,3.26,0.96,30.5,.01,1.43,1.44,89,21,488.7,16.1,-1.3,D,1500.7,0,10.139,2,0.04,174,77.54,-80.13782418,25.91275464,0,0,1,N,1.568365,77,77,11,56,56,77.54031,0,9999.99,1.46,1.587,2,9,31.1,0,31.1000003814697,36.22,1548.96059,08/28/22,10:30:02,31.45,54.98,36.22,0.966,8.15,-69.0,-0.4,-3.6,-2489,90.8,5.50,12.5,,
25.9127337586258,-80.1379200271739,10:56:59.31,8/28/2022,8,0.606,177.3,-7.21055149298455,2.01,103.5,97.08,1.43,-1.79,30.5,.01,1.45,1.46,89,21,488.7,16.1,-1.3,D,1500.7,0,9.864,2,0.16,174,76.38,-80.13782418,25.91275464,0,0,1,N,1.568365,66,66,11,44,44,76.41463,0,9999.99,1.46,1.587,2,9,31.1,0,31.1000003814697,36.04,1548.77513,08/28/22,10:30:04,31.45,54.73,36.04,0.985,8.14,-68.5,0.3,-2.2,-1758,90.6,5.49,12.6,,
25.9127276433869,-80.137916486688,10:57:00.31,8/28/2022,9,0.782,177.3,-7.21055149298455,2.01,105.3,98.75,1.1,1.27,30.5,.00,1.52,1.52,89,38,488.7,16,-2.3,D,852.4,0,9.708,2,0.43,174,71.99,-80.13782418,25.91275464,0,0,1,N,1.568365,64,64,11,20,20,72.07098,0,9999.99,1.53,1.657,2,9,31.1,0,31.1000003814697,36.04,1548.77513,08/28/22,10:30:04,31.45,54.73,36.04,0.985,8.14,-68.5,0.3,-2.2,-1758,90.6,5.49,12.6,,
25.9127233733251,-80.1379134346256,10:57:01.31,8/28/2022,10,0.759,177.3,-7.21055149298455,1.1,103.8,97.36,1.47,1.28,30.5,.00,1.63,1.63,89,38,488.7,16,-2.3,D,852.4,0,9.580,2,0.79,174,68.72,-80.13782418,25.91275464,0,0,1,N,1.568365,66,66,11,13,13,68.85582,0,9999.99,1.64,1.767,2,9,31.1,0,31.1000003814697,36.31,1549.05418,08/28/22,10:30:05,31.45,55.10,36.31,1.030,8.15,-69.2,-1.0,-8.0,-2128,90.7,5.49,12.5,,
25.9127242492932,-80.1379079577172,10:57:02.31,8/28/2022,10,0.976,177.3,-7.21055149298455,1.05,99.1,92.98,1.77,3.47,30.5,.00,1.70,1.71,89,38,488.7,16,-2.3,D,852.4,0,9.035,2,1.09,174,68.04,-80.13782418,25.91275464,0,0,1,N,1.568365,68,68,11,28,28,68.21409,0,9999.99,1.72,1.847,2,9,31.1,0,31.1000003814697,36.91,1549.67568,08/28/22,10:30:07,31.45,55.90,36.91,1.013,8.14,-68.9,-1.5,-0.4,-1960,91.0,5.49,12.6,,
25.9127189987088,-80.1378969298678,10:57:03.33,8/28/2022,9,1.201,177.3,-7.21055149298455,0.93,92.1,86.43,2.78,6.29,30.6,.01,2.09,2.10,89,39,488.7,16,-2.4,D,818.1,0,8.286,2,1.28,174,61.42,-80.13782418,25.91275464,0,0,1,N,1.568365,74,74,11,28,28,61.66934,0,9999.99,2.11,2.237,2,9,31.1,0,31.1000003814697,36.91,1549.67568,08/28/22,10:30:07,31.45,55.90,36.91,1.013,8.14,-68.9,-1.5,-0.4,-1960,91.0,5.49,12.6,,
25.9127152532293,-80.1378873163917,10:57:04.33,8/28/2022,9,1.325,139.79,-7.21055149298455,0.93,84.4,79.15,3.49,4.42,30.6,.01,2.62,2.63,89,39,488.7,16,-2.4,D,818.1,0,7.685,2,1.38,174,55.26,-80.13782418,25.91275464,0,0,1,N,1.568365,78,78,11,32,32,55.50604,0,9999.99,2.65,2.777,2,9,31.1,0,31.1000003814697,35.6,1548.3192,08/28/22,10:30:09,31.50,54.15,35.60,0.990,8.15,-69.2,-2.8,-8.2,-3214,90.8,5.51,12.6,,
25.912715752303,-80.1378792647645,10:57:05.33,8/28/2022,9,1.345,111.72,-7.21055149298455,0.93,76.7,71.8,3.75,4.71,30.5,.01,2.72,2.74,89,39,488.7,16,-2.4,D,818.1,0,7.004,2,1.42,174,51.87,-80.13782418,25.91275464,0,0,1,N,1.568365,79,79,11,48,48,52.08068,0,9999.99,2.76,2.887,2,9,31.1,0,31.1000003814697,36.77,1549.53118,08/28/22,10:30:10,31.46,55.72,36.77,0.965,8.14,-68.9,-2.0,-4.8,-2168,90.7,5.48,12.4,,
25.9127154398138,-80.1378687805737,10:57:06.41,8/28/2022,11,1.447,91.26,-7.21055149298455,0.93,68,63.38,3.92,4.27,30.5,.01,2.72,2.73,89,39,488.7,16,-2.4,D,818.1,0,6.237,2,1.35,174,45.66,-80.13782418,25.91275464,0,0,1,N,1.568365,81,81,11,60,60,46.72618,0,9999.99,2.75,2.877,2,9,31.1,0,31.1000003814697,36.42,1549.16867,08/28/22,10:30:11,31.50,55.25,36.42,0.990,8.14,-68.9,-1.9,-3.4,-549,90.7,5.48,12.6,,
25.9127144152066,-80.1378579949539,10:57:07.41,8/28/2022,11,1.442,78.16,-7.21055149298455,0.85,63.3,58.79,3.88,5.03,30.6,.01,2.74,2.75,89,38,488.7,16,-2.3,D,855.2,1,15.642,2,1.42,174,130.21,-80.13773856,25.9126236,0,0,1,N,5.284237,80,80,11,250,250,116.1118,0,9999.99,2.77,2.897,2,9,31.1,0,31.1000003814697,36.64,1549.39642,08/28/22,10:30:12,31.54,55.55,36.64,0.986,8.15,-69.0,-2.2,-2.6,-1128,90.7,5.47,12.6,,
25.9127214975083,-80.1378528658289,10:57:08.41,8/28/2022,11,1.633,68.01,-7.21055149298455,0.85,67.6,62.99,2.13,10.9,30.5,.00,2.75,2.75,89,38,488.7,16,-2.3,D,855.2,1,15.787,2,1.46,174,133.6,-80.13773856,25.9126236,0,0,1,N,4.457279,70,70,11,250,250,120.4338,0,9999.99,2.77,2.896625,2,9,31.2,0,31.2000007629395,36.88,1549.84227,08/28/22,10:30:13,31.56,55.86,36.88,0.982,8.14,-68.8,-5.2,-7.8,-1155,90.8,5.47,12.7,,
25.9127299491842,-80.1378483673243,10:57:09.53,8/28/2022,11,1.467,58.12,-7.21055149298455,0.85,74.1,69.29,3.2,7.16,30.5,.00,2.94,2.94,89,38,488.7,16,-2.3,D,855.2,1,16.139,2,1.44,175,137.12,-80.13773856,25.9126236,0,0,1,N,3.55634,75,75,11,250,250,125.5927,0,9999.99,2.96,3.087,2,9,31.1,0,31.2000007629395,36.83,1549.79038,08/28/22,10:30:14,31.54,55.80,36.83,0.993,8.15,-69.2,-3.1,-2.9,-4010,91.0,5.48,12.4,,
25.912736995149,-80.1378451630042,10:57:10.53,8/28/2022,11,1.389,55.41,-7.21055149298455,0.85,81.3,76.2,3.59,7.18,30.6,.00,3.15,3.15,89,55,488.6,16,-3.4,D,586.8,1,16.513,2,1.36,176,139.78,-80.13773856,25.9126236,0,0,1,N,2.886076,77,77,11,250,250,129.7182,0,9999.99,3.18,3.307,2,9,31.2,0,31.2000007629395,36.74,1549.69705,08/28/22,10:30:15,31.56,55.68,36.74,0.982,8.14,-68.8,-1.9,-3.6,-3943,91.3,5.50,12.7,,
25.9127423836228,-80.1378427100294,10:57:11.53,8/28/2022,11,1.273,56.23,-7.21055149298455,0.85,87.9,82.47,3.39,8.7,30.5,.00,3.20,3.20,89,55,488.6,16,-3.4,D,586.8,1,16.822,2,1.28,178,141.74,-80.13773856,25.9126236,0,0,1,N,2.363755,77,77,11,250,250,133.0842,0,9999.99,3.23,3.357,2,9,31.2,0,31.2000007629395,36.46,1549.4074,08/28/22,10:30:16,31.57,55.30,36.46,0.990,8.14,-69.0,-2.6,-6.2,-1791,91.3,5.51,12.6,,
25.9127459768258,-80.1378382635243,10:57:12.53,8/28/2022,11,1.246,62.8,-7.21055149298455,0.85,93.6,87.83,3.61,7.76,30.5,.00,3.34,3.34,89,55,488.6,16,-3.4,D,586.8,1,16.871,2,1.24,179,143.77,-80.13773856,25.9126236,0,0,1,N,1.763813,80,80,11,250,250,137.1255,0,9999.99,3.37,3.497,2,9,31.2,0,31.2000007629395,37.37,1550.34957,08/28/22,10:30:17,31.55,56.52,37.37,0.981,8.15,-69.0,-4.3,-7.0,-2421,91.2,5.48,12.6,,
25.9127477262975,-80.1378328214338,10:57:13.55,8/28/2022,11,1.244,69.03,-7.21055149298455,0.85,98.9,92.8,3.08,9.2,30.5,.00,3.45,3.45,89,55,488.6,16,-3.4,D,586.8,1,16.715,2,1.24,181,145.66,-80.13773856,25.9126236,0,0,1,N,1.192812,75,75,11,250,250,141.0808,0,9999.99,3.48,3.607,2,9,31.2,0,31.2000007629395,37.16,1550.13214,08/28/22,10:30:18,31.56,56.24,37.16,0.978,8.14,-68.9,-5.0,-6.0,-4309,91.1,5.48,12.4,,
25.9127485329731,-80.1378256586093,10:57:14.56,8/28/2022,11,1.355,75.41,-7.21055149298455,0.8,103.5,97.08,3.46,9.1,30.5,.00,3.55,3.55,89,65,488.6,16,-4.1,D,494,1,16.397,2,1.24,183,147.91,-80.13773856,25.9126236,0,0,1,N,0.535257,78,78,11,250,250,145.7305,0,9999.99,3.58,3.705041,2,9,31.2,0,31.2000007629395,36.95,1549.91437,08/28/22,10:30:19,31.61,55.96,36.95,0.970,8.15,-69.1,-5.5,-7.4,-566,91.1,5.48,12.7,,
25.9127494671826,-80.1378187599293,10:57:15.56,8/28/2022,11,1.261,81.96,-7.21055149298455,0.8,110.4,103.48,2.93,12,30.5,.00,3.78,3.78,89,65,488.6,16,-4.1,D,494,1,16.132,2,1.27,185,150.18,-80.13773856,25.9126236,0,0,1,N,0.1147899,72,72,11,250,250,150.3795,0,9999.99,3.80,3.931726,2,9,31.2,0,31.2000007629395,37.14,1550.11104,08/28/22,10:30:20,31.58,56.21,37.14,0.988,8.15,-69.4,-5.9,-5.3,-1730,91.5,5.50,12.5,,
25.9127500028432,-80.1378133995,10:57:16.56,8/28/2022,11,1.162,84.09,-7.21055149298455,0.85,117.3,109.87,2.82,10.7,30.5,.00,3.81,3.81,89,72,488.6,15.9,-4.5,D,446.8,1,15.925,2,1.3,186,151.96,-80.13773856,25.9126236,0,0,1,N,0.6200321,71,71,11,250,250,153.9891,0,9999.99,3.83,3.959945,2,9,31.2,0,31.2000007629395,36.83,1549.79007,08/28/22,10:30:21,31.57,55.80,36.83,0.985,8.15,-69.4,-5.6,1.7,-3486,91.4,5.51,12.6,,
25.9127493930653,-80.13780714317,10:57:17.56,8/28/2022,11,1.315,90.85,-7.21055149298455,0.85,123.9,115.97,2.89,11.1,30.5,.00,3.81,3.81,89,72,488.6,15.9,-4.5,D,446.8,1,15.579,2,1.31,188,153.88,-80.13773856,25.9126236,0,0,1,N,1.130979,74,74,11,250,250,157.606,0,9999.99,3.83,3.956852,2,9,31.2,0,31.2000007629395,36.59,1549.5416,08/28/22,10:30:22,31.58,55.48,36.59,0.991,8.15,-69.4,-5.4,-2.2,-2754,91.3,5.50,12.6,,
25.9127477447685,-80.1377998989795,10:57:18.56,8/28/2022,11,1.397,98.48,-7.21055149298455,0.8,131,122.55,4.14,13.8,30.5,.00,3.79,3.79,89,72,488.6,15.9,-4.5,D,446.8,1,15.106,2,1.35,190,156.04,-80.13773856,25.9126236,0,0,1,N,1.664232,83,83,11,250,250,161.3085,0,9999.99,3.82,3.947995,2,9,31.2,0,31.2000007629395,37.04,1550.00765,08/28/22,10:30:23,31.56,56.08,37.04,0.972,8.15,-69.2,-4.2,-3.0,-3229,91.6,5.51,12.6,,
25.912745564799,-80.1377944624399,10:57:19.56,8/28/2022,11,1.339,104.82,-7.21055149298455,0.85,137.6,128.7,3.87,15.1,30.5,.00,3.80,3.81,89,92,488.6,15.9,-5.7,D,351.5,1,14.669,2,1.36,192,157.6,-80.13773856,25.9126236,0,0,1,N,2.01403,81,81,11,250,250,163.6871,0,9999.99,3.83,3.955027,2,9,31.2,0,31.2000007629395,36.86,1549.82147,08/28/22,10:30:24,31.54,55.83,36.86,0.986,8.15,-69.4,-5.5,-2.8,-2035,91.8,5.53,12.7,,
25.9127425405808,-80.1377899820892,10:57:20.56,8/28/2022,11,1.343,115.69,-7.21055149298455,0.85,147.5,138,4.12,14.4,30.5,.00,3.75,3.75,89,92,488.6,15.9,-5.7,D,351.5,1,14.191,2,1.39,193,158.75,-80.13773856,25.9126236,0,0,1,N,2.251346,82,82,11,236,236,165.2743,0,9999.99,3.78,3.907719,2,9,31.2,0,31.2000007629395,36.78,1549.73848,08/28/22,10:30:25,31.57,55.73,36.78,0.994,8.15,-69.3,-4.7,1.0,-2739,91.9,5.54,12.5,,
25.9127386281918,-80.1377860757156,10:57:21.56,8/28/2022,11,1.362,121.81,-7.21055149298455,0.85,156.3,146.38,3.45,14.5,30.5,.00,3.73,3.74,89,92,488.6,15.9,-5.7,D,351.5,1,13.645,2,1.42,194,159.62,-80.13773856,25.9126236,0,0,1,N,2.378939,78,78,11,206,206,166.1178,0,9999.99,3.76,3.891264,2,9,31.2,0,31.2000007629395,36.84,1549.80063,08/28/22,10:30:26,31.59,55.81,36.84,0.978,8.15,-69.3,-5.1,-2.8,-2125,92.2,5.55,12.5,,
25.9127340468012,-80.1377832134961,10:57:22.56,8/28/2022,11,1.518,130.82,-7.21055149298455,0.85,163.8,153.63,3.59,13,30.5,.00,3.77,3.77,89,92,488.6,15.9,-5.7,D,351.5,1,13.068,2,1.46,195,160.02,-80.13773856,25.9126236,0,0,1,N,2.378079,77,77,11,181,181,166.112,0,9999.99,3.80,3.92949,2,9,31.2,0,31.2000007629395,37.01,1549.97666,08/28/22,10:30:27,31.56,56.04,37.01,0.970,8.16,-69.6,-5.3,-7.9,-3075,92.3,5.56,12.6,,
25.9127285376872,-80.1377814661026,10:57:23.56,8/28/2022,11,1.675,143.98,-7.21055149298455,0.85,170.7,160.38,3.68,12.2,30.4,.00,3.78,3.78,89,113,488.5,15.8,-7.1,D,284.4,1,12.433,2,1.53,196,159.81,-80.13773856,25.9126236,0,0,1,N,2.232713,79,79,11,150,150,165.1514,0,9999.99,3.81,3.937238,2,9,31.2,0,31.2000007629395,36.89,1549.85243,08/28/22,10:30:28,31.57,55.89,36.89,0.985,8.15,-69.4,-4.2,-2.8,-1498,92.4,5.56,12.6,,
25.9127204566528,-80.1377793520239,10:57:24.56,8/28/2022,11,1.766,154.67,-7.21055149298455,0.85,174.3,163.93,2.7,13.4,30.5,.00,3.77,3.77,89,113,488.5,15.8,-7.1,D,284.4,1,11.517,2,1.65,196,159.25,-80.13773856,25.9126236,0,0,1,N,1.964239,75,75,11,127,127,163.352,0,9999.99,3.80,3.925772,2,9,31.2,0,31.2000007629395,36.65,1549.60399,08/28/22,10:30:29,31.58,55.56,36.65,0.991,8.15,-69.5,-5.1,-3.1,-4680,92.3,5.57,12.6,,
25.912711683257,-80.1377777857956,10:57:25.56,8/28/2022,11,1.875,164.8,-7.21055149298455,0.85,175,164.63,2.02,17.1,30.5,.00,3.74,3.74,89,113,488.5,15.8,-7.1,D,284.4,1,10.551,2,1.75,196,158.17,-80.13773856,25.9126236,0,0,1,N,1.613673,71,71,11,112,112,160.9615,0,9999.99,3.76,3.891786,2,9,31.2,0,31.2000007629395,37.21,1550.18372,08/28/22,10:30:30,31.56,56.31,37.21,0.988,8.15,-69.3,-5.1,-2.5,-1435,92.3,5.55,12.5,,
25.9127014116293,-80.1377770245766,10:57:26.56,8/28/2022,11,1.943,169.18,-7.21055149298455,0.85,174.8,164.43,1.22,17.1,30.4,.00,3.72,3.72,89,127,488.5,15.8,-8,D,252.4,1,9.469,2,1.84,196,156.03,-80.13773856,25.9126236,0,0,1,N,1.101438,64,64,11,99,99,157.3965,0,9999.99,3.73,3.857059,2,9,31.2,0,31.2000007629395,36.91,1549.87293,08/28/22,10:30:31,31.55,55.91,36.91,1.019,8.15,-69.5,-4.7,-4.4,-2294,92.2,5.55,12.6,,
25.9126922050874,-80.1377771462778,10:57:27.56,8/28/2022,11,1.967,171.12,-7.21055149298455,0.85,174,163.64,1.95,16.7,30.4,.00,3.66,3.66,89,127,488.5,15.8,-8,D,252.4,1,8.550,2,1.88,196,153.17,-80.13773856,25.9126236,0,0,1,N,0.5653438,69,69,11,88,88,153.5994,0,9999.99,3.68,3.810962,2,9,31.2,0,31.2000007629395,36.76,1549.7177,08/28/22,10:30:32,31.59,55.70,36.76,1.023,8.15,-69.5,-4.4,-4.5,-1066,92.2,5.55,12.6,,
25.9126825874111,-80.1377762613736,10:57:28.56,8/28/2022,11,1.967,172.9,-7.21055149298455,0.85,171.5,161.16,3.18,17.6,30.5,.00,3.63,3.63,89,127,488.5,15.8,-8,D,252.4,1,7.566,2,1.92,197,150.11,-80.13773856,25.9126236,0,0,1,N,9.952697E-02,76,76,11,83,83,150.2701,0,9999.99,3.65,3.772053,2,9,31.2,0,31.2000007629395,37.28,1550.25614,08/28/22,10:30:33,31.57,56.40,37.28,0.999,8.15,-69.4,-5.3,-5.0,-4186,92.2,5.54,12.6,,
25.9126739146053,-80.1377750245793,10:57:29.56,8/28/2022,11,1.977,173.1,-7.21055149298455,0.85,169.1,158.8,1.95,17.1,30.5,.00,3.59,3.59,89,127,488.5,15.8,-8,D,252.4,1,6.679,2,1.96,197,146.9,-80.13773856,25.9126236,0,0,1,N,0.2867098,69,69,11,82,82,147.5048,0,9999.99,3.61,3.735231,2,9,31.2,0,31.2000007629395,36.91,1549.87334,08/28/22,10:30:34,31.56,55.90,36.91,1.014,8.16,-69.6,-4.9,-6.7,-2829,92.1,5.55,12.4,,
25.9126651199617,-80.1377734847636,10:57:30.56,8/28/2022,10,1.939,171.89,-7.21055149298455,0.85,165.3,155.09,2.79,18.4,30.5,.00,3.59,3.60,89,127,488.5,15.8,-8,D,252.7,1,5.790,2,1.96,197,142.89,-80.13773856,25.9126236,0,0,1,N,0.6589463,75,75,11,83,83,144.8492,0,9999.99,3.62,3.742552,2,9,31.2,0,31.2000007629395,36.88,1549.84218,08/28/22,10:30:35,31.58,55.86,36.88,1.041,8.15,-69.3,-5.3,-4.4,-1454,92.5,5.57,12.6,,
25.9126563277462,-80.1377707662895,10:57:31.56,8/28/2022,10,2.053,168.99,-7.21055149298455,0.85,161.4,151.3,2.45,18.3,30.5,.00,3.62,3.62,89,127,488.5,15.8,-8,D,252.7,1,4.860,2,1.97,197,138.49,-80.13773856,25.9126236,0,0,1,N,0.9275164,72,72,11,92,92,142.944,0,9999.99,3.64,3.767191,2,9,31.2,0,31.2000007629395,37.37,1550.34939,08/28/22,10:30:36,31.58,56.52,37.37,1.024,8.15,-69.3,-4.6,-3.7,-1865,92.5,5.55,12.5,,
25.9126482322831,-80.1377681929933,10:57:32.56,8/28/2022,10,1.949,166.54,-7.21055149298455,0.85,160.3,150.23,2.51,16.6,30.5,.00,3.56,3.56,89,127,488.5,15.8,-8,D,252.7,2,20.926,2,2.01,197,139.81,-80.13763318,25.91250447,0,0,1,N,0.5947468,72,72,11,84,84,138.7173,0,9999.99,3.58,3.705683,2,9,31.2,0,31.2000007629395,37.16,1550.13187,08/28/22,10:30:37,31.56,56.25,37.16,1.013,8.15,-69.3,-5.1,-9.9,-3955,92.7,5.57,12.6,,
25.9126394349776,-80.1377646820687,10:57:33.56,8/28/2022,10,2.005,162.8,-7.21055149298455,0.85,158.2,148.21,3.21,15.5,30.5,.00,3.57,3.57,89,127,488.5,15.8,-8,D,252.7,2,19.955,2,2.03,197,138.77,-80.13763318,25.91250447,0,0,1,N,0.9319783,76,76,11,81,81,136.7612,0,9999.99,3.59,3.719317,2,9,31.2,0,31.2000007629395,36.95,1549.91445,08/28/22,10:30:38,31.60,55.96,36.95,1.010,8.15,-69.3,-3.7,1.2,-1858,92.6,5.57,12.5,,
25.912630431701,-80.1377598809996,10:57:34.56,8/28/2022,11,2.104,159.77,-7.21055149298455,0.85,153.6,143.8,1.98,17.5,30.5,.00,3.57,3.58,89,119,488.4,15.8,-7.5,D,270.2,2,18.888,2,2.06,197,137.86,-80.13763318,25.91250447,0,0,1,N,1.189666,69,69,11,89,89,134.7932,0,9999.99,3.60,3.7238,2,9,31.2,0,31.2000007629395,37.25,1550.22522,08/28/22,10:30:39,31.58,56.36,37.25,1.017,8.15,-69.3,-5.0,-2.1,-3005,92.6,5.57,12.6,,
25.9126217474787,-80.1377549776375,10:57:35.56,8/28/2022,11,2.085,158.02,-7.21055149298455,0.85,151.1,141.42,3.26,16.6,30.5,.01,3.60,3.61,89,119,488.4,15.8,-7.5,D,270.2,2,17.845,2,2.08,197,136.95,-80.13763318,25.91250447,0,0,1,N,1.413573,77,77,11,92,92,132.6078,0,9999.99,3.62,3.748724,2,9,31.2,0,31.2000007629395,37.01,1549.97682,08/28/22,10:30:40,31.57,56.04,37.01,1.029,8.15,-69.3,-4.7,-3.1,-4708,92.7,5.58,12.6,,
25.9126132503629,-80.1377503862391,10:57:36.56,8/28/2022,11,2.157,155.51,-7.21055149298455,0.85,148.9,139.33,2.78,16.2,30.5,.01,3.60,3.61,89,119,488.4,15.8,-7.5,D,270.2,2,16.844,2,2.16,196,135.9,-80.13763318,25.91250447,0,0,1,N,1.64322,74,74,11,89,89,129.9116,0,9999.99,3.63,3.756607,2,9,31.2,0,31.2000007629395,37.06,1550.02868,08/28/22,10:30:41,31.60,56.11,37.06,1.025,8.15,-69.4,-5.1,-6.5,-837,92.7,5.57,12.6,,
25.9126051418296,-80.1377442602152,10:57:37.56,8/28/2022,11,2.18,151.81,-7.21055149298455,0.85,145,135.64,2.43,16.7,30.6,.01,3.57,3.58,89,113,488.4,15.8,-7.1,D,284.8,2,15.771,2,2.2,196,135.22,-80.13763318,25.91250447,0,0,1,N,1.738812,72,72,11,101,101,129.2307,0,9999.99,3.59,3.715222,2,9,31.2,0,31.2000007629395,37.17,1550.14292,08/28/22,10:30:42,31.56,56.26,37.17,1.022,8.15,-69.3,-5.0,-3.9,-1631,92.7,5.57,12.4,,
25.9125970314453,-80.1377374892171,10:57:38.56,8/28/2022,11,2.124,148.52,-7.21055149298455,0.85,142.5,133.29,2.85,17.6,30.6,.00,3.62,3.62,89,113,488.4,15.8,-7.1,D,284.8,2,14.655,2,2.2,196,134.61,-80.13763318,25.91250447,0,0,1,N,1.777132,76,76,11,111,111,128.9692,0,9999.99,3.64,3.768041,2,9,31.2,0,31.2000007629395,37.01,1549.97696,08/28/22,10:30:43,31.59,56.04,37.01,1.029,8.15,-69.5,-4.4,-4.6,-2653,92.7,5.58,12.6,,
25.9125893739381,-80.1377311587256,10:57:39.56,8/28/2022,11,2.156,143.86,-7.21055149298455,0.85,142.1,132.91,2.58,16.7,30.6,.00,3.65,3.65,89,113,488.4,15.8,-7.1,D,284.8,2,13.608,2,2.19,196,133.93,-80.13763318,25.91250447,0,0,1,N,1.811279,75,75,11,109,109,128.7358,0,9999.99,3.67,3.800812,2,9,31.2,0,31.2000007629395,37.38,1550.35958,08/28/22,10:30:44,31.59,56.54,37.38,1.043,8.15,-69.4,-4.6,-7.4,-1403,92.7,5.56,12.6,,
25.9125825356242,-80.137725383529,10:57:40.56,8/28/2022,11,2.192,141.65,-7.21055149298455,0.85,140.6,131.51,2.26,17.4,30.6,.01,3.62,3.63,89,113,488.4,15.8,-7.1,D,284.8,2,12.665,2,2.16,196,133.27,-80.13763318,25.91250447,0,0,1,N,1.837758,74,74,11,117,117,128.5556,0,9999.99,3.65,3.778086,2,9,31.2,0,31.2000007629395,37.17,1550.14229,08/28/22,10:30:45,31.57,56.26,37.17,1.016,8.15,-69.4,-4.7,-5.7,-2995,92.6,5.57,12.7,,
25.912575001639,-80.1377179498462,10:57:41.56,8/28/2022,11,2.091,139.53,-7.21055149298455,0.85,138.6,129.63,3,17.8,30.6,.01,3.69,3.70,89,107,488.3,15.8,-6.7,D,300.8,2,11.549,2,2.15,196,132.77,-80.13763318,25.91250447,0,0,1,N,1.778026,75,75,11,124,124,128.9623,0,9999.99,3.72,3.843997,2,9,31.2,0,31.2000007629395,36.94,1549.90443,08/28/22,10:30:46,31.59,55.95,36.94,1.023,8.15,-69.3,-4.3,-1.7,-3046,92.3,5.56,12.6,,
25.9125677416862,-80.1377095562926,10:57:42.56,8/28/2022,11,2.034,138.13,-7.21055149298455,0.8,139.8,130.76,2.41,16.9,30.5,.00,3.68,3.69,89,106,488.3,15.8,-6.7,D,301.8,2,10.385,2,2.13,196,132.65,-80.13763318,25.91250447,0,0,1,N,1.620973,73,73,11,123,123,130.039,0,9999.99,3.71,3.833596,2,9,31.2,0,31.2000007629395,37.16,1550.13191,08/28/22,10:30:47,31.57,56.24,37.16,1.037,8.16,-69.6,-3.6,-2.5,-2523,92.6,5.57,12.7,,
25.9125613532258,-80.1377016025813,10:57:43.56,8/28/2022,11,2.057,135.94,-7.21055149298455,0.8,139.3,130.29,2.46,17.8,30.5,.00,3.70,3.70,89,106,488.3,15.8,-6.7,D,301.8,2,9.319,2,2.13,196,132.75,-80.13763318,25.91250447,0,0,1,N,1.446084,75,75,11,133,133,131.2467,0,9999.99,3.73,3.853812,2,9,31.2,0,31.2000007629395,36.97,1549.93511,08/28/22,10:30:48,31.55,55.99,36.97,1.030,8.15,-69.6,-5.5,-2.5,-3432,92.7,5.58,12.6,,
25.9125546547297,-80.1376941475799,10:57:44.56,8/28/2022,11,2.085,135.48,-7.21055149298455,0.8,138.8,129.82,3.1,18.4,30.6,.00,3.73,3.73,89,106,488.3,15.8,-6.7,D,301.8,2,8.266,2,2.12,196,132.46,-80.13763318,25.91250447,0,0,1,N,1.323951,76,76,11,136,136,132.096,0,9999.99,3.75,3.875465,2,9,31.2,0,31.2000007629395,36.84,1549.80069,08/28/22,10:30:49,31.55,55.82,36.84,1.025,8.16,-69.6,-4.1,-8.5,-2047,92.9,5.60,12.7,,
25.9125477460498,-80.1376865334232,10:57:45.56,8/28/2022,11,2.051,134.91,-7.21055149298455,0.8,141.5,132.35,2.27,16.3,30.5,.00,3.76,3.76,89,106,488.3,15.8,-6.7,D,301.8,2,7.185,2,2.13,196,132.04,-80.13763318,25.91250447,0,0,1,N,1.200153,71,71,11,129,129,132.9608,0,9999.99,3.79,3.912778,2,9,31.2,0,31.2000007629395,37.15,1550.12155,08/28/22,10:30:50,31.51,56.22,37.15,1.025,8.16,-69.7,-4.6,-8.1,-2811,92.9,5.59,12.5,,
25.9125406114615,-80.1376790374516,10:57:46.56,8/28/2022,11,2.147,135.16,-7.21055149298455,0.8,141,131.88,3,18.1,30.6,.01,3.72,3.73,89,106,488.3,15.8,-6.7,D,302.6,2,6.098,2,2.11,196,131.23,-80.13763318,25.91250447,0,0,1,N,1.1106,75,75,11,134,134,133.5892,0,9999.99,3.75,3.876247,2,9,31.2,0,31.2000007629395,36.98,1549.94577,08/28/22,10:30:51,31.51,56.00,36.98,1.044,8.16,-69.6,-4.7,-4.6,-2341,92.7,5.58,12.6,,
25.9125326845555,-80.1376715693849,10:57:47.56,8/28/2022,11,2.134,135.71,-7.21055149298455,0.8,141.1,131.98,2.68,17,30.6,.00,3.79,3.79,89,106,488.3,15.8,-6.7,D,302.6,2,4.959,2,2.11,196,129.25,-80.13763318,25.91250447,0,0,1,N,1.074123,73,73,11,134,134,133.8465,0,9999.99,3.81,3.932156,2,9,31.2,0,31.2000007629395,37.1,1550.07003,08/28/22,10:30:52,31.54,56.17,37.10,1.011,8.15,-69.5,-4.5,-2.2,118,92.6,5.57,12.6,,
25.9125254443421,-80.1376647295205,10:57:48.56,8/28/2022,11,2.153,136.75,-7.21055149298455,0.8,143.9,134.61,2.74,17.8,30.5,.00,3.78,3.79,89,104,488.2,15.8,-6.5,D,309.4,3,23.942,2,2.09,195,150.69,-80.13754756,25.91233769,0,0,1,N,1.929054,73,73,11,173,173,146.1715,0,9999.99,3.81,3.937626,2,9,31.2,0,31.2000007629395,37,1549.96643,08/28/22,10:30:53,31.50,56.02,37.00,1.036,8.15,-69.5,-5.2,-4.8,-4021,92.8,5.59,12.6,,
25.9125173225803,-80.1376574352508,10:57:49.56,8/28/2022,11,2.135,136.29,-7.21055149298455,0.8,148.7,139.14,2.79,15.9,30.6,.00,3.82,3.82,89,104,488.2,15.8,-6.5,D,309.4,3,22.798,2,2.08,195,151.18,-80.13754756,25.91233769,0,0,1,N,1.634473,72,72,11,156,156,146.6492,0,9999.99,3.85,3.972399,2,9,31.2,0,31.2000007629395,36.88,1549.84216,08/28/22,10:30:54,31.49,55.86,36.88,1.021,8.15,-69.6,-5.7,-4.0,-3329,93.0,5.61,12.4,,
25.9125096764086,-80.1376514510308,10:57:50.56,8/28/2022,11,2.091,137.46,-7.21055149298455,0.8,151.8,142.08,2.77,16.1,30.5,.00,3.82,3.82,89,104,488.2,15.8,-6.5,D,309.4,3,21.765,2,2.05,195,151.48,-80.13754756,25.91233769,0,0,1,N,1.444301,74,74,11,145,145,146.7387,0,9999.99,3.84,3.968868,2,9,31.2,0,31.2000007629395,36.65,1549.60397,08/28/22,10:30:55,31.50,55.56,36.65,1.025,8.16,-69.7,-4.7,-5.4,-4282,92.9,5.61,12.6,,
25.9125016610982,-80.1376452936158,10:57:51.56,8/28/2022,11,2.303,140.59,-7.21055149298455,0.8,155.2,145.33,2.93,14.2,30.5,.00,3.84,3.84,89,102,488.1,15.8,-6.4,D,314.4,3,20.688,2,2.09,195,151.8,-80.13754756,25.91233769,0,0,1,N,1.257237,75,75,11,135,135,146.7545,0,9999.99,3.86,3.989575,2,9,31.2,0,31.2000007629395,37.13,1550.10094,08/28/22,10:30:56,31.48,56.20,37.13,1.007,8.15,-69.5,-5.4,-2.5,-2207,93.1,5.61,12.6,,
25.912491950656,-80.1376394147222,10:57:52.56,8/28/2022,11,2.113,145.08,-7.21055149298455,0.8,157.3,147.34,2.74,15.4,30.5,.01,3.85,3.86,89,102,488.1,15.8,-6.4,D,314.4,3,19.459,2,2.1,195,151.83,-80.13754756,25.91233769,0,0,1,N,1.164419,73,73,11,125,125,146.9346,0,9999.99,3.88,4.004601,2,9,31.2,0,31.2000007629395,36.97,1549.93533,08/28/22,10:30:57,31.48,55.99,36.97,1.021,8.15,-69.5,-4.7,-7.6,-4259,93.0,5.61,12.6,,
25.9124837063621,-80.1376350027396,10:57:53.56,8/28/2022,11,2.147,148.51,-7.21055149298455,0.8,158.2,148.21,2.69,16.7,30.6,.01,3.83,3.83,89,102,488.1,15.8,-6.4,D,314.4,3,18.442,2,2.1,195,151.69,-80.13754756,25.91233769,0,0,1,N,1.147653,72,72,11,121,121,147.0516,0,9999.99,3.85,3.976583,2,9,31.2,0,31.2000007629395,36.71,1549.66654,08/28/22,10:30:58,31.54,55.64,36.71,1.029,8.15,-69.5,-4.7,-8.4,-3282,93.0,5.61,12.5,,
25.9124743798791,-80.1376307279143,10:57:54.56,8/28/2022,11,2.132,151.24,-7.21055149298455,0.8,158.6,148.6,2,16.6,30.5,.00,3.86,3.86,89,102,488.1,15.8,-6.4,D,314.4,3,17.327,2,2.1,195,151.31,-80.13754756,25.91233769,0,0,1,N,1.193212,69,69,11,120,120,146.731,0,9999.99,3.88,4.009434,2,9,31.2,0,31.2000007629395,37.19,1550.16339,08/28/22,10:30:59,31.53,56.28,37.19,1.052,8.15,-69.2,-4.9,-0.6,-3007,92.9,5.59,12.6,,
25.9124655531764,-80.1376269553261,10:57:55.56,8/28/2022,11,2.113,153.62,-7.21055149298455,0.8,160.1,150.04,2.16,15.3,30.5,.00,3.86,3.86,89,101,488.1,15.8,-6.3,D,317.3,3,16.285,2,2.1,195,150.82,-80.13754756,25.91233769,0,0,1,N,1.257135,70,70,11,112,112,146.2838,0,9999.99,3.88,4.011117,2,9,31.2,0,31.2000007629395,37.11,1550.08032,08/28/22,10:31:00,31.53,56.17,37.11,1.032,8.15,-69.3,-3.9,-5.1,-3882,93.0,5.60,12.6,,
25.9124568445521,-80.1376230512554,10:57:56.56,8/28/2022,11,2.123,155.28,-7.21055149298455,0.8,160,149.95,2.75,16.5,30.5,.00,3.85,3.85,89,101,488.1,15.8,-6.3,D,317.3,3,15.250,2,2.11,195,150.32,-80.13754756,25.91233769,0,0,1,N,1.307671,73,73,11,111,111,145.9308,0,9999.99,3.88,4.007005,2,9,31.2,0,31.2000007629395,37.01,1549.97655,08/28/22,10:31:01,31.57,56.04,37.01,1.025,8.15,-69.2,-5.6,0.6,-1596,93.0,5.60,12.5,,
25.9124465272639,-80.1376179201528,10:57:57.58,8/28/2022,11,2.164,155.58,-7.21055149298455,0.8,159.5,149.46,2.95,16.7,30.5,.00,3.87,3.87,89,101,488.1,15.8,-6.3,D,317.3,3,14.000,2,2.13,195,149.82,-80.13754756,25.91233769,0,0,1,N,1.325678,75,75,11,112,112,145.8054,0,9999.99,3.89,4.019706,2,9,31.2,0,31.2000007629395,37.32,1550.29759,08/28/22,10:31:02,31.55,56.46,37.32,1.033,8.15,-69.4,-5.1,-2.4,-3463,93.1,5.60,12.6,,
25.912436886456,-80.1376136030787,10:57:58.59,8/28/2022,11,2.194,156.15,-7.21055149298455,0.8,159.2,149.17,3.02,15.7,30.5,.00,3.87,3.87,89,101,488.0,15.8,-6.4,D,316.2,3,12.857,2,2.16,195,149.08,-80.13754756,25.91233769,0,0,1,N,1.383626,75,75,11,112,112,145.4021,0,9999.99,3.89,4.020915,2,9,31.2,0,31.2000007629395,37.44,1550.42187,08/28/22,10:31:03,31.61,56.62,37.44,1.025,8.15,-69.4,-4.8,-2.2,-2596,93.0,5.58,12.6,,
25.9124278490385,-80.1376090914082,10:57:59.59,8/28/2022,11,2.094,156.46,-7.21055149298455,0.8,157.9,147.92,2.62,16.8,30.4,.00,3.87,3.87,89,101,488.0,15.8,-6.4,D,316.2,3,11.764,2,2.13,195,148.46,-80.13754756,25.91233769,0,0,1,N,1.397691,73,73,11,117,117,145.3041,0,9999.99,3.89,4.016315,2,9,31.2,0,31.2000007629395,37.6,1550.5876,08/28/22,10:31:04,31.62,56.83,37.60,1.014,8.15,-69.3,-5.0,-3.6,-2371,93.0,5.57,12.6,,
25.9124178091276,-80.1376040376941,10:58:00.66,8/28/2022,11,2.081,157.01,-7.21055149298455,0.8,157.8,147.83,2.53,17,30.4,.01,3.87,3.87,89,101,488.0,15.8,-6.4,D,316.2,3,10.549,2,2.12,195,147.62,-80.13754756,25.91233769,0,0,1,N,1.411122,72,72,11,117,117,145.2108,0,9999.99,3.89,4.016506,2,9,31.2,0,31.2000007629395,37.95,1550.95025,08/28/22,10:31:06,31.63,57.30,37.95,1.030,8.15,-69.4,-4.2,-2.3,-3414,93.0,5.56,12.5,,
25.9124084221198,-80.1375992851661,10:58:01.67,8/28/2022,11,2.167,156.7,-7.21055149298455,0.8,156.6,146.67,2.35,15,30.4,.00,3.89,3.89,89,101,488.0,15.8,-6.4,D,316.2,3,9.414,2,2.13,195,146.66,-80.13754756,25.91233769,0,0,1,N,1.415755,72,72,11,118,118,145.179,0,9999.99,3.92,4.049484,2,9,31.2,0,31.2000007629395,37.95,1550.95025,08/28/22,10:31:06,31.63,57.30,37.95,1.030,8.15,-69.4,-4.2,-2.3,-3414,93.0,5.56,12.5,,
25.9123999293819,-80.1375946002217,10:58:02.69,8/28/2022,11,2.183,155.08,-7.21055149298455,0.8,155.9,146,3.13,17.6,30.5,.00,3.89,3.89,89,102,488.0,15.8,-6.4,D,315.1,3,8.369,2,2.14,195,145.79,-80.13754756,25.91233769,0,0,1,N,1.387626,76,76,11,125,125,145.3742,0,9999.99,3.91,4.0397,2,9,31.2,0,31.2000007629395,37.9,1550.89812,08/28/22,10:31:07,31.69,57.24,37.90,1.016,8.15,-69.4,-5.8,0.1,-5835,92.8,5.55,12.6,,
25.9123918017005,-80.137589921687,10:58:03.69,8/28/2022,11,2.191,153.98,-7.21055149298455,0.8,154.5,144.66,2.56,16.2,30.5,.01,3.87,3.88,89,102,488.0,15.8,-6.4,D,315.1,3,7.359,2,2.14,195,144.85,-80.13754756,25.91233769,0,0,1,N,1.344427,72,72,11,130,130,145.6753,0,9999.99,3.89,4.020915,2,9,31.2,0,31.2000007629395,38.01,1551.01233,08/28/22,10:31:09,31.69,57.38,38.01,1.024,8.15,-69.5,-5.2,-4.5,-867,93.0,5.55,12.6,,
25.9123817573182,-80.1375838930787,10:58:04.70,8/28/2022,11,2.143,152.58,-7.21055149298455,0.8,154.9,145.04,2.93,17.9,30.5,.00,3.85,3.85,89,102,488.0,15.8,-6.4,D,315.1,3,6.101,2,2.16,195,143.44,-80.13754756,25.91233769,0,0,1,N,1.267885,73,73,11,132,132,146.2082,0,9999.99,3.87,3.996378,2,9,31.3,0,31.2000007629395,38.01,1551.01233,08/28/22,10:31:09,31.69,57.38,38.01,1.024,8.15,-69.5,-5.2,-4.5,-867,93.0,5.55,12.6,,
25.9123723333333,-80.13758,10:58:05.73,8/28/2022,11,2.208,152.05,-7.21055149298455,0.8,155.6,145.71,2.09,16.7,30.6,.01,3.87,3.88,89,101,487.9,15.8,-6.4,D,316.3,4,24.616,2,2.16,195,146.27,-80.13744218,25.91218878,0,0,1,N,1.221201,70,70,11,132,132,146.8635,0,9999.99,3.90,4.025201,2,9,31.3,0,31.2999992370605,37.68,1550.86695,08/28/22,10:31:10,31.73,56.94,37.68,1.040,8.15,-69.5,-4.9,-5.4,-2555,92.9,5.55,12.4,,
25.9123636666667,-80.137575,10:58:06.73,8/28/2022,11,2.231,151.48,-7.21055149298455,0.8,154.9,145.04,2.84,16.4,30.5,.00,3.88,3.89,89,101,487.9,15.8,-6.4,D,316.3,4,23.518,2,2.15,194,145.96,-80.13744218,25.91218878,0,0,1,N,0.6424388,74,74,11,125,125,144.5865,0,9999.99,3.91,4.034817,2,9,31.3,0,31.2999992370605,38.09,1551.29128,08/28/22,10:31:12,31.72,57.48,38.09,1.011,8.16,-69.6,-5.1,-5.6,-3021,92.6,5.53,12.6,,
25.912353963273,-80.1375692398333,10:58:07.77,8/28/2022,11,2.109,152.02,-7.21055149298455,0.8,155.4,145.52,2.77,16.5,30.5,.00,3.90,3.91,89,101,487.9,15.8,-6.4,D,316.3,4,22.335,2,2.14,194,145.32,-80.13744218,25.91218878,0,0,1,N,0.7384191,74,74,11,118,118,143.1511,0,9999.99,3.93,4.054942,2,9,31.3,0,31.2999992370605,37.66,1550.84621,08/28/22,10:31:13,31.74,56.92,37.66,1.030,8.15,-69.5,-5.4,-4.0,-2106,92.5,5.53,12.6,,
25.9123452997267,-80.1375642297993,10:58:08.77,8/28/2022,11,2.098,152.23,-7.21055149298455,0.8,155.3,145.43,2.46,15.6,30.6,.01,3.93,3.93,89,101,487.9,15.8,-6.4,D,316.3,4,21.259,2,2.15,194,144.96,-80.13744218,25.91218878,0,0,1,N,0.8277478,72,72,11,114,114,142.0921,0,9999.99,3.95,4.073756,2,9,31.3,0,31.2999992370605,37.66,1550.84621,08/28/22,10:31:13,31.74,56.92,37.66,1.030,8.15,-69.5,-5.4,-4.0,-2106,92.5,5.53,12.6,,
25.9123376666667,-80.1375601666667,10:58:09.77,8/28/2022,11,2.144,152.45,-7.21055149298455,0.8,153.8,143.99,2.74,17,30.6,.01,3.89,3.89,89,97,487.8,15.8,-6.1,D,330.5,4,20.206,2,2.14,194,144.94,-80.13744218,25.91218878,0,0,1,N,0.9145272,73,73,11,117,117,141.5865,0,9999.99,3.91,4.04005,2,9,31.3,0,31.2999992370605,37.82,1551.01201,08/28/22,10:31:14,31.71,57.14,37.82,1.034,8.15,-69.5,-4.0,-4.0,-5215,92.6,5.53,12.5,,
25.9123291666667,-80.1375551666667,10:58:10.78,8/28/2022,11,2.12,151.51,-7.21055149298455,0.8,153.4,143.61,2.9,16.2,30.7,.00,3.90,3.90,89,97,487.8,15.8,-6.1,D,330.5,4,19.247,2,2.13,194,144.52,-80.13744218,25.91218878,0,0,1,N,1.013921,71,71,11,109,109,140.297,0,9999.99,3.92,4.043367,2,9,31.3,0,31.2999992370605,37.83,1551.02211,08/28/22,10:31:16,31.74,57.15,37.83,1.037,8.15,-69.3,-5.9,-5.6,-2398,92.6,5.53,12.6,,
25.9123194963,-80.1375489947202,10:58:11.81,8/28/2022,11,2.219,150.17,-7.21055149298455,0.8,152.3,142.56,3.16,16.4,30.6,.01,3.88,3.88,89,97,487.8,15.8,-6.1,D,330.5,4,18.039,2,2.17,194,143.68,-80.13744218,25.91218878,0,0,1,N,1.066603,76,76,11,112,112,138.9195,0,9999.99,3.90,4.030425,2,9,31.3,0,31.2999992370605,37.83,1551.02211,08/28/22,10:31:16,31.74,57.15,37.83,1.037,8.15,-69.3,-5.9,-5.6,-2398,92.6,5.53,12.6,,
25.9123110448764,-80.1375435224342,10:58:12.86,8/28/2022,11,2.084,149.85,-7.21055149298455,0.8,151.2,141.51,3.08,16.6,30.6,.00,3.90,3.91,89,98,487.8,15.8,-6.2,D,326.3,4,16.958,2,2.18,194,143.29,-80.13744218,25.91218878,0,0,1,N,1.129342,75,75,11,117,117,138.5572,0,9999.99,3.93,4.053551,2,9,31.3,0,31.2999992370605,37.9,1551.0946,08/28/22,10:31:17,31.73,57.24,37.90,1.023,8.16,-69.7,-5.0,-5.0,-3114,92.3,5.51,12.7,,
25.9123028189087,-80.1375380891544,10:58:13.89,8/28/2022,11,2.16,149.21,-7.21055149298455,0.8,150.6,140.94,2.97,16.5,30.6,.00,3.84,3.84,89,98,487.8,15.8,-6.2,D,326.3,4,15.900,2,2.14,194,142.89,-80.13744218,25.91218878,0,0,1,N,1.159944,75,75,11,117,117,138.3389,0,9999.99,3.86,3.99151,2,9,31.3,0,31.2999992370605,37.84,1551.03237,08/28/22,10:31:19,31.74,57.15,37.84,1.020,8.15,-69.5,-5.9,-5.6,-2256,92.4,5.52,12.6,,
25.9122943868333,-80.1375324643974,10:58:14.91,8/28/2022,11,2.149,148.52,-7.21055149298455,0.8,148.8,139.23,2.62,17.2,30.6,.00,3.93,3.94,89,98,487.7,15.8,-6.1,D,328.3,4,14.814,2,2.12,194,142.44,-80.13744218,25.91218878,0,0,1,N,1.177331,75,75,11,123,123,138.0986,0,9999.99,3.96,4.082936,2,9,31.3,0,31.2999992370605,37.84,1551.03237,08/28/22,10:31:19,31.74,57.15,37.84,1.020,8.15,-69.5,-5.9,-5.6,-2256,92.4,5.52,12.6,,
25.9122862065695,-80.1375267970984,10:58:15.91,8/28/2022,11,2.157,147.41,-7.21055149298455,0.8,148.9,139.33,2.72,16.3,30.6,.00,3.94,3.95,89,98,487.7,15.8,-6.1,D,328.3,4,13.747,2,2.14,194,142,-80.13744218,25.91218878,0,0,1,N,1.200491,73,73,11,122,122,138.0252,0,9999.99,3.96,4.091516,2,9,31.3,0,31.2999992370605,37.95,1551.14634,08/28/22,10:31:20,31.74,57.30,37.95,1.034,8.16,-69.7,-4.5,-0.9,-3835,92.3,5.51,12.6,,
25.9122783381742,-80.1375210660932,10:58:16.91,8/28/2022,11,2.113,146.53,-7.21055149298455,0.8,148.5,138.95,2.91,16.3,30.7,.01,3.96,3.97,89,97,487.7,15.8,-6.1,D,328.7,4,12.705,2,2.14,194,141.61,-80.13744218,25.91218878,0,0,1,N,1.207884,74,74,11,124,124,138.1334,0,9999.99,3.99,4.113825,2,9,31.3,0,31.2999992370605,37.63,1550.81537,08/28/22,10:31:21,31.77,56.88,37.63,1.037,8.15,-69.5,-6.1,-3.8,-2511,92.4,5.52,12.7,,
25.9122695688207,-80.1375142383242,10:58:17.91,8/28/2022,11,2.149,145.64,-7.21055149298455,0.8,146.8,137.34,3.3,17.2,30.6,.01,3.95,3.95,89,97,487.7,15.8,-6.1,D,328.7,4,11.517,2,2.12,194,141.26,-80.13744218,25.91218878,0,0,1,N,1.275493,77,77,11,131,131,138.4633,0,9999.99,3.98,4.103864,2,9,31.3,0,31.2999992370605,37.78,1550.9706,08/28/22,10:31:23,31.75,57.08,37.78,1.058,8.15,-69.5,-5.7,-4.4,-2027,92.3,5.51,12.5,,
25.9122609661674,-80.1375080028998,10:58:18.92,8/28/2022,11,2.206,144.74,-7.21055149298455,0.8,147.5,138,2.7,17,30.6,.01,3.93,3.94,89,97,487.7,15.8,-6.1,D,328.9,4,10.381,2,2.15,194,140.64,-80.13744218,25.91218878,0,0,1,N,1.264835,73,73,11,129,129,138.538,0,9999.99,3.95,4.080564,2,9,31.3,0,31.2999992370605,37.78,1550.9706,08/28/22,10:31:23,31.75,57.08,37.78,1.058,8.15,-69.5,-5.7,-4.4,-2027,92.3,5.51,12.5,,
25.9122526794637,-80.1375013772772,10:58:19.97,8/28/2022,11,2.229,143.59,-7.21055149298455,0.8,147.9,138.38,2.64,16.1,30.6,.01,3.98,3.99,89,98,487.6,15.8,-6.1,D,328,4,9.249,2,2.16,193,140.2,-80.13744218,25.91218878,0,0,1,N,1.203117,74,74,11,130,130,138.9695,0,9999.99,4.01,4.133102,2,9,31.3,0,31.2999992370605,37.71,1550.89851,08/28/22,10:31:24,31.74,56.98,37.71,1.031,8.15,-69.5,-6.2,-5.1,-2505,92.2,5.52,12.6,,
25.9122443492722,-80.1374955530785,10:58:20.98,8/28/2022,11,2.149,143.57,-7.21055149298455,0.8,147.5,138,2.76,15.9,30.7,.01,3.97,3.98,89,98,487.6,15.8,-6.1,D,328,4,8.166,2,2.17,193,139.18,-80.13744218,25.91218878,0,0,1,N,1.204231,72,72,11,130,130,138.9621,0,9999.99,3.99,4.119599,2,9,31.3,0,31.2999992370605,37.6,1550.78482,08/28/22,10:31:26,31.76,56.84,37.60,1.030,8.15,-69.6,-4.5,-7.6,-3950,92.2,5.51,12.4,,
25.9122359531123,-80.1374890020709,10:58:22.00,8/28/2022,11,2.103,143.88,-7.21055149298455,0.8,147.7,138.19,2.42,17.2,30.7,.00,3.99,3.99,89,98,487.6,15.8,-6.1,D,328,4,7.032,2,2.16,193,138.24,-80.13744218,25.91218878,0,0,1,N,1.155325,72,72,11,131,131,139.3051,0,9999.99,4.02,4.142415,2,9,31.3,0,31.2999992370605,37.94,1551.13597,08/28/22,10:31:27,31.72,57.30,37.94,1.026,8.16,-69.6,-6.3,-4.8,-1463,92.3,5.51,12.6,,
25.9122282025716,-80.1374834712584,10:58:23.00,8/28/2022,11,2.045,144.55,-7.21055149298455,0.8,147,137.53,2.91,17.2,30.7,.01,4.03,4.03,89,98,487.6,15.8,-6.1,D,328,4,6.023,2,2.12,193,136.71,-80.13744218,25.91218878,0,0,1,N,1.155252,74,74,11,134,134,139.3057,0,9999.99,4.05,4.17392,2,9,31.3,0,31.2999992370605,37.99,1551.18769,08/28/22,10:31:28,31.76,57.36,37.99,1.037,8.15,-69.6,-5.7,-4.5,-3821,92.4,5.51,12.6,,
25.9122203804578,-80.1374775707797,10:58:24.02,8/28/2022,11,2.039,144.09,-7.21055149298455,0.8,148,138.48,2.3,16.1,30.6,.01,4.00,4.01,89,95,487.6,15.8,-5.9,D,338,5,26.224,1,2.14,188,142.25,-80.13731704,25.91203391,0,0,1,N,0.8090678,72,72,11,136,136,140.6576,0,9999.99,4.02,4.150449,2,9,31.3,0,31.2999992370605,37.99,1551.18769,08/28/22,10:31:28,31.76,57.36,37.99,1.037,8.15,-69.6,-5.7,-4.5,-3821,92.4,5.51,12.6,,
25.91221236075,-80.1374715931901,10:58:25.03,8/28/2022,11,1.991,143.24,-7.21055149298455,0.8,147.9,138.38,2.54,12.6,30.6,.01,4.06,4.07,89,95,487.6,15.8,-5.9,D,338,5,25.153,1,2.14,184,142.08,-80.13731704,25.91203391,0,0,1,N,0.8479801,72,72,11,134,134,140.1671,0,9999.99,4.08,4.207022,2,9,31.3,0,31.2999992370605,37.76,1550.95014,08/28/22,10:31:29,31.78,57.06,37.76,1.034,8.16,-69.7,-5.4,-5.4,-2094,92.4,5.52,12.6,,
25.9122041725177,-80.1374657541148,10:58:26.03,8/28/2022,11,2.019,144.04,-7.21055149298455,0.8,148.9,139.33,2.2,11.3,30.7,.01,4.05,4.06,89,95,487.6,15.8,-5.9,D,338,5,24.076,1,2.08,179,141.85,-80.13731704,25.91203391,0,0,1,N,0.911887,70,70,11,127,127,139.4455,0,9999.99,4.07,4.195722,2,9,31.3,0,31.2999992370605,38,1551.19866,08/28/22,10:31:31,31.78,57.37,38.00,1.020,8.15,-69.6,-5.3,0.6,-1839,92.2,5.50,12.6,,
25.912196558859,-80.137460610162,10:58:27.03,8/28/2022,11,1.85,144.45,-7.21055149298455,0.8,148.4,138.86,1.57,9.5,30.7,.01,4.07,4.07,89,95,487.6,15.8,-5.9,D,338,5,23.093,1,2.03,174,141.55,-80.13731704,25.91203391,0,0,1,N,0.9940448,67,67,11,127,127,138.4868,0,9999.99,4.09,4.213149,2,9,31.3,0,31.2999992370605,38,1551.19866,08/28/22,10:31:31,31.78,57.37,38.00,1.020,8.15,-69.6,-5.3,0.6,-1839,92.2,5.50,12.6,,
25.9121894823902,-80.1374553533021,10:58:28.05,8/28/2022,11,1.72,144.1,-7.21055149298455,0.8,148,138.48,2.16,7.33,30.7,.01,4.11,4.11,89,58,487.5,15.9,-3.6,D,553.2,5,22.150,1,1.97,170,141.35,-80.13731704,25.91203391,0,0,1,N,1.030021,70,70,11,123,123,137.579,0,9999.99,4.12,4.247,2,9,31.3,0,31.2999992370605,37.72,1550.90859,08/28/22,10:31:32,31.75,57.00,37.72,1.035,8.16,-69.7,-5.8,-2.0,-2890,92.4,5.53,12.5,,
25.9121821661015,-80.1374494887586,10:58:29.06,8/28/2022,11,1.835,143.78,-7.21055149298455,0.8,148.6,139.05,3.08,4.76,30.7,.02,4.09,4.11,89,58,487.5,15.9,-3.6,D,553.2,5,21.148,1,1.88,167,141.22,-80.13731704,25.91203391,0,0,1,N,1.032429,75,75,11,117,117,136.6577,0,9999.99,4.11,4.237,2,9,31.3,0,31.2999992370605,37.31,1550.48479,08/28/22,10:31:34,31.75,56.45,37.31,1.029,8.16,-69.9,-5.9,-5.7,-2919,92.5,5.54,12.5,,
25.9121756664165,-80.1374449394453,10:58:30.06,8/28/2022,11,1.611,144.47,-7.21055149298455,0.8,147.8,138.29,3.18,4.41,30.7,.02,4.08,4.10,89,58,487.5,15.9,-3.6,D,553.2,5,20.300,1,1.77,165,140.94,-80.13731704,25.91203391,0,0,1,N,1.090188,74,74,11,117,117,136.2318,0,9999.99,4.11,4.237,2,9,31.3,0,31.2999992370605,37.31,1550.48479,08/28/22,10:31:34,31.75,56.45,37.31,1.029,8.16,-69.9,-5.9,-5.7,-2919,92.5,5.54,12.5,,
25.9121704342202,-80.1374417196284,10:58:31.06,8/28/2022,11,1.477,145.61,-7.21055149298455,0.8,148.1,138.57,2.13,3.57,30.7,.02,4.10,4.12,89,37,487.4,16,-2.3,D,856.3,5,19.646,1,1.63,165,140.6,-80.13731704,25.91203391,0,0,1,N,1.168775,70,70,11,115,115,135.6797,0,9999.99,4.13,4.257,2,9,31.3,0,31.2999992370605,37.85,1551.04392,08/28/22,10:31:35,31.69,57.17,37.85,1.015,8.16,-69.6,-6.3,-5.2,-1943,92.7,5.54,12.6,,
25.9121646769211,-80.1374381178075,10:58:32.06,8/28/2022,11,1.284,145.93,-7.21055149298455,0.8,147.3,137.81,2.36,3.03,30.7,.01,4.14,4.15,89,37,487.4,16,-2.3,D,856.3,5,18.923,1,1.45,163,140.21,-80.13731704,25.91203391,0,0,1,N,1.253761,71,71,11,116,116,135.084,0,9999.99,4.16,4.287,2,9,31.3,0,31.2999992370605,37.84,1551.03323,08/28/22,10:31:36,31.73,57.17,37.84,1.004,8.16,-69.8,-6.4,-5.2,-3475,92.6,5.53,12.6,,
25.9121601021585,-80.1374354846778,10:58:33.06,8/28/2022,11,1.233,146.32,-7.21055149298455,0.8,146.7,137.25,2.54,3.25,30.7,.01,4.14,4.15,89,34,487.4,16,-2.1,D,945,5,18.364,1,1.45,163,139.83,-80.13731704,25.91203391,0,0,1,N,1.342006,74,74,11,117,117,134.4684,0,9999.99,4.16,4.287,2,9,31.3,0,31.2999992370605,37.69,1550.87781,08/28/22,10:31:38,31.70,56.96,37.69,1.015,8.16,-69.7,-6.1,-4.4,-2496,92.6,5.54,12.4,,
25.9121557460957,-80.1374325418511,10:58:34.06,8/28/2022,11,1.222,146.53,-7.21055149298455,0.8,146.2,136.78,2.4,2.84,30.7,.01,4.11,4.12,89,34,487.4,16,-2.1,D,945,5,17.804,1,1.37,162,139.55,-80.13731704,25.91203391,0,0,1,N,1.390548,71,71,11,116,116,134.1302,0,9999.99,4.13,4.257,2,9,31.3,0,31.2999992370605,37.69,1550.87781,08/28/22,10:31:38,31.70,56.96,37.69,1.015,8.16,-69.7,-6.1,-4.4,-2496,92.6,5.54,12.4,,
25.9121512438317,-80.1374294771369,10:58:35.06,8/28/2022,11,1.153,145.51,-7.21055149298455,0.8,145.6,136.21,2.02,3.44,30.7,.01,4.12,4.13,89,34,487.4,16,-2.1,D,945,5,17.225,1,1.31,162,139.24,-80.13731704,25.91203391,0,0,1,N,1.435684,69,69,11,117,117,133.8164,0,9999.99,4.14,4.267,2,9,31.3,0,31.2999992370605,37.47,1550.65038,08/28/22,10:31:39,31.73,56.66,37.47,1.001,8.16,-69.7,-6.4,-7.5,-2537,92.4,5.53,12.7,,
25.9121479326702,-80.13742737808,10:58:36.06,8/28/2022,11,1.187,145.59,-7.21055149298455,0.8,145,135.64,2.2,2.71,30.7,.01,4.13,4.14,89,32,487.3,16,-2,D,1005.9,5,16.809,1,1.27,162,138.96,-80.13731704,25.91203391,0,0,1,N,1.483112,70,70,11,118,118,133.4879,0,9999.99,4.15,4.277,2,9,31.3,0,31.2999992370605,37.79,1550.98158,08/28/22,10:31:41,31.73,57.09,37.79,0.980,8.16,-69.7,-4.5,-6.5,-3650,92.7,5.54,12.7,,
25.9121434561149,-80.1374239004193,10:58:37.06,8/28/2022,11,1.237,144.05,-7.21055149298455,0.8,144.1,134.8,2.29,2.71,30.7,.00,4.15,4.15,89,32,487.3,16,-2,D,1005.9,5,16.205,1,1.24,161,138.74,-80.13731704,25.91203391,0,0,1,N,1.494451,71,71,11,121,121,133.4094,0,9999.99,4.17,4.297,2,9,31.3,0,31.2999992370605,37.79,1550.98158,08/28/22,10:31:41,31.73,57.09,37.79,0.980,8.16,-69.7,-4.5,-6.5,-3650,92.7,5.54,12.7,,
25.9121388886808,-80.1374195576107,10:58:38.06,8/28/2022,11,1.184,142.54,-7.21055149298455,0.8,143,133.76,1.92,2.94,30.6,.01,4.18,4.19,89,32,487.3,16,-2,D,1005.9,5,15.537,1,1.18,161,138.7,-80.13731704,25.91203391,0,0,1,N,1.442666,69,69,11,127,127,133.768,0,9999.99,4.20,4.327,2,9,31.3,0,31.2999992370605,37.67,1550.85648,08/28/22,10:31:42,31.71,56.93,37.67,0.978,8.16,-69.7,-6.4,-4.7,-3370,92.8,5.55,12.5,,
25.9121347624451,-80.1374155617236,10:58:39.06,8/28/2022,11,1.151,142.58,-7.21055149298455,0.8,142.6,133.38,1.96,2.74,30.7,.01,4.18,4.19,89,32,487.3,16,-2,D,1005.9,5,14.928,1,1.18,161,138.69,-80.13731704,25.91203391,0,0,1,N,1.389473,69,69,11,130,130,134.1374,0,9999.99,4.20,4.327,2,9,31.3,0,31.2999992370605,37.92,1551.11543,08/28/22,10:31:43,31.71,57.26,37.92,0.974,8.16,-69.7,-6.2,-1.4,-4115,92.9,5.55,12.7,,
25.9121307874471,-80.1374112780284,10:58:40.06,8/28/2022,11,1.131,140.78,-7.21055149298455,0.8,142.3,133.1,1.65,2.95,30.7,.01,4.18,4.19,89,32,487.2,16,-1.9,D,1013.4,5,14.314,1,1.13,161,138.82,-80.13731704,25.91203391,0,0,1,N,1.303075,67,67,11,134,134,134.7392,0,9999.99,4.20,4.327,2,9,31.3,0,31.2999992370605,37.68,1550.8672,08/28/22,10:31:45,31.68,56.95,37.68,0.997,8.15,-69.6,-5.5,-4.8,-1834,93.1,5.57,12.6,,
25.9121268054927,-80.1374067691581,10:58:41.06,8/28/2022,11,1.121,139.76,-7.21055149298455,0.8,142.2,133.01,1.93,2.26,30.7,.01,4.19,4.19,89,32,487.2,16,-1.9,D,1013.4,5,13.683,1,1.13,161,139.02,-80.13731704,25.91203391,0,0,1,N,1.199178,70,70,11,137,137,135.4656,0,9999.99,4.20,4.327,2,9,31.3,0,31.2999992370605,37.68,1550.8672,08/28/22,10:31:45,31.68,56.95,37.68,0.997,8.15,-69.6,-5.5,-4.8,-1834,93.1,5.57,12.6,,
25.9121225199453,-80.1374030039854,10:58:42.06,8/28/2022,11,1.04,142.64,-7.21055149298455,0.8,142.4,133.2,2,2.26,30.7,.01,4.17,4.18,89,32,487.2,16,-1.9,D,1013.4,5,13.077,1,1.09,161,138.89,-80.13731704,25.91203391,0,0,1,N,1.172881,69,69,11,137,137,135.6497,0,9999.99,4.19,4.317,2,9,31.3,0,31.2999992370605,37.56,1550.74271,08/28/22,10:31:46,31.72,56.79,37.56,1.008,8.15,-69.6,-6.3,-3.3,-626,92.9,5.56,12.5,,
25.9121184295656,-80.137399209112,10:58:43.06,8/28/2022,11,1.034,143.08,-7.21055149298455,0.8,141.9,132.73,2.06,2.81,30.7,.01,4.16,4.17,89,32,487.2,16,-1.9,D,1013.4,5,12.485,1,1.08,161,138.83,-80.13731704,25.91203391,0,0,1,N,1.135189,69,69,11,140,140,135.9143,0,9999.99,4.18,4.307,2,9,31.3,0,31.2999992370605,37.64,1550.82604,08/28/22,10:31:48,31.71,56.89,37.64,0.986,8.16,-69.7,-6.3,-2.8,-3018,93.2,5.58,12.7,,
25.9121147097842,-80.1373956466236,10:58:44.06,8/28/2022,11,1.085,143.03,-7.21055149298455,0.8,142.3,133.1,1.94,2.94,30.7,.01,4.18,4.19,89,32,487.2,16,-2,D,993.5,5,11.939,1,1.08,161,138.81,-80.13731704,25.91203391,0,0,1,N,1.09029,69,69,11,140,140,136.2295,0,9999.99,4.20,4.327,2,9,31.3,0,31.2999992370605,37.64,1550.82604,08/28/22,10:31:48,31.71,56.89,37.64,0.986,8.16,-69.7,-6.3,-2.8,-3018,93.2,5.58,12.7,,
25.9121109065384,-80.1373920868073,10:58:45.06,8/28/2022,11,1.082,142.87,-7.21055149298455,0.8,143.2,133.95,1.98,2.32,30.7,.00,4.21,4.22,89,32,487.2,16,-2,D,993.5,5,11.386,1,1.08,161,138.76,-80.13731704,25.91203391,0,0,1,N,1.047346,69,69,11,137,137,136.5318,0,9999.99,4.23,4.357,2,9,31.3,0,31.2999992370605,37.66,1550.84626,08/28/22,10:31:49,31.69,56.92,37.66,0.996,8.16,-69.6,-6.4,-5.4,-3251,93.2,5.58,12.6,,
25.9121071610852,-80.137388712081,10:58:46.06,8/28/2022,11,1.118,142.35,-7.21055149298455,0.8,142.9,133.67,1.94,2.23,30.7,.01,4.21,4.22,89,32,487.2,16,-2,D,993.5,5,10.850,1,1.08,161,138.65,-80.13731704,25.91203391,0,0,1,N,1.019134,69,69,11,139,139,136.7305,0,9999.99,4.23,4.357,2,9,31.3,0,31.2999992370605,37.31,1550.48403,08/28/22,10:31:51,31.69,56.46,37.31,0.960,8.16,-69.7,-6.9,-5.0,-6707,93.1,5.58,12.6,,
25.9121035877722,-80.1373855610032,10:58:47.06,8/28/2022,11,1.083,142.32,-7.21055149298455,0.8,143.6,134.32,1.91,2.3,30.7,.00,4.21,4.22,89,32,487.1,16,-2,D,1010.8,5,10.344,1,1.07,161,138.51,-80.13731704,25.91203391,0,0,1,N,0.9969527,68,68,11,137,137,136.8866,0,9999.99,4.23,4.357,2,9,31.3,0,31.2999992370605,37.31,1550.48403,08/28/22,10:31:51,31.69,56.46,37.31,0.960,8.16,-69.7,-6.9,-5.0,-6707,93.1,5.58,12.6,,
25.9120997614879,-80.1373823912506,10:58:48.06,8/28/2022,11,1.007,143.47,-7.21055149298455,0.8,143.3,134.04,2.38,2.65,30.7,.01,4.20,4.21,89,32,487.1,16,-2,D,1010.8,5,9.815,1,1.07,161,138.25,-80.13731704,25.91203391,0,0,1,N,0.9908106,71,71,11,139,139,136.9303,0,9999.99,4.22,4.347,2,9,31.3,0,31.2999992370605,37.7,1550.88775,08/28/22,10:31:52,31.68,56.97,37.70,0.994,8.16,-69.7,-6.4,-5.0,-4271,93.1,5.57,12.6,,
25.9120958059205,-80.1373789744306,10:58:49.06,8/28/2022,11,1.044,143.56,-7.21055149298455,0.8,144.1,134.8,1.54,2.34,30.7,.01,4.21,4.21,89,32,487.1,16,-2,D,1010.8,5,9.260,1,1.05,161,138.01,-80.13731704,25.91203391,0,0,1,N,0.9705725,66,66,11,136,136,137.0729,0,9999.99,4.23,4.357,2,9,31.3,0,31.2999992370605,37.8,1550.99136,08/28/22,10:31:54,31.68,57.11,37.80,0.975,8.15,-69.5,-5.9,-5.7,-706,92.8,5.55,12.5,,
25.9120920925983,-80.1373757309437,10:58:50.06,8/28/2022,11,1.012,143.2,-7.21055149298455,0.8,144.2,134.89,1.79,2.33,30.7,.00,4.22,4.22,89,32,487.1,16,-2,D,1010.8,5,8.736,1,1.06,161,137.78,-80.13731704,25.91203391,0,0,1,N,0.952333,68,68,11,136,136,137.2019,0,9999.99,4.23,4.357,2,9,31.3,0,31.2999992370605,37.8,1550.99136,08/28/22,10:31:54,31.68,57.11,37.80,0.975,8.15,-69.5,-5.9,-5.7,-706,92.8,5.55,12.5,,
25.9120876671683,-80.1373719273111,10:58:51.06,8/28/2022,11,1.106,143.13,-7.21055149298455,0.8,143.7,134.42,2.13,2.41,30.7,.00,4.23,4.24,88,31,487.1,16,-1.9,D,1025.5,5,8.116,1,1.06,161,137.44,-80.13731704,25.91203391,0,0,1,N,0.9350505,70,70,11,139,139,137.3237,0,9999.99,4.25,4.377,2,9,31.3,0,31.2999992370605,37.37,1550.54599,08/28/22,10:31:55,31.71,56.53,37.37,0.986,8.16,-69.7,-6.0,-2.0,-2821,93.1,5.58,12.7,,
25.9120835249231,-80.1373687592612,10:58:52.06,8/28/2022,11,1.037,144.37,-7.21055149298455,0.8,143.5,134.23,2.09,2.56,30.7,.00,4.24,4.25,88,31,487.1,16,-1.9,D,1025.5,5,7.563,1,1.05,161,136.84,-80.13731704,25.91203391,0,0,1,N,0.9502267,70,70,11,138,138,137.2163,0,9999.99,4.26,4.387,2,9,31.3,0,31.2999992370605,37.38,1550.55648,08/28/22,10:31:57,31.73,56.54,37.38,0.998,8.15,-69.6,-6.1,-3.1,-3850,92.8,5.56,12.6,,
25.912079684629,-80.1373654109517,10:58:53.06,8/28/2022,11,1.034,143.2,-7.21055149298455,0.8,143.6,134.32,1.72,2.85,30.7,.00,4.25,4.26,88,31,487.1,16,-1.9,D,1025.5,5,7.023,1,1.06,161,136.45,-80.13731704,25.91203391,0,0,1,N,0.9297516,68,68,11,140,140,137.3608,0,9999.99,4.27,4.397,2,9,31.3,0,31.2999992370605,37.38,1550.55648,08/28/22,10:31:57,31.73,56.54,37.38,0.998,8.15,-69.6,-6.1,-3.1,-3850,92.8,5.56,12.6,,
25.9120758351331,-80.1373617476383,10:58:54.06,8/28/2022,11,1.053,142.34,-7.21055149298455,0.8,143.5,134.23,1.72,2.84,30.7,.00,4.25,4.26,88,31,487.0,16,-1.9,D,1028.6,5,6.460,1,1.06,161,136.19,-80.13731704,25.91203391,0,0,1,N,0.8855639,67,67,11,141,141,137.6734,0,9999.99,4.27,4.397,2,9,31.3,0,31.2999992370605,37.68,1550.86685,08/28/22,10:31:58,31.70,56.95,37.68,0.988,8.15,-69.6,-6.3,-4.3,-1115,92.8,5.55,12.4,,
25.9120718349623,-80.1373581152997,10:58:55.06,8/28/2022,11,1.05,143.06,-7.21055149298455,0.8,143.4,134.14,2.24,2.52,30.7,.00,4.27,4.28,88,31,487.0,16,-1.9,D,1028.6,5,5.888,1,1.05,161,135.75,-80.13731704,25.91203391,0,0,1,N,0.8523077,70,70,11,141,141,137.9088,0,9999.99,4.29,4.417,2,9,31.3,0,31.2999992370605,37.61,1550.79445,08/28/22,10:32:00,31.72,56.85,37.61,0.999,8.15,-69.6,-5.5,-4.6,-2257,92.9,5.56,12.6,,
25.9120681562049,-80.1373545689579,10:58:56.08,8/28/2022,11,1.132,142.87,-7.21055149298455,0.8,144.5,135.17,1.64,3.56,30.7,.01,4.24,4.25,88,31,487.0,16,-1.9,D,1028.6,6,27.829,1,1.08,161,194.11,-80.13742242,25.91182544,0,0,1,N,5.049323,66,66,11,250,250,178.8931,0,9999.99,4.26,4.387,2,9,31.3,0,31.2999992370605,37.61,1550.79445,08/28/22,10:32:00,31.72,56.85,37.61,0.999,8.15,-69.6,-5.5,-4.6,-2257,92.9,5.56,12.6,,
25.9120646327623,-80.1373513019459,10:58:57.08,8/28/2022,11,0.988,141.5,-7.21055149298455,0.8,146.7,137.25,1.62,3.71,30.7,.00,4.27,4.27,88,31,487.0,16,-1.9,D,1028.6,6,27.532,1,1.06,161,194.97,-80.13742242,25.91182544,0,0,1,N,4.587976,66,66,11,250,250,180.3934,0,9999.99,4.28,4.407,2,9,31.3,0,31.2999992370605,37.91,1551.10501,08/28/22,10:32:01,31.72,57.25,37.91,1.002,8.15,-69.6,-6.4,-4.9,-835,93.1,5.56,12.6,,
25.9120608883588,-80.1373476083756,10:58:58.09,8/28/2022,11,1.021,139.7,-7.21055149298455,0.8,151.1,141.42,1.82,1.98,30.7,.00,4.30,4.31,88,32,487.0,16,-2,D,1011.1,6,27.229,1,1.05,161,195.95,-80.13742242,25.91182544,0,0,1,N,4.083768,68,68,11,250,250,182.2307,0,9999.99,4.32,4.447,2,9,31.3,0,31.2999992370605,37.52,1550.70117,08/28/22,10:32:03,31.71,56.73,37.52,1.000,8.16,-69.7,-6.1,-0.9,-1669,92.8,5.56,12.6,,
25.9120573550817,-80.1373446062428,10:58:59.11,8/28/2022,11,0.925,141.71,-7.21055149298455,0.8,156.1,146.19,2.63,1.73,30.7,.00,4.31,4.31,88,32,487.0,16,-2,D,1011.1,6,26.937,1,1.01,161,196.79,-80.13742242,25.91182544,0,0,1,N,3.643332,73,73,11,250,250,183.8564,0,9999.99,4.33,4.457,2,9,31.3,0,31.2999992370605,37.52,1550.70117,08/28/22,10:32:03,31.71,56.73,37.52,1.000,8.16,-69.7,-6.1,-0.9,-1669,92.8,5.56,12.6,,
25.9120534260157,-80.1373418631133,10:59:00.11,8/28/2022,11,0.906,144.82,-7.21055149298455,0.8,160.2,150.14,2.65,2.04,30.7,.01,4.30,4.30,88,32,487.0,16,-2,D,1011.1,6,26.601,1,0.93,161,197.63,-80.13742242,25.91182544,0,0,1,N,3.198842,73,73,11,250,250,185.5054,0,9999.99,4.32,4.447,2,9,31.3,0,31.2999992370605,37.34,1550.51484,08/28/22,10:32:04,31.71,56.50,37.34,0.996,8.16,-69.6,-5.4,-7.6,-734,92.9,5.57,12.6,,
25.9120498321139,-80.1373399778241,10:59:01.11,8/28/2022,11,0.917,148.01,-7.21055149298455,0.8,164.8,154.6,2.85,1.64,30.7,.01,4.27,4.28,88,31,486.9,16,-1.9,D,1030.1,6,26.278,1,0.93,161,198.29,-80.13742242,25.91182544,0,0,1,N,2.86465,74,74,11,250,250,186.7012,0,9999.99,4.30,4.427,2,9,31.3,0,31.2999992370605,37.3,1550.4739,08/28/22,10:32:06,31.67,56.44,37.30,0.986,8.16,-69.7,-5.2,-4.1,-2542,92.9,5.57,12.5,,
25.9120456311543,-80.1373381167321,10:59:02.11,8/28/2022,11,0.974,150.97,-7.21055149298455,0.8,169.2,158.9,2.85,2.1,30.7,.01,4.28,4.30,88,31,486.9,16,-1.9,D,1030.1,6,25.895,1,0.93,161,199,-80.13742242,25.91182544,0,0,1,N,2.49816,74,74,11,245,245,188.055,0,9999.99,4.31,4.437,2,9,31.3,0,31.2999992370605,37.3,1550.4739,08/28/22,10:32:06,31.67,56.44,37.30,0.986,8.16,-69.7,-5.2,-4.1,-2542,92.9,5.57,12.5,,
25.9120412189992,-80.137336871892,10:59:03.11,8/28/2022,11,0.837,156.93,-7.21055149298455,0.8,173.5,163.14,2.01,2.06,30.7,.01,4.28,4.29,88,31,486.9,16,-1.9,D,1030.1,6,25.474,1,0.9,161,199.63,-80.13742242,25.91182544,0,0,1,N,2.172618,69,69,11,232,232,189.2672,0,9999.99,4.31,4.437,2,9,31.3,0,31.2999992370605,37.67,1550.85707,08/28/22,10:32:07,31.66,56.92,37.67,0.975,8.16,-69.6,-6.8,2.0,-3543,92.8,5.55,12.7,,
25.9120370326975,-80.1373360215802,10:59:04.11,8/28/2022,11,0.882,165.21,-7.21055149298455,0.8,178.1,167.71,2.63,2.41,30.7,.01,4.30,4.30,88,31,486.9,16,-1.9,D,1030.1,6,25.065,1,0.89,161,200.17,-80.13742242,25.91182544,0,0,1,N,1.8988,73,73,11,221,221,191.0954,0,9999.99,4.32,4.447,2,9,31.3,0,31.2999992370605,37.54,1550.72204,08/28/22,10:32:09,31.68,56.76,37.54,0.987,8.15,-69.4,-5.0,-0.7,-4485,93.0,5.57,12.6,,
25.9120329342935,-80.1373357209866,10:59:05.11,8/28/2022,11,0.96,168.98,-7.21055149298455,0.8,182.3,171.92,2.48,1.88,30.7,.01,4.27,4.27,88,31,486.8,16,-1.9,D,1015.5,6,24.648,1,0.91,161,200.6,-80.13742242,25.91182544,0,0,1,N,1.682989,72,72,11,210,210,192.5708,0,9999.99,4.29,4.417,2,9,31.3,0,31.2999992370605,37.54,1550.72204,08/28/22,10:32:09,31.68,56.76,37.54,0.987,8.15,-69.4,-5.0,-0.7,-4485,93.0,5.57,12.6,,
25.9120286691607,-80.1373358441638,10:59:06.11,8/28/2022,11,0.898,174.18,-7.21055149298455,0.8,185.9,175.55,2.05,1.82,30.7,.01,4.26,4.27,88,31,486.8,16,-1.9,D,1015.5,6,24.200,1,0.93,161,200.97,-80.13742242,25.91182544,0,0,1,N,1.498264,69,69,11,200,200,193.843,0,9999.99,4.28,4.407,2,9,31.3,0,31.2999992370605,37.27,1550.44256,08/28/22,10:32:10,31.70,56.40,37.27,0.995,8.16,-69.6,-5.9,-3.2,-678,93.0,5.58,12.5,,
25.9120241098736,-80.1373364637201,10:59:07.13,8/28/2022,11,1.02,174.18,-7.21055149298455,0.8,188.9,178.59,1.85,2.47,30.7,.00,4.24,4.25,88,31,486.8,16,-1.9,D,1015.5,6,23.705,1,0.94,161,201.26,-80.13742242,25.91182544,0,0,1,N,1.33639,68,68,11,192,192,194.9675,0,9999.99,4.26,4.387,2,9,31.3,0,31.2999992370605,37.52,1550.70143,08/28/22,10:32:11,31.68,56.72,37.52,0.985,8.15,-69.6,-6.0,-3.8,-2889,92.9,5.56,12.6,,
25.9120194949746,-80.1373374589211,10:59:08.14,8/28/2022,11,0.946,174.18,-7.21055149298455,0.8,193.4,183.18,2.1,1.23,30.7,.01,4.25,4.26,88,31,486.8,16,-1.9,D,1025.8,6,23.191,1,0.94,161,201.49,-80.13742242,25.91182544,0,0,1,N,1.212515,69,69,11,181,181,195.8306,0,9999.99,4.27,4.397,2,9,31.3,0,31.2999992370605,37.34,1550.51502,08/28/22,10:32:13,31.67,56.49,37.34,0.988,8.16,-69.6,-5.8,-3.1,-2632,92.9,5.57,12.6,,
25.9120151820844,-80.1373386121143,10:59:09.14,8/28/2022,11,0.957,187.82,-7.21055149298455,0.8,195.4,185.24,2,1.91,30.7,.01,4.25,4.26,88,31,486.8,16,-1.9,D,1025.8,6,22.703,1,0.94,161,201.67,-80.13742242,25.91182544,0,0,1,N,1.11617,69,69,11,172,172,196.5076,0,9999.99,4.27,4.397,2,9,31.3,0,31.2999992370605,37.34,1550.51502,08/28/22,10:32:13,31.67,56.49,37.34,0.988,8.16,-69.6,-5.8,-3.1,-2632,92.9,5.57,12.6,,
25.9120112824358,-80.137340286601,10:59:10.16,8/28/2022,11,0.964,191.59,-7.21055149298455,0.8,196.2,186.06,1.79,2.43,30.7,.01,4.24,4.25,88,31,486.8,16,-1.9,D,1025.8,6,22.238,1,0.96,161,201.68,-80.13742242,25.91182544,0,0,1,N,1.086883,68,68,11,170,170,196.7133,0,9999.99,4.26,4.387,2,9,31.3,0,31.2999992370605,37.59,1550.77416,08/28/22,10:32:14,31.70,56.83,37.59,1.001,8.15,-69.6,-4.9,-4.0,-1903,92.9,5.56,12.5,,
25.9120070916627,-80.1373418031807,10:59:11.17,8/28/2022,11,0.996,195.7,-7.21055149298455,0.8,197.9,187.81,1.74,2.94,30.7,.01,4.20,4.20,88,31,486.8,16,-1.9,D,1025.8,6,21.749,1,0.97,161,201.76,-80.13742242,25.91182544,0,0,1,N,1.032825,67,67,11,166,166,197.0936,0,9999.99,4.21,4.337,2,9,31.3,0,31.2999992370605,37.74,1550.92922,08/28/22,10:32:16,31.73,57.02,37.74,0.991,8.15,-69.5,-5.3,-3.0,-1569,92.8,5.55,12.6,,
25.9120024624279,-80.1373433709289,10:59:12.19,8/28/2022,11,1.043,196.9,-7.21055149298455,0.8,198.7,188.63,1.64,1.98,30.7,.01,4.17,4.18,88,31,486.7,16,-1.9,D,1018.5,6,21.213,1,0.98,161,201.88,-80.13742242,25.91182544,0,0,1,N,0.9632849,67,67,11,163,163,197.5841,0,9999.99,4.18,4.307,2,9,31.3,0,31.2999992370605,37.74,1550.92922,08/28/22,10:32:16,31.73,57.02,37.74,0.991,8.15,-69.5,-5.3,-3.0,-1569,92.8,5.55,12.6,,
25.9119976359605,-80.1373449590174,10:59:13.20,8/28/2022,11,1.033,197.02,-7.21055149298455,0.8,200.8,190.8,1.57,2.47,30.6,.01,4.17,4.17,88,31,486.7,16,-1.9,D,1018.5,6,20.655,1,0.98,161,202.03,-80.13742242,25.91182544,0,0,1,N,0.8818667,66,66,11,156,156,198.1597,0,9999.99,4.18,4.307,2,9,31.3,0,31.2999992370605,37.64,1550.82598,08/28/22,10:32:17,31.72,56.89,37.64,1.012,8.15,-69.6,-5.7,-3.1,-75,92.8,5.55,12.6,,
25.9119929457009,-80.1373471417575,10:59:14.22,8/28/2022,11,1.088,201.16,-7.21055149298455,0.8,202,192.04,1.72,2.61,30.7,.01,4.15,4.16,88,31,486.7,16,-1.9,D,1018.5,6,20.090,1,1.01,161,202.01,-80.13742242,25.91182544,0,0,1,N,0.862193,67,67,11,147,147,198.2988,0,9999.99,4.17,4.297,2,9,31.3,0,31.2999992370605,37.5,1550.68084,08/28/22,10:32:19,31.74,56.70,37.50,1.008,8.16,-69.7,-4.8,-6.0,562,92.6,5.55,12.6,,
25.9119879333572,-80.1373490836231,10:59:15.23,8/28/2022,11,1.051,201.21,-7.21055149298455,0.8,202.7,192.77,1.44,1.65,30.7,.01,4.13,4.13,88,31,486.7,16,-1.9,D,1018.4,6,19.500,1,1.03,161,202.09,-80.13742242,25.91182544,0,0,1,N,0.8111229,66,66,11,151,151,198.6607,0,9999.99,4.14,4.267,2,9,31.3,0,31.2999992370605,37.5,1550.68084,08/28/22,10:32:19,31.74,56.70,37.50,1.008,8.16,-69.7,-4.8,-6.0,562,92.6,5.55,12.6,,
25.9119833209371,-80.1373512822303,10:59:16.23,8/28/2022,11,1.04,203.28,-7.21055149298455,0.8,203.4,193.49,1.97,2.65,30.7,.01,4.11,4.12,88,31,486.7,16,-1.9,D,1018.4,6,18.943,1,1.02,161,202.06,-80.13742242,25.91182544,0,0,1,N,0.797704,69,69,11,148,148,198.7557,0,9999.99,4.13,4.257,2,9,31.3,0,31.2999992370605,37.64,1550.82571,08/28/22,10:32:20,31.72,56.89,37.64,1.008,8.15,-69.5,-4.0,-5.7,13,92.7,5.54,12.7,,
25.9119800056472,-80.1373531950706,10:59:17.23,8/28/2022,11,1.042,203.41,-7.21055149298455,0.8,203.6,193.7,1.69,3.79,30.8,.01,4.11,4.11,88,31,486.7,16,-1.9,D,1018.4,6,18.529,1,1.04,161,201.94,-80.13742242,25.91182544,0,0,1,N,0.8193446,67,67,11,150,150,198.6024,0,9999.99,4.12,4.247,2,9,31.3,0,31.2999992370605,37.61,1550.79471,08/28/22,10:32:22,31.73,56.86,37.61,0.988,8.15,-69.6,-5.5,-5.6,-90,92.8,5.55,12.6,,
25.9119749851031,-80.1373556659235,10:59:18.23,8/28/2022,11,1.05,203.94,-7.21055149298455,0.8,204.6,194.74,1.16,1.49,30.7,.00,4.10,4.10,88,31,486.7,16,-1.9,D,1018.4,6,17.919,1,1.01,161,201.88,-80.13742242,25.91182544,0,0,1,N,0.8147698,64,64,11,144,144,198.6348,0,9999.99,4.11,4.237,2,9,31.3,0,31.2999992370605,37.61,1550.79471,08/28/22,10:32:22,31.73,56.86,37.61,0.988,8.15,-69.6,-5.5,-5.6,-90,92.8,5.55,12.6,,
25.9119707204677,-80.137357684116,10:59:19.23,8/28/2022,11,1.082,204.24,-7.21055149298455,0.8,204.3,194.43,1.73,2.77,30.8,.01,4.06,4.07,88,31,486.7,16,-1.9,D,1026.1,6,17.404,1,1.04,161,201.84,-80.13742242,25.91182544,0,0,1,N,0.8019235,67,67,11,143,143,198.7259,0,9999.99,4.08,4.207,2,9,31.4,0,31.2999992370605,37.89,1551.08426,08/28/22,10:32:23,31.75,57.23,37.89,1.003,8.15,-69.6,-4.6,-2.3,-5420,92.8,5.54,12.6,,
