Latitude,Longitude,Time,Date,Number of Sats,GPS Speed (Kn),GPS True Heading,GPS Magnetic Variation,HDOP,C Magnetic Heading,C True Heading,Pitch Angle,Roll Angle,C Inside Temp (c),DFS Depth (m),DTB Height (m),Total Water Column (m),Batt Percent,Power Watts,Watt-Hours,Batt Volts,Batt Ampers,Batt State,Time to Empty,Current Step,Dist To Next (m),Next Speed (kn),Vehicle Speed (kn),Motor Speed CMD,Next Heading,Next Long,Next Lat,Next Depth (m),Depth Goal (m),Vehicle State,Error State,Distance to Track (m),Fin Pitch R,Fin Pitch L,Pitch Goal,Fin Yaw T,Fin Yaw B,Yaw Goal,Fin Roll,DVL-Depth (m),DVL -Altitude (m),DVL -Water Column (m),DVL-FixType,DVL-FixQuality,DVL-Temperature,Conductivity (mmhos/cm),Temperature (c),Salinity (ppt),Sound Speed (m/s),Date m/d/y   ,Time hh:mm:ss,Temp C,SpCond mS/cm,Sal ppt,Depth feet,pH,pH mV,Turbid+ NTU,Chl ug/L,BGA-PC cells/mL,ODOsat %,ODO mg/L,Battery volts,ROSEM Command Type,
25.9127766666667,-80.1379053333334,10:44:36.78,8/28/2022,6,0.226,315.3,-7.21057349596169,2.58,93.8,88.02,1.57,-4.2,27.2,.00,2.90,2.90,90,21,493.9,16.1,-1.3,D,1549.9,0,8.478,2,0,128,106.79,-80.13782418,25.91275464,0,0,1,N,1.393141,66,66,11,5,5,284.0262,0,9999.99,2.91,3.037,2,9,29.3,0,29.2999992370605,40.71,1549.99863,08/28/22,10:17:40,31.64,60.96,40.71,0.910,8.16,-70.2,7.2,-2.1,-3335,97.6,5.75,12.6,,
25.912777,-80.1379051666667,10:44:37.78,8/28/2022,6,0.151,315.3,-7.21057349596169,2.58,94.8,88.96,1.18,-4.4,27.2,.00,2.89,2.89,90,21,493.9,16.1,-1.3,D,1549.9,0,8.478,2,0,128,106.79,-80.13782418,25.91275464,0,0,1,N,1.393141,64,64,11,5,5,284.0262,0,9999.99,2.90,3.027,2,9,29.3,0,29.2999992370605,40.68,1549.96715,08/28/22,10:17:42,31.60,60.92,40.68,0.925,8.17,-70.2,6.7,-8.2,1270,97.6,5.75,12.4,,
25.9127766543927,-80.1379043525668,10:44:38.80,8/28/2022,6,0.164,315.3,-7.21057349596169,2.58,92.7,86.99,2.62,0.32,27.1,.01,2.89,2.90,90,21,493.9,16.1,-1.3,D,1549.9,1,23.761,2,0.04,174,135.75,-80.13773856,25.9126236,0,0,1,N,5.74742,73,73,11,250,250,127.9924,0,9999.99,2.90,3.027,2,9,29.3,0,29.2999992370605,40.68,1549.96715,08/28/22,10:17:42,31.60,60.92,40.68,0.925,8.17,-70.2,6.7,-8.2,1270,97.6,5.75,12.4,,
25.9127771500118,-80.1379016560354,10:44:39.81,8/28/2022,6,0.405,315.3,-7.21057349596169,2.58,95.5,89.62,1.32,2.17,27.2,.01,2.89,2.91,90,25,493.9,16.1,-1.5,D,1329.5,1,23.614,2,0.03,174,136.31,-80.13773856,25.9126236,0,0,1,N,5.679791,65,65,11,250,250,128.7172,0,9999.99,2.91,3.037,2,9,29.3,0,29.2999992370605,40.48,1549.75826,08/28/22,10:17:43,31.62,60.65,40.48,0.897,8.17,-70.3,6.7,-2.8,-3764,97.4,5.75,12.6,,
25.9127771482426,-80.1378971801744,10:44:40.81,8/28/2022,6,0.703,315.3,-7.21057349596169,2.58,98.8,92.7,2.12,3.23,27.2,.01,2.92,2.93,90,25,493.9,16.1,-1.5,D,1329.5,1,23.307,2,0.24,174,137.1,-80.13773856,25.9126236,0,0,1,N,5.363189,70,70,11,250,250,129.7394,0,9999.99,2.93,3.057,2,9,29.3,0,29.2999992370605,41.69,1551.02795,08/28/22,10:17:44,31.64,62.24,41.69,0.948,8.17,-70.4,9.4,-4.7,-4324,97.2,5.70,12.6,,
25.9127767257262,-80.1378904510143,10:44:41.81,8/28/2022,6,1.026,315.3,-7.21057349596169,2.58,103.8,97.36,1.93,1.58,27.2,.01,2.99,3.00,90,25,493.9,16.1,-1.5,D,1329.5,1,22.819,2,0.5,174,138.26,-80.13773856,25.9126236,0,0,1,N,4.490745,69,69,11,250,250,131.3744,0,9999.99,3.01,3.137,2,9,29.3,0,29.2999992370605,42.3,1551.66833,08/28/22,10:17:45,31.62,63.03,42.30,0.946,8.18,-70.8,7.6,-3.0,-4601,97.1,5.67,12.6,,
25.9127766167089,-80.1378841685495,10:44:42.81,8/28/2022,6,1.18,315.3,-7.21057349596169,2.58,111.1,104.13,2.2,3.2,27.2,.01,3.07,3.08,90,38,493.9,16.1,-2.3,D,860.8,1,22.396,2,0.77,174,139.44,-80.13773856,25.9126236,0,0,1,N,3.964192,70,70,11,243,243,133.0186,0,9999.99,3.09,3.217,2,9,29.3,0,29.2999992370605,42.61,1551.99349,08/28/22,10:17:46,31.65,63.44,42.61,0.950,8.18,-71.0,8.4,-1.9,-982,97.1,5.66,12.5,,
25.9127766235329,-80.1378789050425,10:44:43.83,8/28/2022,6,1.197,315.3,-7.21057349596169,2.58,117.5,110.05,2.82,3.4,27.2,.01,3.11,3.12,90,38,493.9,16.1,-2.3,D,860.8,1,22.058,2,0.99,174,140.48,-80.13773856,25.9126236,0,0,1,N,3.666098,74,74,11,225,225,134.484,0,9999.99,3.13,3.257,2,9,29.4,0,29.3999996185303,41.7,1551.24373,08/28/22,10:17:48,31.64,62.25,41.70,0.903,8.19,-71.5,32.3,-3.7,-8479,97.1,5.69,12.6,,
25.9127738468808,-80.1378721893434,10:44:44.84,8/28/2022,6,1.16,29.31,-7.21057349596169,2.58,122.6,114.77,3.95,3.38,27.2,.01,3.14,3.15,90,38,493.9,16.1,-2.3,D,860.8,1,21.395,2,1.14,174,141.34,-80.13773856,25.9126236,0,0,1,N,3.203674,81,81,11,210,210,135.6157,0,9999.99,3.17,3.297,2,9,29.4,0,29.3999996185303,41.7,1551.24373,08/28/22,10:17:48,31.64,62.25,41.70,0.903,8.19,-71.5,32.3,-3.7,-8479,97.1,5.69,12.6,,
25.9127705634366,-80.1378645763201,10:44:45.84,8/28/2022,6,1.286,81.49,-7.21057349596169,2.58,129.4,121.07,4.16,2.76,27.2,.02,3.16,3.17,90,38,493.9,16.1,-2.3,D,860.8,1,20.638,2,1.25,174,142.36,-80.13773856,25.9126236,0,0,1,N,2.802511,82,82,11,194,194,136.9548,0,9999.99,3.19,3.317,2,9,29.4,0,29.3999996185303,39.05,1548.46558,08/28/22,10:17:50,31.66,58.77,39.05,0.935,8.20,-72.1,68.9,-5.0,-3864,96.8,5.75,12.4,,
25.9127650745339,-80.1378567179982,10:44:46.84,8/28/2022,6,1.562,105.79,-7.21057349596169,2.58,135.2,126.46,3.97,2.98,27.2,.01,3.32,3.34,90,38,493.9,16.1,-2.4,D,854.7,1,19.676,2,1.37,174,143.09,-80.13773856,25.9126236,0,0,1,N,2.339152,82,82,11,175,175,137.809,0,9999.99,3.36,3.487,2,9,29.5,0,29.3999996185303,39.05,1548.46558,08/28/22,10:17:50,31.66,58.77,39.05,0.935,8.20,-72.1,68.9,-5.0,-3864,96.8,5.75,12.4,,
25.9127578658503,-80.1378488393938,10:44:47.91,8/28/2022,6,1.603,116.63,-7.21057349596169,2.58,140.4,131.32,3.67,2.03,27.3,.01,3.39,3.40,90,38,493.9,16.1,-2.4,D,854.7,1,18.562,2,1.44,174,143.54,-80.13773856,25.9126236,0,0,1,N,1.973343,79,79,11,154,154,138.0817,0,9999.99,3.43,3.557,2,9,29.5,0,29.5,40.19,1549.86627,08/28/22,10:17:51,31.59,60.27,40.19,0.934,8.19,-72.0,30.6,-1.5,-2941,96.4,5.70,12.7,,
25.9127516077561,-80.1378427715064,10:44:48.94,8/28/2022,6,1.584,125.22,-7.21057349596169,2.58,143.4,134.14,3.35,2.53,27.2,.00,3.39,3.40,90,38,493.9,16.1,-2.4,D,854.7,1,17.642,2,1.52,175,143.79,-80.13773856,25.9126236,0,0,1,N,1.799392,77,77,11,142,142,137.9746,0,9999.99,3.43,3.557,2,9,29.6,0,29.6000003814697,41.27,1551.20215,08/28/22,10:17:53,31.51,61.68,41.27,0.918,8.19,-71.6,11.4,-1.9,-3488,96.3,5.67,12.6,,
25.9127450957722,-80.1378370377026,10:44:49.94,8/28/2022,6,1.486,132.78,-7.21057349596169,2.58,146.2,136.78,2.77,3.81,27.3,.00,3.57,3.57,90,40,493.9,16.1,-2.5,D,808.6,1,16.719,2,1.56,175,143.91,-80.13773856,25.9126236,0,0,1,N,1.665106,74,74,11,131,131,137.7979,0,9999.99,3.60,3.727,2,9,29.6,0,29.6000003814697,41.27,1551.20215,08/28/22,10:17:53,31.51,61.68,41.27,0.918,8.19,-71.6,11.4,-1.9,-3488,96.3,5.67,12.6,,
25.9127385947798,-80.1378308932051,10:44:50.95,8/28/2022,6,1.716,138.94,-7.21057349596169,2.58,146.9,137.44,1.64,5.29,27.3,.00,3.60,3.60,90,40,493.9,16.1,-2.5,D,808.6,1,15.773,2,1.62,176,144.16,-80.13773856,25.9126236,0,0,1,N,1.504223,67,67,11,133,133,138.9076,0,9999.99,3.62,3.747,2,9,29.6,0,29.6000003814697,40.92,1550.83522,08/28/22,10:17:54,31.54,61.23,40.92,0.945,8.19,-71.7,7.9,-5.4,-5384,96.0,5.66,12.4,,
25.9127333786053,-80.1378261935007,10:44:51.97,8/28/2022,6,1.835,141.17,-7.21057349596169,2.58,147.1,137.63,2.12,7.02,27.3,.00,3.64,3.64,90,40,493.9,16.1,-2.5,D,808.6,1,15.027,2,1.7,176,144.32,-80.13773856,25.9126236,0,0,1,N,1.394018,70,70,11,134,134,139.6716,0,9999.99,3.65,3.777,2,9,29.7,0,29.7000007629395,41.39,1551.53138,08/28/22,10:17:56,31.56,61.85,41.39,0.949,8.18,-71.3,26.1,-2.1,-2558,95.8,5.63,12.6,,
25.9127251594451,-80.1378185665199,10:44:52.98,8/28/2022,6,2.062,141.15,-7.21057349596169,2.58,147.3,137.81,1.98,6.52,27.3,.00,3.66,3.66,90,40,493.9,16.1,-2.5,D,808.6,1,13.840,2,1.67,176,144.68,-80.13773856,25.9126236,0,0,1,N,1.197848,68,68,11,140,140,141.0418,0,9999.99,3.68,3.807,2,9,29.7,0,29.7000007629395,41.39,1551.53138,08/28/22,10:17:56,31.56,61.85,41.39,0.949,8.18,-71.3,26.1,-2.1,-2558,95.8,5.63,12.6,,
25.9127187535245,-80.1378137191319,10:44:54.00,8/28/2022,6,1.686,142.88,-7.21057349596169,2.58,148.4,138.86,2.24,7.01,27.3,.00,3.66,3.66,90,44,493.8,16.1,-2.7,D,739.6,1,12.980,2,1.71,176,144.61,-80.13773856,25.9126236,0,0,1,N,1.140086,70,70,11,137,137,141.4468,0,9999.99,3.68,3.807,2,9,29.7,0,29.7000007629395,41.43,1551.57312,08/28/22,10:17:57,31.56,61.89,41.43,0.968,8.19,-71.8,9.6,-4.6,-1501,95.8,5.63,12.6,,
25.9127133152353,-80.1378104745685,10:44:55.00,8/28/2022,6,1.51,145.02,-7.21057349596169,2.58,148.4,138.86,2.73,6.39,27.3,.00,3.67,3.67,90,44,493.8,16.1,-2.7,D,739.6,1,12.299,2,1.77,177,144.21,-80.13773856,25.9126236,0,0,1,N,1.169456,72,72,11,136,136,141.2408,0,9999.99,3.69,3.817,2,9,29.8,0,29.7999992370605,41.28,1551.61935,08/28/22,10:17:59,31.56,61.70,41.28,0.942,8.19,-71.8,9.9,-4.5,-1587,95.2,5.60,12.6,,
25.9127093172153,-80.1378085562036,10:44:56.00,8/28/2022,6,1.322,146.32,-7.21057349596169,2.58,149.3,139.71,2.62,8.2,27.3,.00,3.67,3.67,90,44,493.8,16.1,-2.7,D,739.6,1,11.826,2,1.8,177,143.7,-80.13773856,25.9126236,0,0,1,N,1.227369,72,72,11,132,132,140.8348,0,9999.99,3.69,3.817,2,9,29.8,0,29.7999992370605,41.28,1551.61935,08/28/22,10:17:59,31.56,61.70,41.28,0.942,8.19,-71.8,9.9,-4.5,-1587,95.2,5.60,12.6,,
25.9127022372695,-80.1378035677693,10:44:57.00,8/28/2022,6,1.559,146.83,-7.21057349596169,2.58,149.5,139.9,2.89,7.48,27.3,.00,3.69,3.69,90,52,493.8,16,-3.2,D,630.6,1,10.897,2,1.79,177,143.37,-80.13773856,25.9126236,0,0,1,N,1.191159,73,73,11,129,129,141.0884,0,9999.99,3.71,3.837,2,9,29.8,0,29.7999992370605,40.91,1551.23236,08/28/22,10:18:00,31.61,61.22,40.91,0.940,8.19,-71.7,10.5,-1.8,-4772,94.6,5.57,12.5,,
25.9126960295141,-80.1377995700012,10:44:58.00,8/28/2022,6,1.459,147.7,-7.21057349596169,2.58,150.5,140.85,2.63,6.59,27.3,.00,3.69,3.70,90,52,493.8,16,-3.2,D,630.6,1,10.104,2,1.78,177,142.85,-80.13773856,25.9126236,0,0,1,N,1.197446,73,73,11,128,128,141.0448,0,9999.99,3.72,3.847,2,9,29.8,0,29.7999992370605,41.21,1551.54621,08/28/22,10:18:02,31.59,61.61,41.21,0.929,8.19,-71.7,9.3,-2.1,-1820,94.3,5.54,12.4,,
25.9126885910114,-80.1377942143923,10:44:59.00,8/28/2022,6,1.488,148.95,-7.21057349596169,2.58,150.3,140.66,2.66,7.57,27.3,.00,3.70,3.70,90,52,493.8,16,-3.2,D,630.6,1,9.122,2,1.77,178,142.39,-80.13773856,25.9126236,0,0,1,N,1.153305,73,73,11,130,130,141.3537,0,9999.99,3.72,3.847,2,9,29.9,0,29.8999996185303,40.95,1551.47714,08/28/22,10:18:03,31.56,61.27,40.95,0.940,8.19,-71.8,3.3,-7.7,-454,94.3,5.55,12.6,,
25.9126810617834,-80.137788965989,10:45:00.00,8/28/2022,6,1.623,148.77,-7.21057349596169,2.58,150.8,141.13,2.27,7.71,27.2,.00,3.71,3.71,90,52,493.8,16,-3.2,D,630.6,1,8.140,2,1.75,178,141.73,-80.13773856,25.9126236,0,0,1,N,1.122629,71,71,11,130,130,141.5695,0,9999.99,3.73,3.857,2,9,29.9,0,29.8999996185303,40.91,1551.43531,08/28/22,10:18:04,31.51,61.22,40.91,0.946,8.19,-71.7,2.1,-5.6,-3842,94.4,5.57,12.5,,
25.9126720842961,-80.1377830007669,10:45:01.02,8/28/2022,7,1.71,148.04,-7.21057349596169,1.71,150.2,140.56,2.26,8.6,27.3,.00,3.72,3.72,90,55,493.8,16,-3.4,D,600,1,6.987,2,1.75,178,140.5,-80.13773856,25.9126236,0,0,1,N,1.113923,71,71,11,131,131,141.6303,0,9999.99,3.74,3.867,2,9,29.9,0,29.8999996185303,40.91,1551.43531,08/28/22,10:18:04,31.51,61.22,40.91,0.946,8.19,-71.7,2.1,-5.6,-3842,94.4,5.57,12.5,,
25.9126622828381,-80.1377760421438,10:45:02.02,8/28/2022,7,1.803,147.09,-7.21057349596169,1.71,150.2,140.56,2.27,8.1,27.3,.00,3.71,3.71,90,55,493.8,16,-3.4,D,600,1,5.706,2,1.76,178,138.93,-80.13773856,25.9126236,0,0,1,N,1.068863,71,71,11,133,133,141.9475,0,9999.99,3.73,3.857,2,9,29.9,0,29.8999996185303,41.76,1552.32378,08/28/22,10:18:05,31.50,62.32,41.76,0.928,8.19,-71.7,1.7,-0.2,-2684,94.2,5.53,12.5,,
25.9126541095544,-80.1377707159391,10:45:03.02,8/28/2022,7,1.537,148.2,-7.21057349596169,1.71,149.8,140.18,1.98,8.6,27.3,.00,3.74,3.74,90,55,493.8,16,-3.4,D,600.1,1,4.675,2,1.76,178,136.53,-80.13773856,25.9126236,0,0,1,N,1.069758,69,69,11,134,134,141.9408,0,9999.99,3.76,3.887,2,9,29.9,0,29.8999996185303,41.92,1552.49103,08/28/22,10:18:07,31.48,62.53,41.92,0.945,8.19,-71.7,1.9,-0.5,-1498,94.5,5.55,12.6,,
25.9126464250548,-80.1377653136049,10:45:04.02,8/28/2022,7,1.591,148.26,-7.21057349596169,1.71,149.9,140.28,2.25,8.1,27.4,.00,3.74,3.74,90,55,493.8,16,-3.4,D,600.1,2,20.587,2,1.75,179,140.06,-80.13763318,25.91250447,0,0,1,N,0.5144425,71,71,11,122,122,139.0158,0,9999.99,3.76,3.887,2,9,29.9,0,29.8999996185303,41.92,1552.49103,08/28/22,10:18:07,31.48,62.53,41.92,0.945,8.19,-71.7,1.9,-0.5,-1498,94.5,5.55,12.6,,
25.9126378444378,-80.1377592221487,10:45:05.02,8/28/2022,7,1.814,147.51,-7.21057349596169,1.71,150.2,140.56,2.03,8.2,27.4,.00,3.76,3.76,90,55,493.8,16,-3.4,D,600.1,2,19.464,2,1.75,179,139.63,-80.13763318,25.91250447,0,0,1,N,0.6314453,69,69,11,118,118,138.1305,0,9999.99,3.78,3.907,2,9,30,0,30,41.83,1552.59855,08/28/22,10:18:08,31.48,62.41,41.83,0.976,8.19,-71.9,1.1,-5.1,-3534,94.4,5.54,12.5,,
25.9126306224873,-80.1377543673947,10:45:06.02,8/28/2022,7,1.725,147.1,-7.21057349596169,1.71,149,139.42,2.9,7.61,27.4,.00,3.77,3.77,90,56,493.8,16,-3.5,D,581.3,2,18.539,2,1.75,179,139.17,-80.13763318,25.91250447,0,0,1,N,0.7552695,74,74,11,118,118,137.0794,0,9999.99,3.79,3.917,2,9,30,0,30,41.54,1552.29559,08/28/22,10:18:10,31.49,62.04,41.54,0.955,8.19,-71.7,-3.7,-6.7,-3109,94.2,5.54,12.5,,
25.9126221307899,-80.1377480197422,10:45:07.02,8/28/2022,7,1.687,147.68,-7.21057349596169,1.71,148.7,139.14,2.28,9,27.4,.00,3.75,3.75,90,56,493.8,16,-3.5,D,581.3,2,17.410,2,1.76,179,138.72,-80.13763318,25.91250447,0,0,1,N,0.8468315,71,71,11,114,114,135.8609,0,9999.99,3.77,3.897,2,9,30,0,30,41.54,1552.29559,08/28/22,10:18:10,31.49,62.04,41.54,0.955,8.19,-71.7,-3.7,-6.7,-3109,94.2,5.54,12.5,,
25.9126140166392,-80.1377420172482,10:45:08.02,8/28/2022,7,1.683,147.59,-7.21057349596169,1.71,147.3,137.81,1.98,8.8,27.3,.00,3.78,3.78,90,56,493.8,16,-3.5,D,581.3,2,16.336,2,1.76,180,138.21,-80.13763318,25.91250447,0,0,1,N,0.9404307,69,69,11,115,115,134.7876,0,9999.99,3.80,3.927,2,9,30,0,30,41.68,1552.44189,08/28/22,10:18:11,31.44,62.21,41.68,0.964,8.19,-71.6,-2.3,-3.4,-1118,94.5,5.56,12.6,,
25.9126070307333,-80.1377369214658,10:45:09.03,8/28/2022,7,1.755,146.43,-7.21057349596169,1.71,146.3,136.87,2.71,8.6,27.4,.00,3.80,3.80,90,56,493.8,16,-3.5,D,581.3,2,15.418,2,1.76,180,137.7,-80.13763318,25.91250447,0,0,1,N,1.024632,73,73,11,116,116,134.1933,0,9999.99,3.82,3.947,2,9,30,0,30,42.28,1553.06878,08/28/22,10:18:13,31.39,63.00,42.28,0.976,8.19,-71.7,-4.0,-0.6,-1571,93.9,5.51,12.5,,
25.912599773778,-80.1377306935612,10:45:10.03,8/28/2022,7,1.916,143.85,-7.21057349596169,1.71,145.4,136.02,2.27,8.6,27.3,.00,3.79,3.79,90,58,493.7,16,-3.6,D,563.6,2,14.402,2,1.75,180,137.38,-80.13763318,25.91250447,0,0,1,N,1.042685,71,71,11,119,119,134.0668,0,9999.99,3.81,3.937,2,9,30,0,30,42.06,1552.83894,08/28/22,10:18:14,31.40,62.72,42.06,0.960,8.19,-71.5,-4.5,-4.0,-3983,93.8,5.51,12.5,,
25.9125929079247,-80.1377262239144,10:45:11.05,8/28/2022,7,1.448,144.81,-7.21057349596169,1.71,143.6,134.32,2.51,9.1,27.4,.00,3.81,3.81,90,58,493.7,16,-3.6,D,563.6,2,13.539,2,1.78,180,136.58,-80.13763318,25.91250447,0,0,1,N,1.16979,72,72,11,122,122,133.1734,0,9999.99,3.83,3.957,2,9,30,0,30,42.06,1552.83894,08/28/22,10:18:14,31.40,62.72,42.06,0.960,8.19,-71.5,-4.5,-4.0,-3983,93.8,5.51,12.5,,
25.9125858542968,-80.137720024581,10:45:12.06,8/28/2022,7,1.563,144.74,-7.21057349596169,1.71,143,133.76,2.32,8.8,27.4,.00,3.80,3.80,90,58,493.7,16,-3.6,D,563.6,2,12.543,2,1.79,180,136.17,-80.13763318,25.91250447,0,0,1,N,1.176335,71,71,11,124,124,133.1276,0,9999.99,3.82,3.947,2,9,30.1,0,30,41.6,1552.35829,08/28/22,10:18:16,31.42,62.11,41.60,0.944,8.19,-71.5,-6.0,-2.2,-3279,94.1,5.54,12.5,,
25.9125798688711,-80.1377151409091,10:45:13.08,8/28/2022,7,1.477,144.5,-7.21057349596169,1.71,141.7,132.54,2.47,9.4,27.4,.00,3.80,3.80,90,59,493.7,16,-3.6,D,556.6,2,11.726,2,1.79,181,135.64,-80.13763318,25.91250447,0,0,1,N,1.211048,73,73,11,128,128,132.8847,0,9999.99,3.82,3.947,2,9,30.1,0,30,41.6,1552.35829,08/28/22,10:18:16,31.42,62.11,41.60,0.944,8.19,-71.5,-6.0,-2.2,-3279,94.1,5.54,12.5,,
25.9125735393062,-80.1377090983553,10:45:14.08,8/28/2022,7,1.713,140.62,-7.21057349596169,1.71,141,131.88,3.05,9.1,27.4,.00,3.80,3.80,90,59,493.7,16,-3.6,D,556.6,2,10.800,2,1.81,181,135.33,-80.13763318,25.91250447,0,0,1,N,1.176405,74,74,11,131,131,133.1275,0,9999.99,3.82,3.947,2,9,30.1,0,30.1000003814697,42.19,1553.17557,08/28/22,10:18:17,31.42,62.88,42.19,0.939,8.19,-71.5,-5.6,-5.6,-2327,93.6,5.49,12.5,,
25.9125664044942,-80.1377017952739,10:45:15.09,8/28/2022,7,1.891,138.73,-7.21057349596169,1.71,140.8,131.7,2.47,9.2,27.4,.00,3.85,3.85,90,59,493.7,16,-3.6,D,556.6,2,9.722,2,1.8,181,135.1,-80.13763318,25.91250447,0,0,1,N,1.100429,71,71,11,134,134,133.6607,0,9999.99,3.88,4.007,2,9,30.1,0,30.1000003814697,42.13,1553.11287,08/28/22,10:18:19,31.46,62.81,42.13,0.955,8.19,-71.6,-5.3,-1.0,-3089,94.0,5.51,12.6,,
25.9125600750823,-80.1376961145471,10:45:16.11,8/28/2022,7,1.546,139.63,-7.21057349596169,1.72,140.2,131.13,2.84,9.1,27.4,.00,3.87,3.87,90,59,493.7,16,-3.6,D,556.6,2,8.823,2,1.82,181,134.49,-80.13763318,25.91250447,0,0,1,N,1.097914,75,75,11,137,137,133.6778,0,9999.99,3.89,4.017,2,9,30.1,0,30.1000003814697,42.3,1553.29041,08/28/22,10:18:20,31.50,63.03,42.30,0.944,8.19,-71.5,-4.1,-5.8,-1576,93.6,5.48,12.6,,
25.9125536262014,-80.1376895247248,10:45:17.13,8/28/2022,7,1.648,138.6,-7.21057349596169,1.72,140.6,131.51,2.7,8.8,27.4,.00,3.87,3.87,90,61,493.7,16,-3.8,D,535.9,2,7.850,2,1.84,181,134.13,-80.13763318,25.91250447,0,0,1,N,1.02849,73,73,11,138,138,134.167,0,9999.99,3.89,4.017,2,9,30.1,0,30.1000003814697,42.3,1553.29041,08/28/22,10:18:20,31.50,63.03,42.30,0.944,8.19,-71.5,-4.1,-5.8,-1576,93.6,5.48,12.6,,
25.9125473473567,-80.1376839678671,10:45:18.13,8/28/2022,6,1.521,138.96,-7.21057349596169,1.83,141.1,131.98,2.51,9.3,27.4,.00,3.87,3.87,90,61,493.7,16,-3.8,D,535.9,2,6.967,2,1.86,181,133.19,-80.13763318,25.91250447,0,0,1,N,1.024647,72,72,11,136,136,134.1936,0,9999.99,3.89,4.017,2,9,30.1,0,30.1000003814697,42.35,1553.34273,08/28/22,10:18:21,31.54,63.09,42.35,0.961,8.19,-71.5,-6.0,-3.8,-1083,93.4,5.46,12.6,,
25.9125411130213,-80.137677979718,10:45:19.16,8/28/2022,7,1.72,138.16,-7.21057349596169,1.72,140.6,131.51,3.15,8.7,27.4,.00,3.89,3.89,90,61,493.7,16,-3.8,D,535.9,2,6.057,2,1.87,181,132.28,-80.13763318,25.91250447,0,0,1,N,0.9893638,76,76,11,136,136,134.4423,0,9999.99,3.92,4.047,2,9,30.1,0,30.1000003814697,42.37,1553.36352,08/28/22,10:18:22,31.58,63.13,42.37,0.952,8.19,-71.5,-5.6,-1.0,-1927,93.1,5.44,12.5,,
25.9125344296299,-80.1376713036705,10:45:20.16,8/28/2022,7,1.867,137.34,-7.21057349596169,1.72,142.2,133.01,3.01,8.3,27.4,.00,3.93,3.94,90,61,493.6,16,-3.8,D,537.3,2,5.064,2,1.84,181,131.14,-80.13763318,25.91250447,0,0,1,N,0.928251,75,75,11,134,134,134.8742,0,9999.99,3.96,4.087,2,9,30.1,0,30.1000003814697,42.41,1553.40538,08/28/22,10:18:24,31.65,63.18,42.41,0.963,8.19,-71.6,-4.9,-5.2,-4506,92.8,5.42,12.6,,
25.9125277743446,-80.1376648439889,10:45:21.16,8/28/2022,7,1.648,138.81,-7.21057349596169,1.72,142.5,133.29,2.9,8.2,27.4,.00,3.93,3.94,90,61,493.6,16,-3.8,D,537.3,3,24.173,2,1.86,181,150.97,-80.13754756,25.91233769,0,0,1,N,1.828973,74,74,11,181,181,146.8073,0,9999.99,3.96,4.087,2,9,30.1,0,30.1000003814697,42.41,1553.40538,08/28/22,10:18:24,31.65,63.18,42.41,0.963,8.19,-71.6,-4.9,-5.2,-4506,92.8,5.42,12.6,,
25.9125202831934,-80.1376579770282,10:45:22.16,8/28/2022,7,1.759,139.16,-7.21057349596169,1.72,144.9,135.55,2.98,10.3,27.4,.00,3.87,3.88,90,61,493.6,16,-3.8,D,537.3,3,23.113,2,1.85,181,151.46,-80.13754756,25.91233769,0,0,1,N,1.549715,75,75,11,174,174,147.3379,0,9999.99,3.90,4.027742,2,9,30.1,0,30.1000003814697,42.28,1553.26953,08/28/22,10:18:25,31.66,63.01,42.28,0.947,8.19,-71.6,-5.0,-4.7,-2452,92.9,5.42,12.6,,
25.9125129708498,-80.1376511302882,10:45:23.19,8/28/2022,7,1.99,136.49,-7.21057349596169,1.72,149.6,139.99,3.67,5.46,27.4,.00,3.96,3.96,90,61,493.6,16,-3.8,D,537.3,3,22.072,2,1.81,181,152.01,-80.13754756,25.91233769,0,0,1,N,1.263931,79,79,11,159,159,148.0416,0,9999.99,3.99,4.117,2,9,30.2,0,30.1000003814697,42.2,1553.18596,08/28/22,10:18:27,31.66,62.91,42.20,0.951,8.19,-71.8,-5.2,-4.3,-3051,93.0,5.43,12.7,,
25.9125058402032,-80.1376463457497,10:45:24.22,8/28/2022,7,1.872,139.36,-7.21057349596169,1.72,152.6,142.85,3.64,6.63,27.4,.01,3.96,3.97,90,62,493.6,16,-3.8,D,529.3,3,21.148,2,1.78,182,152.15,-80.13754756,25.91233769,0,0,1,N,1.154933,79,79,11,147,147,147.8741,0,9999.99,3.99,4.117,2,9,30.2,0,30.1000003814697,42.2,1553.18596,08/28/22,10:18:27,31.66,62.91,42.20,0.951,8.19,-71.8,-5.2,-4.3,-3051,93.0,5.43,12.7,,
25.9124975297082,-80.1376404234366,10:45:25.23,8/28/2022,7,1.798,144.03,-7.21057349596169,1.72,156.1,146.19,3.29,6.51,27.5,.00,3.96,3.97,90,62,493.6,16,-3.8,D,529.3,3,20.054,2,1.79,182,152.41,-80.13754756,25.91233769,0,0,1,N,0.997345,77,77,11,135,135,148.1145,0,9999.99,4.00,4.127,2,9,30.2,0,30.2000007629395,42.26,1553.44926,08/28/22,10:18:28,31.67,62.98,42.26,0.951,8.19,-71.8,-5.6,0.0,-1038,93.2,5.44,12.6,,
25.9124893373914,-80.1376355776961,10:45:26.28,8/28/2022,7,1.78,148.41,-7.21057349596169,1.72,157.3,147.34,2.9,7.74,27.4,.00,3.98,3.99,90,62,493.6,16,-3.8,D,529.3,3,19.022,2,1.8,182,152.43,-80.13754756,25.91233769,0,0,1,N,0.938785,74,74,11,132,132,148.5217,0,9999.99,4.01,4.137,2,9,30.2,0,30.2000007629395,42.12,1553.3029,08/28/22,10:18:29,31.67,62.81,42.12,0.964,8.19,-71.7,-5.7,-6.1,-1131,93.2,5.45,12.6,,
25.9124813987383,-80.1376315577764,10:45:27.31,8/28/2022,7,1.901,150.97,-7.21057349596169,1.72,157.8,147.83,2.6,8.4,27.5,.00,3.99,3.99,90,65,493.6,16,-4,D,506,3,18.054,2,1.83,182,152.27,-80.13754756,25.91233769,0,0,1,N,0.9443449,73,73,11,130,130,148.4823,0,9999.99,4.02,4.147,2,9,30.2,0,30.2000007629395,42.01,1553.18785,08/28/22,10:18:30,31.67,62.67,42.01,0.960,8.19,-71.7,-4.8,-0.2,-3308,93.1,5.45,12.4,,
25.9124728465988,-80.1376274955012,10:45:28.31,8/28/2022,7,1.951,152.51,-7.21057349596169,1.72,157.3,147.34,2.13,10.1,27.5,.00,4.02,4.02,90,65,493.6,16,-4,D,506,3,17.023,2,1.84,182,151.99,-80.13754756,25.91233769,0,0,1,N,0.9730092,70,70,11,131,131,148.2798,0,9999.99,4.04,4.167,2,9,30.2,0,30.2000007629395,42.11,1553.29208,08/28/22,10:18:31,31.67,62.80,42.11,0.974,8.19,-71.9,-6.1,-3.7,-867,93.1,5.44,12.7,,
25.9124642284595,-80.1376228664086,10:45:29.31,8/28/2022,7,1.771,154.26,-7.21057349596169,1.72,159.1,149.08,2.39,9.5,27.5,.00,3.93,3.93,90,65,493.6,16,-4,D,506,3,15.960,2,1.85,182,151.84,-80.13754756,25.91233769,0,0,1,N,0.9498271,71,71,11,124,124,148.4435,0,9999.99,3.95,4.080025,2,9,30.2,0,30.2000007629395,42.18,1553.36512,08/28/22,10:18:33,31.67,62.89,42.18,0.970,8.19,-71.8,-4.2,-5.5,-5468,93.2,5.44,12.6,,
25.9124551249498,-80.1376178682623,10:45:30.31,8/28/2022,7,1.769,155.6,-7.21057349596169,1.72,158,148.02,2.35,9.7,27.4,.00,4.01,4.01,90,65,493.6,16,-4,D,506,3,14.831,2,1.85,182,151.7,-80.13754756,25.91233769,0,0,1,N,0.922273,71,71,11,127,127,148.6382,0,9999.99,4.03,4.157,2,9,30.2,0,30.2000007629395,42.18,1553.36512,08/28/22,10:18:33,31.67,62.89,42.18,0.970,8.19,-71.8,-4.2,-5.5,-5468,93.2,5.44,12.6,,
25.9124477678157,-80.1376142518278,10:45:31.31,8/28/2022,7,1.852,155.46,-7.21057349596169,1.72,157.7,147.73,2.37,10.1,27.4,.00,4.06,4.06,90,64,493.5,16,-4,D,510.9,3,13.940,2,1.83,183,151.41,-80.13754756,25.91233769,0,0,1,N,0.9391355,71,71,11,130,130,148.5191,0,9999.99,4.08,4.207,2,9,30.2,0,30.2000007629395,42.12,1553.30251,08/28/22,10:18:34,31.66,62.80,42.12,0.982,8.19,-71.6,-5.4,-2.2,-1958,93.1,5.44,12.3,,
25.9124394816183,-80.1376100429765,10:45:32.33,8/28/2022,7,1.858,155.19,-7.21057349596169,1.72,157.6,147.63,2.64,10.1,27.4,.00,4.07,4.07,90,64,493.5,16,-4,D,510.9,3,12.929,2,1.82,183,151.1,-80.13754756,25.91233769,0,0,1,N,0.9422692,73,73,11,130,130,148.4969,0,9999.99,4.09,4.217,2,9,30.2,0,30.2000007629395,41.98,1553.15643,08/28/22,10:18:36,31.65,62.62,41.98,0.973,8.19,-71.7,-6.4,-3.0,-5349,93.3,5.46,12.4,,
25.9124313684757,-80.1376057938225,10:45:33.36,8/28/2022,7,1.771,155.69,-7.21057349596169,1.72,157,147.06,2.73,10.3,27.5,.00,4.06,4.06,90,64,493.5,16,-4,D,510.9,3,11.934,2,1.83,183,150.79,-80.13754756,25.91233769,0,0,1,N,0.9367128,72,72,11,133,133,148.5361,0,9999.99,4.08,4.207,2,9,30.2,0,30.2000007629395,42.43,1553.62604,08/28/22,10:18:37,31.64,63.20,42.43,0.967,8.19,-71.8,-5.2,-3.7,-2593,93.3,5.45,12.7,,
25.9124229975737,-80.1376013257872,10:45:34.36,8/28/2022,7,1.687,156.83,-7.21057349596169,1.72,157.4,147.44,2.57,7.21,27.5,.00,4.03,4.04,90,59,493.5,16,-3.6,D,558,3,10.904,2,1.82,183,150.45,-80.13754756,25.91233769,0,0,1,N,0.9228975,72,72,11,132,132,148.6337,0,9999.99,4.06,4.187,2,9,30.2,0,30.2000007629395,42.23,1553.41735,08/28/22,10:18:38,31.65,62.95,42.23,0.982,8.19,-71.7,-6.4,0.0,-3106,93.0,5.43,12.4,,
25.912414455108,-80.1375967780552,10:45:35.36,8/28/2022,7,1.945,155.92,-7.21057349596169,1.72,157.4,147.44,2.79,7.94,27.5,.00,4.03,4.03,90,59,493.5,16,-3.6,D,558,3,9.853,2,1.87,183,150.03,-80.13754756,25.91233769,0,0,1,N,0.9056866,74,74,11,132,132,148.7553,0,9999.99,4.06,4.187,2,9,30.2,0,30.2000007629395,41.78,1552.94785,08/28/22,10:18:39,31.64,62.36,41.78,0.977,8.19,-71.7,-5.9,4.6,-4288,93.0,5.45,12.7,,
25.9124053770312,-80.1375922704843,10:45:36.36,8/28/2022,7,2.045,154.96,-7.21057349596169,1.72,158.2,148.21,2.84,7.66,27.5,.00,4.03,4.03,90,59,493.5,16,-3.6,D,558,3,8.755,2,1.91,183,149.28,-80.13754756,25.91233769,0,0,1,N,0.9196056,74,74,11,130,130,148.6571,0,9999.99,4.05,4.177,2,9,30.3,0,30.2999992370605,41.92,1553.29356,08/28/22,10:18:40,31.60,62.55,41.92,0.970,8.19,-71.6,-4.8,-4.3,-1760,93.1,5.45,12.6,,
25.9123958415825,-80.1375868594815,10:45:37.39,8/28/2022,7,2.035,155.33,-7.21057349596169,1.72,157.4,147.44,2.84,9.1,27.5,.00,4.01,4.01,90,59,493.5,16,-3.6,D,558,3,7.568,2,1.97,183,148.71,-80.13754756,25.91233769,0,0,1,N,0.8779027,74,74,11,133,133,148.9519,0,9999.99,4.04,4.167,2,9,30.3,0,30.2999992370605,41.79,1553.15799,08/28/22,10:18:41,31.60,62.37,41.79,0.985,8.19,-71.6,-5.5,-5.8,-1964,93.0,5.45,12.6,,
25.9123873873125,-80.1375825906053,10:45:38.41,8/28/2022,7,1.941,156.39,-7.21057349596169,1.72,158.2,148.21,2.65,8.1,27.5,.00,4.03,4.03,90,47,493.4,16,-2.9,D,692.1,3,6.543,2,2.01,183,147.62,-80.13754756,25.91233769,0,0,1,N,0.8830506,73,73,11,130,130,148.9153,0,9999.99,4.05,4.177,2,9,30.3,0,30.2999992370605,42.1,1553.48129,08/28/22,10:18:42,31.59,62.78,42.10,0.978,8.19,-71.6,-6.0,-1.0,-4114,93.2,5.45,12.5,,
25.912378406752,-80.1375779478398,10:45:39.42,8/28/2022,7,2.117,156.16,-7.21057349596169,1.72,158.2,148.21,2.32,9.3,27.6,.00,4.03,4.03,90,47,493.4,16,-2.9,D,692.1,3,5.453,2,2.04,183,146.13,-80.13754756,25.91233769,0,0,1,N,0.8774651,71,71,11,131,131,148.9549,0,9999.99,4.05,4.177,2,9,30.3,0,30.2999992370605,41.95,1553.32481,08/28/22,10:18:43,31.61,62.59,41.95,0.967,8.19,-71.7,-5.2,-1.4,-3316,93.0,5.45,12.6,,
25.9123672903685,-80.1375717838214,10:45:40.47,8/28/2022,7,2.222,154.59,-7.21057349596169,1.72,156.5,146.58,2.81,10.2,27.6,.00,4.00,4.00,90,47,493.4,16,-2.9,D,692.1,4,23.707,2,2.07,183,146.85,-80.13744218,25.91218878,0,0,1,N,0.8431341,74,74,11,132,132,147.8703,0,9999.99,4.02,4.147,2,9,30.3,0,30.2999992370605,41.37,1552.72006,08/28/22,10:18:44,31.60,61.82,41.37,0.998,8.19,-71.7,-6.1,-2.9,-688,93.2,5.47,12.5,,
25.9123584332798,-80.1375671419947,10:45:41.48,8/28/2022,7,2.132,154.11,-7.21057349596169,1.72,156.4,146.48,2.72,9.5,27.6,.00,4.07,4.07,90,47,493.4,16,-2.9,D,692.7,4,22.629,2,2.07,183,146.47,-80.13744218,25.91218878,0,0,1,N,0.4152759,73,73,11,125,125,145.4664,0,9999.99,4.09,4.217,2,9,30.3,0,30.2999992370605,42.12,1553.50208,08/28/22,10:18:45,31.59,62.80,42.12,0.962,8.19,-71.5,-5.7,-7.2,84,93.2,5.45,12.6,,
25.9123492721388,-80.1375618353585,10:45:42.48,8/28/2022,7,1.997,154.3,-7.21057349596169,1.72,157.6,147.63,2.35,8.7,27.6,.00,4.04,4.05,90,47,493.4,16,-2.9,D,692.7,4,21.487,2,2.06,183,146.15,-80.13744218,25.91218878,0,0,1,N,0.5131496,71,71,11,115,115,144.662,0,9999.99,4.07,4.197,2,9,30.3,0,30.2999992370605,42.26,1553.64806,08/28/22,10:18:46,31.60,62.98,42.26,0.992,8.19,-71.6,-5.3,-2.1,-4457,93.3,5.45,12.4,,
25.9123401378694,-80.1375565974489,10:45:43.48,8/28/2022,7,2.096,154.26,-7.21057349596169,1.72,156.4,146.48,2.91,8.2,27.5,.00,4.04,4.04,90,47,493.4,16,-2.9,D,692.7,4,20.352,2,2.04,183,145.79,-80.13744218,25.91218878,0,0,1,N,0.6207957,74,74,11,115,115,143.5646,0,9999.99,4.07,4.197,2,9,30.3,0,30.2999992370605,41.9,1553.27268,08/28/22,10:18:47,31.62,62.51,41.90,0.996,8.19,-71.6,-6.8,-3.0,-3990,93.3,5.46,12.6,,
25.9123320267418,-80.1375521574233,10:45:44.50,8/28/2022,7,2.108,152.93,-7.21057349596169,1.72,154.3,144.47,2.41,9,27.6,.00,4.00,4.01,90,47,493.4,16,-2.9,D,692.7,4,19.357,2,2.03,183,145.37,-80.13744218,25.91218878,0,0,1,N,0.7341946,74,74,11,119,119,142.2846,0,9999.99,4.03,4.157,2,9,30.3,0,30.2999992370605,41.13,1552.46994,08/28/22,10:18:48,31.60,61.51,41.13,0.976,8.19,-71.8,-6.0,-4.4,-3189,93.2,5.48,12.4,,
25.9123234229552,-80.1375471908376,10:45:45.50,8/28/2022,7,2.225,151.93,-7.21057349596169,1.72,154.7,144.85,2.19,9.2,27.6,.00,4.02,4.02,90,47,493.4,16,-2.9,D,691.9,4,18.288,2,2.05,183,144.95,-80.13744218,25.91218878,0,0,1,N,0.828424,70,70,11,117,117,141.61,0,9999.99,4.04,4.167,2,9,30.3,0,30.2999992370605,41.97,1553.34568,08/28/22,10:18:49,31.58,62.60,41.97,0.984,8.19,-71.4,-5.2,-5.7,-2036,93.1,5.45,12.4,,
25.9123140039225,-80.1375418833487,10:45:46.50,8/28/2022,7,1.986,152.98,-7.21057349596169,1.72,154.4,144.57,2.42,8.1,27.5,.00,4.06,4.06,90,47,493.4,16,-2.9,D,691.9,4,17.127,2,2.06,183,144.39,-80.13744218,25.91218878,0,0,1,N,0.9409862,72,72,11,112,112,140.8136,0,9999.99,4.08,4.207,2,9,30.3,0,30.2999992370605,41.82,1553.18929,08/28/22,10:18:50,31.60,62.41,41.82,1.005,8.19,-71.5,-6.3,-7.5,-584,93.3,5.47,12.6,,
25.9123053225503,-80.1375365934432,10:45:47.50,8/28/2022,7,1.897,153.24,-7.21057349596169,1.72,151.8,142.08,2.75,9.8,27.6,.00,4.03,4.03,90,47,493.4,16,-2.9,D,691.9,4,16.035,2,2.06,183,143.92,-80.13744218,25.91218878,0,0,1,N,1.018508,73,73,11,120,120,140.2666,0,9999.99,4.05,4.177,2,9,30.3,0,30.2999992370605,41.29,1552.63667,08/28/22,10:18:51,31.60,61.72,41.29,1.002,8.19,-71.5,-5.4,-2.7,-3920,93.1,5.47,12.5,,
25.9122971871661,-80.137531313266,10:45:48.50,8/28/2022,7,2.088,150.66,-7.21057349596169,1.72,150.7,141.04,2.34,8.6,27.6,.00,4.05,4.05,90,47,493.4,16,-2.9,D,691.9,4,14.993,2,2.06,183,143.52,-80.13744218,25.91218878,0,0,1,N,1.063662,70,70,11,123,123,139.9485,0,9999.99,4.07,4.197,2,9,30.3,0,30.2999992370605,41.74,1553.10585,08/28/22,10:18:52,31.56,62.30,41.74,0.995,8.19,-71.5,-5.2,-5.1,-1845,93.2,5.47,12.6,,
25.9122889691329,-80.1375255814067,10:45:49.52,8/28/2022,7,2.102,149.38,-7.21057349596169,1.72,150.6,140.94,2.61,8.1,27.6,.00,4.07,4.08,90,47,493.3,16,-2.9,D,698.5,4,13.917,2,2.07,183,143.18,-80.13744218,25.91218878,0,0,1,N,1.075019,73,73,11,123,123,139.8684,0,9999.99,4.10,4.227,2,9,30.3,0,30.2999992370605,41.38,1552.73052,08/28/22,10:18:53,31.56,61.83,41.38,1.020,8.18,-71.3,-7.6,-4.3,-3113,93.1,5.47,12.6,,
25.9122804330198,-80.1375187210086,10:45:50.52,8/28/2022,7,2.086,147.57,-7.21057349596169,1.72,149.5,139.9,2.23,8.2,27.7,.00,4.05,4.05,90,47,493.3,16,-2.9,D,698.5,4,12.747,2,2.09,183,143.09,-80.13744218,25.91218878,0,0,1,N,1.003099,70,70,11,129,129,140.375,0,9999.99,4.07,4.197,2,9,30.3,0,30.2999992370605,41.88,1553.25188,08/28/22,10:18:54,31.57,62.49,41.88,0.989,8.19,-71.4,-5.0,-2.6,729,93.1,5.46,12.4,,
25.9122722677831,-80.1375123914846,10:45:51.52,8/28/2022,7,2.092,147.42,-7.21057349596169,1.72,148.3,138.76,2.16,9.5,27.7,.00,4.01,4.01,90,47,493.3,16,-2.9,D,698.5,4,11.640,2,2.06,183,142.9,-80.13744218,25.91218878,0,0,1,N,0.9599848,71,71,11,135,135,140.6795,0,9999.99,4.04,4.165517,2,9,30.3,0,30.2999992370605,42.04,1553.41878,08/28/22,10:18:55,31.61,62.70,42.04,1.027,8.18,-71.4,-6.3,-3.0,-3010,93.0,5.44,12.6,,
25.9122632149004,-80.1375051515401,10:45:52.52,8/28/2022,7,2.236,145.28,-7.21057349596169,1.72,148.3,138.76,2.95,8.6,27.6,.00,4.11,4.11,90,47,493.3,16,-2.9,D,691.1,4,10.401,2,2.08,183,142.73,-80.13744218,25.91218878,0,0,1,N,0.8884327,75,75,11,137,137,141.185,0,9999.99,4.13,4.257,2,9,30.3,0,30.2999992370605,41.71,1553.07471,08/28/22,10:18:56,31.64,62.27,41.71,1.027,8.19,-71.5,-5.9,-9.7,-1904,93.0,5.45,12.6,,
25.9122552751013,-80.137499075379,10:45:53.52,8/28/2022,7,2.219,143.64,-7.21057349596169,1.72,149.6,139.99,2.18,7.49,27.7,.00,4.09,4.09,90,47,493.3,16,-2.9,D,691.1,4,9.330,2,2.08,183,142.42,-80.13744218,25.91218878,0,0,1,N,0.8459213,70,70,11,133,133,141.4859,0,9999.99,4.11,4.237,2,9,30.3,0,30.2999992370605,41.91,1553.28316,08/28/22,10:18:57,31.65,62.52,41.91,0.982,8.18,-71.4,-5.1,0.8,-2576,93.2,5.45,12.6,,
25.9122468910504,-80.1374918317177,10:45:54.52,8/28/2022,7,2.077,144.14,-7.21057349596169,1.72,148.3,138.76,2.37,9.6,27.7,.00,4.07,4.08,90,47,493.3,16,-2.9,D,691.1,4,8.150,2,2.05,183,142.46,-80.13744218,25.91218878,0,0,1,N,0.7386874,71,71,11,141,141,142.2467,0,9999.99,4.10,4.227,2,9,30.4,0,30.3999996185303,41.67,1553.23222,08/28/22,10:18:58,31.64,62.22,41.67,1.053,8.19,-71.5,-5.8,-5.8,-5986,93.1,5.46,12.5,,
25.9122395488771,-80.1374860976688,10:45:55.52,8/28/2022,7,2.007,144.67,-7.21057349596169,1.72,147.4,137.91,2.66,9.7,27.7,.00,4.14,4.14,90,47,493.3,16,-2.9,D,691.1,4,7.153,2,2.08,183,142.11,-80.13744218,25.91218878,0,0,1,N,0.6975575,73,73,11,143,143,142.5389,0,9999.99,4.16,4.287,2,9,30.4,0,30.3999996185303,41.7,1553.26349,08/28/22,10:18:59,31.65,62.25,41.70,1.001,8.18,-71.4,-6.5,-1.1,-4963,93.1,5.45,12.6,,
25.912231276268,-80.1374795100134,10:45:56.52,8/28/2022,7,2.122,144.31,-7.21057349596169,1.72,149.8,140.18,2.26,8.9,27.7,.00,4.15,4.15,90,47,493.3,16,-2.9,D,691.3,4,6.023,2,2.07,183,141.69,-80.13744218,25.91218878,0,0,1,N,0.6319917,71,71,11,138,138,143.0049,0,9999.99,4.17,4.297,2,9,30.4,0,30.3999996185303,41.83,1553.3988,08/28/22,10:19:00,31.65,62.43,41.83,1.019,8.18,-71.3,-4.5,-2.9,866,93.1,5.45,12.6,,
25.9122219289495,-80.1374720747208,10:45:57.52,8/28/2022,7,2.221,143.3,-7.21057349596169,1.72,150.1,140.47,2.63,8.1,27.7,.00,4.15,4.15,90,47,493.3,16,-2.9,D,691.3,4,4.746,2,2.09,183,140.95,-80.13744218,25.91218878,0,0,1,N,0.5591394,73,73,11,139,139,143.5244,0,9999.99,4.17,4.297,2,9,30.4,0,30.3999996185303,41.86,1553.43007,08/28/22,10:19:01,31.67,62.47,41.86,1.028,8.18,-71.3,-5.9,-4.9,894,93.0,5.45,12.6,,
25.9122134324656,-80.1374653009748,10:45:58.52,8/28/2022,7,2.055,144.01,-7.21057349596169,1.72,149.4,139.8,2.56,9.7,27.7,.00,4.14,4.14,90,47,493.3,16,-2.9,D,691.3,5,24.867,1,2.08,178,143.39,-80.13731704,25.91203391,0,0,1,N,0.2699235,72,72,11,139,139,142.7429,0,9999.99,4.16,4.287,2,9,30.4,0,30.3999996185303,41.78,1553.34672,08/28/22,10:19:02,31.67,62.36,41.78,1.007,8.18,-71.4,-5.6,-3.4,-2633,93.1,5.45,12.4,,
25.9122062169418,-80.1374602851721,10:45:59.52,8/28/2022,7,1.886,145.9,-7.21057349596169,1.72,150.7,141.04,2.45,7.52,27.7,.00,4.16,4.16,90,46,493.2,16,-2.8,D,714.1,5,23.924,1,2.08,173,143.21,-80.13731704,25.91203391,0,0,1,N,0.3333738,72,72,11,132,132,142.3024,0,9999.99,4.18,4.307,2,9,30.4,0,30.3999996185303,41.6,1553.15917,08/28/22,10:19:03,31.67,62.12,41.60,1.021,8.18,-71.4,-5.4,-4.0,-4206,93.1,5.45,12.6,,
25.9121983012461,-80.1374545826753,10:46:00.52,8/28/2022,7,2.061,145.54,-7.21057349596169,1.72,150.4,140.75,2.25,5.36,27.7,.00,4.15,4.15,90,46,493.2,16,-2.8,D,714.1,5,22.878,1,2.04,173,143.04,-80.13731704,25.91203391,0,0,1,N,0.3880791,71,71,11,131,131,141.7825,0,9999.99,4.17,4.297,2,9,30.4,0,30.3999996185303,41.65,1553.21136,08/28/22,10:19:04,31.66,62.19,41.65,0.997,8.18,-71.3,-5.5,-0.7,-726,93.1,5.45,12.6,,
25.9121899952331,-80.1374482479898,10:46:01.52,8/28/2022,10,2.236,144.57,-7.21057349596169,1.13,150.2,140.56,2.3,3.84,27.7,.00,4.12,4.12,90,46,493.2,16,-2.8,D,714.1,5,21.759,1,1.99,168,142.91,-80.13731704,25.91203391,0,0,1,N,0.4176515,71,71,11,130,130,141.2473,0,9999.99,4.14,4.267,2,9,30.4,0,30.3999996185303,41.8,1553.36767,08/28/22,10:19:05,31.65,62.38,41.80,1.006,8.18,-71.3,-6.0,-1.6,-711,93.3,5.46,12.7,,
25.9121832606896,-80.1374434891898,10:46:02.52,8/28/2022,10,1.908,144.75,-7.21057349596169,1.13,150.2,140.56,2.9,1.8,27.7,.00,4.12,4.13,90,46,493.2,16,-2.8,D,714.1,5,20.874,1,1.89,165,142.71,-80.13731704,25.91203391,0,0,1,N,0.4728692,72,72,11,124,124,140.609,0,9999.99,4.14,4.267,2,9,30.4,0,30.3999996185303,41.78,1553.34699,08/28/22,10:19:06,31.66,62.36,41.78,1.006,8.18,-71.3,-5.5,-4.7,-1958,93.2,5.46,12.4,,
25.9121774343602,-80.1374394551123,10:46:03.52,8/28/2022,10,1.703,145.75,-7.21057349596169,1.13,149.9,140.28,2.42,1.87,27.7,.01,4.11,4.12,90,30,493.2,16.1,-1.8,D,1089.8,5,20.115,1,1.78,161,142.51,-80.13731704,25.91203391,0,0,1,N,0.5280087,72,72,11,127,127,140.2143,0,9999.99,4.14,4.267,2,9,30.4,0,30.3999996185303,41.74,1553.30553,08/28/22,10:19:07,31.65,62.31,41.74,1.013,8.18,-71.3,-6.2,-5.9,-2214,93.1,5.45,12.6,,
25.9121712665095,-80.1374348277421,10:46:04.52,8/28/2022,10,1.683,145.58,-7.21057349596169,1.13,149.1,139.52,2.7,1.1,27.8,.00,4.13,4.13,90,30,493.2,16.1,-1.8,D,1089.8,5,19.289,1,1.67,160,142.36,-80.13731704,25.91203391,0,0,1,N,0.5580721,73,73,11,129,129,140.0002,0,9999.99,4.16,4.287,2,9,30.4,0,30.3999996185303,41.31,1552.85744,08/28/22,10:19:08,31.64,61.74,41.31,0.994,8.18,-71.3,-5.4,-2.6,-2109,93.0,5.46,12.6,,
25.9121654292735,-80.1374305236599,10:46:05.52,8/28/2022,10,1.51,144.32,-7.21057349596169,1.13,148.8,139.23,2.65,0.4,27.8,.00,4.15,4.15,90,30,493.2,16.1,-1.8,D,1089.8,5,18.512,1,1.56,158,142.18,-80.13731704,25.91203391,0,0,1,N,0.5927442,73,73,11,129,129,139.7532,0,9999.99,4.17,4.297,2,9,30.4,0,30.3999996185303,41.73,1553.29473,08/28/22,10:19:09,31.60,62.29,41.73,0.996,8.18,-71.3,-4.7,2.6,-2335,92.8,5.44,12.6,,
25.9121609549609,-80.1374272485849,10:46:06.52,8/28/2022,10,1.299,144.64,-7.21057349596169,1.13,147.9,138.38,2.16,0.2,27.8,.00,4.17,4.17,90,26,493.1,16.1,-1.6,D,1248.2,5,17.919,1,1.46,157,142.04,-80.13731704,25.91203391,0,0,1,N,0.6209523,70,70,11,132,132,139.5524,0,9999.99,4.19,4.317,2,9,30.4,0,30.3999996185303,41.35,1552.89879,08/28/22,10:19:10,31.59,61.79,41.35,1.002,8.18,-71.2,-6.7,-6.4,-254,92.9,5.46,12.5,,
25.9121568743583,-80.1374237326468,10:46:07.52,8/28/2022,10,1.246,144.6,-7.21057349596169,1.13,147.1,137.63,2.31,-0.19,27.7,.00,4.19,4.19,90,26,493.1,16.1,-1.6,D,1248.2,5,17.344,1,1.38,156,142.03,-80.13731704,25.91203391,0,0,1,N,0.6035985,71,71,11,135,135,139.6759,0,9999.99,4.21,4.337,2,9,30.4,0,30.3999996185303,41.52,1553.07584,08/28/22,10:19:11,31.58,62.01,41.52,1.022,8.18,-71.3,-5.2,-1.0,-5158,92.6,5.44,12.6,,
25.9121523751839,-80.1374199633414,10:46:08.52,8/28/2022,9,1.238,144.34,-7.21057349596169,1.21,146.8,137.34,2.52,-0.34,27.7,.00,4.19,4.19,90,26,493.1,16.1,-1.6,D,1248.2,5,16.718,1,1.32,156,141.99,-80.13731704,25.91203391,0,0,1,N,0.5925874,72,72,11,137,137,139.7542,0,9999.99,4.21,4.337,2,9,30.4,0,30.3999996185303,41.63,1553.19042,08/28/22,10:19:12,31.57,62.15,41.63,0.969,8.18,-71.1,-6.4,-5.9,-3857,92.9,5.45,12.7,,
25.9121476909762,-80.1374160159539,10:46:09.53,8/28/2022,9,1.258,142.29,-7.21057349596169,1.21,146.2,136.78,2.38,-0.38,27.7,.00,4.15,4.15,90,26,493.1,16.1,-1.6,D,1248.2,5,16.064,1,1.26,155,141.96,-80.13731704,25.91203391,0,0,1,N,0.5810902,70,70,11,137,137,139.8361,0,9999.99,4.17,4.297,2,9,30.4,0,30.3999996185303,41.56,1553.11746,08/28/22,10:19:13,31.58,62.06,41.56,0.967,8.18,-71.1,-6.7,-3.4,-2090,92.8,5.45,12.6,,
25.9121436761657,-80.1374124015876,10:46:10.53,8/28/2022,9,1.197,141.85,-7.21057349596169,1.21,145.9,136.49,1.83,-0.57,27.8,.00,4.16,4.16,90,25,493.1,16.1,-1.5,D,1318.8,5,15.490,1,1.2,155,141.99,-80.13731704,25.91203391,0,0,1,N,0.5521988,68,68,11,141,141,140.0419,0,9999.99,4.18,4.307,2,9,30.4,0,30.3999996185303,41.31,1552.85698,08/28/22,10:19:14,31.59,61.74,41.31,0.998,8.18,-71.1,-5.7,-1.8,-3885,92.8,5.45,12.5,,
25.9121395765352,-80.1374087989748,10:46:11.53,8/28/2022,9,1.127,143.14,-7.21057349596169,1.21,145.1,135.74,2.13,-0.6,27.8,.00,4.17,4.17,90,25,493.1,16.1,-1.5,D,1318.8,5,14.909,1,1.2,155,142.01,-80.13731704,25.91203391,0,0,1,N,0.5280772,71,71,11,145,145,140.2138,0,9999.99,4.19,4.317,2,9,30.4,0,30.3999996185303,41.31,1552.85705,08/28/22,10:19:15,31.60,61.74,41.31,1.007,8.18,-71.1,-6.4,-5.7,-3256,92.9,5.46,12.6,,
25.9121357452727,-80.1374055721502,10:46:12.53,8/28/2022,9,1.064,144.09,-7.21057349596169,1.21,146.2,136.78,1.99,-0.64,27.8,.00,4.19,4.20,90,25,493.1,16.1,-1.5,D,1318.8,5,14.375,1,1.16,155,141.98,-80.13731704,25.91203391,0,0,1,N,0.5180801,69,69,11,141,141,140.2851,0,9999.99,4.21,4.337,2,9,30.4,0,30.3999996185303,41.45,1553.00316,08/28/22,10:19:16,31.59,61.92,41.45,0.961,8.18,-70.9,-6.6,-5.6,-2133,92.6,5.44,12.6,,
25.9121313494978,-80.1374017487263,10:46:13.53,8/28/2022,9,1.111,142.29,-7.21057349596169,1.21,145.1,135.74,1.88,-0.67,27.8,.00,4.19,4.19,90,25,493.1,16.1,-1.5,D,1318.8,5,13.754,1,1.12,155,141.98,-80.13731704,25.91203391,0,0,1,N,0.4972638,68,68,11,147,147,140.4336,0,9999.99,4.21,4.337,2,9,30.4,0,30.3999996185303,41.59,1553.14906,08/28/22,10:19:17,31.61,62.11,41.59,1.001,8.18,-71.0,-6.1,-1.3,-603,92.7,5.44,12.6,,
25.9121273939764,-80.1373978535394,10:46:14.53,8/28/2022,10,1.219,139.27,-7.21057349596169,1.13,144.9,135.55,2.11,-0.54,27.8,.00,4.21,4.21,90,25,493.1,16.1,-1.5,D,1319.6,5,13.167,1,1.11,155,142.13,-80.13731704,25.91203391,0,0,1,N,0.437967,70,70,11,148,148,140.8569,0,9999.99,4.23,4.357,2,9,30.4,0,30.3999996185303,41.62,1553.18001,08/28/22,10:19:18,31.64,62.15,41.62,0.987,8.18,-71.0,-6.8,-0.3,-3797,92.7,5.44,12.5,,
25.9121234249112,-80.1373937683635,10:46:15.55,8/28/2022,10,1.086,139.92,-7.21057349596169,1.13,145.4,136.02,2.06,-1,27.8,.00,4.20,4.21,90,25,493.1,16.1,-1.5,D,1319.6,5,12.569,1,1.09,155,142.37,-80.13731704,25.91203391,0,0,1,N,0.3665349,69,69,11,148,148,141.3671,0,9999.99,4.22,4.347,2,9,30.4,0,30.3999996185303,41.7,1553.26337,08/28/22,10:19:19,31.66,62.25,41.70,0.966,8.18,-71.0,-6.4,-6.9,-4707,92.8,5.43,12.7,,
25.9121195073572,-80.1373895107832,10:46:16.56,8/28/2022,10,1.031,140.78,-7.21057349596169,1.13,145.3,135.93,1.9,-0.76,27.8,.00,4.20,4.20,90,25,493.1,16.1,-1.5,D,1319.6,5,11.964,1,1.1,155,142.71,-80.13731704,25.91203391,0,0,1,N,0.2813723,67,67,11,151,151,141.9761,0,9999.99,4.22,4.347,2,9,30.4,0,30.3999996185303,41.58,1553.13854,08/28/22,10:19:20,31.70,62.10,41.58,0.997,8.18,-70.9,-5.9,-1.3,-2807,92.3,5.41,12.6,,
25.9121159902151,-80.1373862377224,10:46:17.58,8/28/2022,10,1.152,140.04,-7.21057349596169,1.13,145.3,135.93,1.93,-0.45,27.8,.00,4.20,4.20,90,25,493.0,16.1,-1.5,D,1287.2,5,11.454,1,1.09,155,142.83,-80.13731704,25.91203391,0,0,1,N,0.2452542,70,70,11,151,151,142.2345,0,9999.99,4.22,4.347,2,9,30.4,0,30.3999996185303,41.53,1553.08628,08/28/22,10:19:21,31.73,62.04,41.53,1.026,8.18,-71.1,-6.2,-3.5,-4213,92.1,5.40,12.6,,
25.9121121811331,-80.1373827786023,10:46:18.58,8/28/2022,10,1.135,139.56,-7.21057349596169,1.13,145.7,136.3,2.21,-0.77,27.8,.00,4.22,4.22,90,25,493.0,16.1,-1.5,D,1287.2,5,10.908,1,1.03,155,142.93,-80.13731704,25.91203391,0,0,1,N,0.2101653,70,70,11,152,152,142.4855,0,9999.99,4.24,4.367,2,9,30.4,0,30.3999996185303,41.63,1553.19072,08/28/22,10:19:22,31.72,62.17,41.63,0.964,8.18,-71.1,-5.5,-5.7,-4129,92.2,5.40,12.6,,
25.9121081489971,-80.1373784564398,10:46:19.59,8/28/2022,10,1.024,140.06,-7.21057349596169,1.13,146,136.59,2.12,-0.89,27.8,.00,4.24,4.24,90,25,493.0,16.1,-1.5,D,1287.2,5,10.289,1,1.04,155,143.35,-80.13731704,25.91203391,0,0,1,N,0.1258439,70,70,11,153,153,143.0892,0,9999.99,4.26,4.387,2,9,30.4,0,30.3999996185303,41.62,1553.1801,08/28/22,10:19:24,31.71,62.16,41.62,0.971,8.18,-71.1,-5.3,-4.0,978,92.2,5.40,12.7,,
25.9121050830225,-80.1373753807161,10:46:20.61,8/28/2022,10,0.979,142.08,-7.21057349596169,1.13,146.6,137.15,2.07,-0.92,27.9,.00,4.25,4.25,90,25,493.0,16.1,-1.5,D,1287.2,5,9.832,1,1.04,155,143.6,-80.13731704,25.91203391,0,0,1,N,7.724339E-02,69,69,11,152,152,143.4372,0,9999.99,4.27,4.397,2,9,30.4,0,30.3999996185303,41.56,1553.11755,08/28/22,10:19:25,31.70,62.08,41.56,0.994,8.18,-71.0,-5.8,-1.5,1186,92.2,5.40,12.6,,
25.912101872978,-80.1373724956926,10:46:21.61,8/28/2022,10,0.977,142.21,-7.21057349596169,1.13,146.6,137.15,1.85,-0.43,27.9,.00,4.24,4.24,90,25,493.0,16.1,-1.5,D,1292.1,5,9.374,1,1.01,155,143.72,-80.13731704,25.91203391,0,0,1,N,5.242337E-02,68,68,11,153,153,143.6149,0,9999.99,4.26,4.387,2,9,30.5,0,30.3999996185303,41.56,1553.11755,08/28/22,10:19:25,31.70,62.08,41.56,0.994,8.18,-71.0,-5.8,-1.5,1186,92.2,5.40,12.6,,
25.9120983156175,-80.1373697355077,10:46:22.63,8/28/2022,10,1.081,140.62,-7.21057349596169,1.13,146.8,137.34,2.01,-0.76,27.8,.00,4.26,4.26,90,25,493.0,16.1,-1.5,D,1283.9,5,8.892,1,1.03,155,143.65,-80.13731704,25.91203391,0,0,1,N,6.081225E-02,71,71,11,152,152,143.5548,0,9999.99,4.28,4.407,2,9,30.5,0,30.5,41.46,1553.21227,08/28/22,10:19:27,31.69,61.94,41.46,0.956,8.18,-70.9,-5.3,-2.7,-2435,92.6,5.43,12.6,,
25.912094317664,-80.1373664208896,10:46:23.63,8/28/2022,10,0.965,141.75,-7.21057349596169,1.13,147.3,137.81,2.2,-1.17,27.8,.00,4.24,4.25,90,25,493.0,16.1,-1.5,D,1283.9,5,8.337,1,1.04,155,143.67,-80.13731704,25.91203391,0,0,1,N,5.494004E-02,70,70,11,150,150,143.5969,0,9999.99,4.26,4.387,2,9,30.5,0,30.5,41.46,1553.21227,08/28/22,10:19:27,31.69,61.94,41.46,0.956,8.18,-70.9,-5.3,-2.7,-2435,92.6,5.43,12.6,,
25.9120910318149,-80.1373635078739,10:46:24.63,8/28/2022,10,0.936,144.06,-7.21057349596169,1.13,147.9,138.38,2.08,-0.68,27.9,.00,4.24,4.24,90,25,493.0,16.1,-1.5,D,1283.9,5,7.871,1,1.03,155,143.81,-80.13731704,25.91203391,0,0,1,N,3.350971E-02,69,69,11,148,148,143.7504,0,9999.99,4.26,4.387,2,9,30.5,0,30.5,41.23,1552.97259,08/28/22,10:19:28,31.70,61.64,41.23,0.994,8.18,-71.0,-5.0,-5.2,-1387,92.7,5.44,12.6,,
25.9120878287607,-80.1373609641977,10:46:25.64,8/28/2022,10,1.003,144.33,-7.21057349596169,1.13,148,138.48,2.08,-0.97,27.9,.00,4.28,4.28,90,25,493.0,16.1,-1.5,D,1283.9,5,7.433,1,1.03,155,143.77,-80.13731704,25.91203391,0,0,1,N,3.651767E-02,69,69,11,148,148,143.7288,0,9999.99,4.30,4.427,2,9,30.5,0,30.5,41.27,1553.01435,08/28/22,10:19:30,31.71,61.70,41.27,0.993,8.18,-70.9,-4.6,-5.9,-4348,93.0,5.46,12.5,,
25.9120838333333,-80.1373578333333,10:46:26.66,8/28/2022,10,1.031,138.48,-7.21057349596169,1.13,147.8,138.29,1.74,-0.97,27.9,.01,4.29,4.30,90,24,492.9,16.1,-1.5,D,1326.2,5,6.875,1,1.03,155,143.91,-80.13731704,25.91203391,0,0,1,N,1.861556E-02,67,67,11,149,149,143.8571,0,9999.99,4.31,4.437,2,9,30.5,0,30.5,41.27,1553.01435,08/28/22,10:19:30,31.71,61.70,41.27,0.993,8.18,-70.9,-4.6,-5.9,-4348,93.0,5.46,12.5,,
25.91208,-80.1373546666667,10:46:27.69,8/28/2022,10,0.887,142.69,-7.21057349596169,1.13,148.7,139.14,2.3,-1.03,27.9,.01,4.28,4.29,90,24,492.9,16.1,-1.5,D,1326.2,5,6.359,1,1.04,155,144.23,-80.13731704,25.91203391,0,0,1,N,1.866628E-02,71,71,11,147,147,144.1241,0,9999.99,4.30,4.427,2,9,30.5,0,30.5,41.3,1553.0459,08/28/22,10:19:31,31.71,61.74,41.30,0.935,8.17,-70.8,-4.3,-1.6,-1897,92.8,5.45,12.5,,
25.912076,-80.1373516666667,10:46:28.69,8/28/2022,10,0.976,146.74,-7.21057349596169,1.13,149.4,139.8,1.54,-0.95,27.9,.00,4.28,4.29,90,24,492.9,16.1,-1.5,D,1326.2,6,28.814,1,1.02,155,194.34,-80.13742242,25.91182544,0,0,1,N,5.111215,65,65,11,250,250,181.0463,0,9999.99,4.30,4.427,2,9,30.5,0,30.5,41.26,1553.00405,08/28/22,10:19:33,31.70,61.69,41.26,1.013,8.18,-70.9,-6.4,-1.7,1,92.5,5.43,12.5,,
25.9120725,-80.1373488333333,10:46:29.69,8/28/2022,10,1.077,141.98,-7.21057349596169,1.13,150.5,140.85,1.36,2.21,27.9,.00,4.28,4.28,90,25,492.9,16.1,-1.5,D,1287,6,28.455,1,1.02,155,195.11,-80.13742242,25.91182544,0,0,1,N,4.671581,65,65,11,250,250,182.2539,0,9999.99,4.30,4.427,2,9,30.5,0,30.5,41.26,1553.00405,08/28/22,10:19:33,31.70,61.69,41.26,1.013,8.18,-70.9,-6.4,-1.7,1,92.5,5.43,12.5,,
25.9120683578192,-80.137345278604,10:46:30.70,8/28/2022,10,0.958,140.68,-7.21057349596169,1.13,154.4,144.57,2.82,-1.95,27.9,.00,4.31,4.31,90,25,492.9,16.1,-1.5,D,1287,6,28.092,1,1.02,155,195.94,-80.13742242,25.91182544,0,0,1,N,4.236032,74,74,11,250,250,183.6027,0,9999.99,4.32,4.447,2,9,30.5,0,30.5,41.47,1553.22272,08/28/22,10:19:34,31.69,61.95,41.47,0.934,8.18,-70.9,-5.6,-8.5,-4151,92.4,5.42,12.4,,
25.9120643572398,-80.1373426580883,10:46:31.70,8/28/2022,10,0.876,140.68,-7.21057349596169,1.13,158.7,148.69,2.7,-0.47,27.9,.00,4.27,4.27,90,25,492.9,16.1,-1.5,D,1287,6,27.738,1,0.98,155,196.71,-80.13742242,25.91182544,0,0,1,N,3.772559,73,73,11,250,250,185.0074,0,9999.99,4.29,4.417,2,9,30.5,0,30.5,41.18,1552.92077,08/28/22,10:19:35,31.68,61.58,41.18,0.968,8.17,-70.8,-6.3,-4.0,-2786,92.4,5.43,12.6,,
25.9120616666667,-80.1373413333333,10:46:32.72,8/28/2022,10,0.847,140.68,-7.21057349596169,1.13,163.1,152.95,2.81,-1.77,27.9,.00,4.29,4.29,90,25,492.9,16.1,-1.5,D,1287,6,27.423,1,0.95,155,197.42,-80.13742242,25.91182544,0,0,1,N,3.397848,74,74,11,250,250,186.3019,0,9999.99,4.31,4.437,2,9,30.5,0,30.5,41.07,1552.80613,08/28/22,10:19:36,31.66,61.43,41.07,0.985,8.18,-70.9,-5.4,-6.4,-2768,92.2,5.42,12.6,,
25.9120581666667,-80.1373403333333,10:46:33.72,8/28/2022,10,0.967,145.24,-7.21057349596169,1.13,166.8,156.55,2.24,-1.32,27.9,.01,4.31,4.32,90,25,492.9,16.1,-1.5,D,1319.2,6,27.144,1,0.92,155,197.83,-80.13742242,25.91182544,0,0,1,N,3.166461,71,71,11,250,250,186.9511,0,9999.99,4.34,4.467,2,9,30.5,0,30.5,41.05,1552.78555,08/28/22,10:19:38,31.62,61.40,41.05,0.949,8.17,-70.6,-5.6,-3.8,-1710,92.3,5.43,12.5,,
25.9120544975937,-80.137338816434,10:46:34.75,8/28/2022,10,0.844,149.08,-7.21057349596169,1.13,171.1,160.77,2.66,-1.04,27.9,.00,4.31,4.31,90,25,492.9,16.1,-1.5,D,1319.2,6,26.808,1,0.91,155,198.17,-80.13742242,25.91182544,0,0,1,N,2.904616,73,73,11,234,234,187.4756,0,9999.99,4.33,4.457,2,9,30.5,0,30.5,41.05,1552.78555,08/28/22,10:19:38,31.62,61.40,41.05,0.949,8.17,-70.6,-5.6,-3.8,-1710,92.3,5.43,12.5,,
25.912051051691,-80.1373373745004,10:46:35.75,8/28/2022,10,0.814,149.08,-7.21057349596169,1.13,175.6,165.22,2.92,-1.65,27.9,.00,4.29,4.29,90,25,492.9,16.1,-1.5,D,1319.2,6,26.490,1,0.91,155,198.73,-80.13742242,25.91182544,0,0,1,N,2.657903,75,75,11,220,220,188.3876,0,9999.99,4.31,4.437,2,9,30.5,0,30.5,40.97,1552.70198,08/28/22,10:19:39,31.60,61.30,40.97,0.933,8.17,-70.6,-5.0,-3.9,-3647,92.3,5.43,12.5,,
25.9120478888482,-80.1373370867266,10:46:36.77,8/28/2022,10,0.834,149.08,-7.21057349596169,1.13,179.2,168.81,2.44,-1.57,27.9,.00,4.19,4.19,90,25,492.8,16.1,-1.5,D,1283.7,6,26.166,1,0.89,155,199.04,-80.13742242,25.91182544,0,0,1,N,2.403367,72,72,11,208,208,189.0033,0,9999.99,4.21,4.337,2,9,30.5,0,30.5,41.21,1552.95179,08/28/22,10:19:41,31.60,61.61,41.21,0.963,8.17,-70.7,-6.7,-4.0,-3267,92.4,5.44,12.6,,
25.9120448333333,-80.1373368333333,10:46:37.77,8/28/2022,10,0.885,158.8,-7.21057349596169,1.13,182.7,172.32,2.61,-1.74,27.8,.01,4.30,4.30,90,25,492.8,16.1,-1.5,D,1283.7,6,25.787,1,0.88,155,199.47,-80.13742242,25.91182544,0,0,1,N,2.269135,73,73,11,198,198,189.2944,0,9999.99,4.32,4.447,2,9,30.5,0,30.5,41.21,1552.95179,08/28/22,10:19:41,31.60,61.61,41.21,0.963,8.17,-70.7,-6.7,-4.0,-3267,92.4,5.44,12.6,,
25.9120400013433,-80.1373366260556,10:46:38.80,8/28/2022,10,0.895,166.48,-7.21057349596169,1.13,185.1,174.74,2.65,-1.5,27.9,.00,4.31,4.31,90,25,492.8,16.1,-1.5,D,1283.7,6,25.354,1,0.86,155,199.78,-80.13742242,25.91182544,0,0,1,N,2.081388,73,73,11,188,188,189.8939,0,9999.99,4.33,4.457,2,9,30.5,0,30.5,40.87,1552.59808,08/28/22,10:19:42,31.61,61.16,40.87,0.952,8.17,-70.6,-5.2,-1.4,-3475,92.5,5.45,12.5,,
25.9120363964035,-80.1373373090582,10:46:39.81,8/28/2022,10,0.838,176.89,-7.21057349596169,1.13,187.7,177.37,2.57,-1.01,27.9,.00,4.31,4.31,90,25,492.8,16.1,-1.5,D,1283.7,6,24.954,1,0.86,155,199.95,-80.13742242,25.91182544,0,0,1,N,1.88963,72,72,11,181,181,190.8107,0,9999.99,4.33,4.457,2,9,30.5,0,30.5,41.05,1552.7852,08/28/22,10:19:44,31.62,61.39,41.05,0.982,8.17,-70.6,-4.9,-1.9,-1707,92.3,5.43,12.6,,
25.9120317155216,-80.1373378611973,10:46:40.84,8/28/2022,10,0.982,182.9,-7.21057349596169,1.13,190.4,180.12,2.07,-1.77,27.9,.00,4.29,4.29,90,25,492.8,16.1,-1.5,D,1298.3,6,24.446,1,0.87,155,200.24,-80.13742242,25.91182544,0,0,1,N,1.816478,69,69,11,173,173,191.6561,0,9999.99,4.31,4.437,2,9,30.5,0,30.5,41.05,1552.7852,08/28/22,10:19:44,31.62,61.39,41.05,0.982,8.17,-70.6,-4.9,-1.9,-1707,92.3,5.43,12.6,,
25.9120271235222,-80.1373380731178,10:46:41.86,8/28/2022,10,0.986,182.9,-7.21057349596169,1.13,192.5,182.26,1.73,-1.82,27.9,.00,4.26,4.26,90,25,492.8,16.1,-1.5,D,1298.3,6,23.961,1,0.9,155,200.61,-80.13742242,25.91182544,0,0,1,N,1.623204,67,67,11,170,170,192.9802,0,9999.99,4.28,4.407,2,9,30.5,0,30.5,41.2,1552.94156,08/28/22,10:19:45,31.63,61.60,41.20,0.985,8.17,-70.5,-5.6,-6.3,-3351,92.5,5.44,12.7,,
25.912022763168,-80.137339255566,10:46:42.86,8/28/2022,10,0.928,185.89,-7.21057349596169,1.13,193.8,183.59,2.29,-1.92,27.9,.00,4.23,4.24,90,25,492.8,16.1,-1.5,D,1314,6,23.465,1,0.92,155,200.76,-80.13742242,25.91182544,0,0,1,N,1.527413,71,71,11,169,169,193.6408,0,9999.99,4.25,4.377,2,9,30.5,0,30.5,41.12,1552.85838,08/28/22,10:19:47,31.65,61.50,41.12,0.981,8.17,-70.6,-5.6,-5.6,-3749,92.4,5.43,12.6,,
25.9120187208991,-80.1373402768191,10:46:43.86,8/28/2022,10,0.991,187.78,-7.21057349596169,1.13,194.2,184,2.1,-0.98,27.9,.00,4.18,4.18,90,25,492.8,16.1,-1.5,D,1314,6,23.009,1,0.94,155,200.92,-80.13742242,25.91182544,0,0,1,N,1.433437,70,70,11,168,168,194.2906,0,9999.99,4.20,4.327,2,9,30.5,0,30.5,41.12,1552.85838,08/28/22,10:19:47,31.65,61.50,41.12,0.981,8.17,-70.6,-5.6,-5.6,-3749,92.4,5.43,12.6,,
25.9120142501717,-80.1373414915524,10:46:44.89,8/28/2022,10,1.002,190.96,-7.21057349596169,1.13,195.1,184.93,2.1,-0.24,27.9,.00,4.24,4.24,90,25,492.8,16.1,-1.5,D,1314,6,22.501,1,0.94,155,201.08,-80.13742242,25.91182544,0,0,1,N,1.339254,70,70,11,167,167,194.9467,0,9999.99,4.26,4.387,2,9,30.5,0,30.5,41.14,1552.87904,08/28/22,10:19:48,31.65,61.52,41.14,0.984,8.17,-70.6,-5.2,-3.0,-1695,92.1,5.41,12.6,,
25.9120097496226,-80.1373428746542,10:46:45.89,8/28/2022,10,0.981,194.26,-7.21057349596169,1.13,196.7,186.57,1.96,-1.26,27.9,.00,4.25,4.25,90,25,492.8,16.1,-1.5,D,1321.5,6,21.984,1,0.95,155,201.22,-80.13742242,25.91182544,0,0,1,N,1.255695,69,69,11,163,163,195.5295,0,9999.99,4.27,4.397,2,9,30.5,0,30.5,41.19,1552.93106,08/28/22,10:19:49,31.66,61.58,41.19,0.976,8.17,-70.5,-5.4,-3.0,-1717,92.4,5.43,12.6,,
25.912005535273,-80.1373443562452,10:46:46.89,8/28/2022,10,0.957,195.84,-7.21057349596169,1.13,197.6,187.5,2.22,-1.16,27.8,.00,4.20,4.20,90,25,492.8,16.1,-1.5,D,1321.5,6,21.494,1,0.96,155,201.3,-80.13742242,25.91182544,0,0,1,N,1.194668,70,70,11,161,161,195.9567,0,9999.99,4.22,4.347,2,9,30.5,0,30.5,41.1,1552.83735,08/28/22,10:19:51,31.67,61.46,41.10,0.974,8.17,-70.5,-5.7,-4.4,-1383,92.2,5.42,12.6,,
25.9120013560478,-80.1373460325113,10:46:47.89,8/28/2022,10,0.949,198.33,-7.21057349596169,1.13,198.6,188.53,2.22,-0.91,27.9,.00,4.18,4.18,90,25,492.8,16.1,-1.5,D,1321.5,6,21.000,1,0.98,155,201.33,-80.13742242,25.91182544,0,0,1,N,1.154763,70,70,11,158,158,196.2364,0,9999.99,4.20,4.327,2,9,30.5,0,30.5,41.1,1552.83735,08/28/22,10:19:51,31.67,61.46,41.10,0.974,8.17,-70.5,-5.7,-4.4,-1383,92.2,5.42,12.6,,
25.9119975975532,-80.1373477922548,10:46:48.89,8/28/2022,10,1.019,200.21,-7.21057349596169,0.99,199.3,189.25,2.16,-0.87,27.9,.00,4.16,4.16,90,25,492.8,16.1,-1.5,D,1321.5,6,20.547,1,1,155,201.3,-80.13742242,25.91182544,0,0,1,N,1.035281,70,70,11,155,155,196.325,0,9999.99,4.18,4.307,2,9,30.5,0,30.5,41.07,1552.80601,08/28/22,10:19:52,31.66,61.43,41.07,0.982,8.17,-70.5,-5.6,-5.3,-3303,92.1,5.42,12.6,,
25.91199267637,-80.1373497349308,10:46:49.89,8/28/2022,10,0.993,199.56,-7.21057349596169,0.99,200.1,190.08,2.32,-0.6,27.9,.00,4.16,4.16,90,25,492.7,16.1,-1.5,D,1318.1,6,19.966,1,1.01,155,201.35,-80.13742242,25.91182544,0,0,1,N,1.094918,71,71,11,155,155,196.6566,0,9999.99,4.18,4.307,2,9,30.5,0,30.5,40.87,1552.59782,08/28/22,10:19:54,31.66,61.16,40.87,1.007,8.17,-70.3,-4.7,-5.3,-1028,92.0,5.42,12.3,,
25.9119888246851,-80.1373515536254,10:46:50.89,8/28/2022,10,0.954,200.06,-7.21057349596169,0.99,200.5,190.49,2.25,-1.02,27.9,.00,4.13,4.14,90,25,492.7,16.1,-1.5,D,1318.1,6,19.501,1,1.01,155,201.31,-80.13742242,25.91182544,0,0,1,N,1.080519,71,71,11,155,155,196.7581,0,9999.99,4.15,4.277,2,9,30.5,0,30.5,40.87,1552.59782,08/28/22,10:19:54,31.66,61.16,40.87,1.007,8.17,-70.3,-4.7,-5.3,-1028,92.0,5.42,12.3,,
25.911984343905,-80.1373536224226,10:46:51.89,8/28/2022,10,1.007,202.03,-7.21057349596169,0.99,201.6,191.63,2.1,-0.82,28,.00,4.11,4.12,90,25,492.7,16.1,-1.5,D,1318.1,6,18.962,1,1.02,155,201.28,-80.13742242,25.91182544,0,0,1,N,1.062957,70,70,11,148,148,196.8813,0,9999.99,4.13,4.257,2,9,30.5,0,30.5,41,1552.73339,08/28/22,10:19:55,31.66,61.33,41.00,0.993,8.17,-70.5,-5.5,-0.2,-3410,92.0,5.41,12.6,,
25.911980173655,-80.1373556177883,10:46:52.89,8/28/2022,10,1.044,200.97,-7.21057349596169,0.99,201.6,191.63,1.93,-1.6,28,.00,4.11,4.11,90,25,492.7,16.1,-1.5,D,1319.7,6,18.457,1,1.02,155,201.22,-80.13742242,25.91182544,0,0,1,N,1.052634,69,69,11,148,148,196.954,0,9999.99,4.13,4.257,2,9,30.5,0,30.5,40.9,1552.62907,08/28/22,10:19:57,31.66,61.21,40.90,0.974,8.17,-70.4,-6.0,-4.4,-5703,92.3,5.43,12.6,,
25.9119759729526,-80.1373570946612,10:46:53.89,8/28/2022,10,1.006,199.35,-7.21057349596169,0.99,201,191.01,2.17,0.08,28,.00,4.10,4.11,90,25,492.7,16.1,-1.5,D,1319.7,6,17.968,1,1.04,155,201.32,-80.13742242,25.91182544,0,0,1,N,0.9924853,71,71,11,152,152,197.3782,0,9999.99,4.12,4.247,2,9,30.5,0,30.5,40.9,1552.62907,08/28/22,10:19:57,31.66,61.21,40.90,0.974,8.17,-70.4,-6.0,-4.4,-5703,92.3,5.43,12.6,,
25.9119716249196,-80.1373592511863,10:46:54.89,8/28/2022,10,1.003,202.28,-7.21057349596169,0.99,201.1,191.11,2.3,0.57,28.1,.00,4.08,4.08,90,25,492.7,16.1,-1.5,D,1319.7,6,17.440,1,1.05,155,201.24,-80.13742242,25.91182544,0,0,1,N,0.9894316,71,71,11,152,152,197.3995,0,9999.99,4.10,4.227,2,9,30.6,0,30.6000003814697,40.9,1552.82768,08/28/22,10:19:59,31.69,61.21,40.90,1.021,8.17,-70.6,-4.2,-5.1,-3348,92.3,5.43,12.6,,
25.9119668111695,-80.1373611705814,10:46:55.92,8/28/2022,10,1.051,201.46,-7.21057349596169,0.99,202,192.04,1.75,-0.54,28,.00,4.05,4.05,90,25,492.7,16.1,-1.5,D,1319.7,6,16.871,1,1.06,155,201.29,-80.13742242,25.91182544,0,0,1,N,0.9419516,67,67,11,150,150,197.7349,0,9999.99,4.07,4.197,2,9,30.5,0,30.6000003814697,40.9,1552.82768,08/28/22,10:19:59,31.69,61.21,40.90,1.021,8.17,-70.6,-4.2,-5.1,-3348,92.3,5.43,12.6,,
25.9119622286445,-80.1373631907256,10:46:56.94,8/28/2022,10,1.064,203.01,-7.21057349596169,0.99,202.4,192.46,1.81,-1.11,28,.00,4.02,4.02,90,24,492.7,16.1,-1.5,D,1324.8,6,16.323,1,1.06,155,201.28,-80.13742242,25.91182544,0,0,1,N,0.9164882,68,68,11,148,148,197.9146,0,9999.99,4.04,4.167,2,9,30.6,0,30.6000003814697,40.97,1552.90035,08/28/22,10:20:00,31.68,61.30,40.97,0.999,8.17,-70.4,-5.4,-6.4,-1718,92.5,5.44,12.7,,
25.911957966041,-80.137364950893,10:46:57.95,8/28/2022,10,1.073,200.87,-7.21057349596169,0.99,202.5,192.56,1.84,-1.58,28,.00,4.01,4.02,90,24,492.7,16.1,-1.5,D,1324.8,6,15.817,1,1.05,155,201.31,-80.13742242,25.91182544,0,0,1,N,0.8776399,68,68,11,150,150,198.1894,0,9999.99,4.03,4.157,2,9,30.6,0,30.6000003814697,40.72,1552.64033,08/28/22,10:20:02,31.66,60.97,40.72,0.982,8.17,-70.3,-4.9,-8.6,-3423,92.7,5.46,12.4,,
25.9119536252985,-80.1373673104928,10:46:58.97,8/28/2022,10,0.983,203.12,-7.21057349596169,0.99,202.4,192.46,2.17,-0.71,28,.00,3.97,3.98,90,24,492.7,16.1,-1.5,D,1324.8,6,15.282,1,1.07,155,201.14,-80.13742242,25.91182544,0,0,1,N,0.8956454,71,71,11,150,150,198.0621,0,9999.99,3.99,4.117,2,9,30.6,0,30.6000003814697,40.72,1552.64033,08/28/22,10:20:02,31.66,60.97,40.72,0.982,8.17,-70.3,-4.9,-8.6,-3423,92.7,5.46,12.4,,
25.9119489219147,-80.1373690490213,10:46:59.97,8/28/2022,10,1.018,201.37,-7.21057349596169,0.99,203,193.08,2.27,-0.58,28,.00,3.95,3.95,90,24,492.6,16.1,-1.5,D,1323.9,6,14.732,1,1.11,155,201.24,-80.13742242,25.91182544,0,0,1,N,0.8350617,70,70,11,151,151,198.491,0,9999.99,3.97,4.097,2,9,30.6,0,30.6000003814697,40.93,1552.85892,08/28/22,10:20:03,31.65,61.24,40.93,1.003,8.17,-70.4,-4.8,-7.1,-4413,92.6,5.45,12.6,,
25.9119442227681,-80.137370957172,10:47:00.98,8/28/2022,10,1.094,202.69,-7.21057349596169,0.99,203.2,193.29,1.91,-1.16,28.1,.00,3.93,3.93,90,24,492.6,16.1,-1.5,D,1323.9,6,14.175,1,1.09,155,201.29,-80.13742242,25.91182544,0,0,1,N,0.7916381,68,68,11,149,149,198.7988,0,9999.99,3.95,4.077,2,9,30.6,0,30.6000003814697,40.95,1552.87962,08/28/22,10:20:05,31.61,61.27,40.95,0.987,8.17,-70.3,-5.6,-4.1,-2190,92.4,5.44,12.6,,
